date;id_station;id_network;type;latitude;longitude;altitude;country;area_adm_1;area_adm_2;area_adm_3;name;value;value_max
16/04/17 12:00;CZ0002;Eurdep;air;48.96;14.47;0;Czech Republic;0;0;0;Č. BUDĚJOVICE - SÚJB;14;15
16/04/17 12:00;CZ0003;Eurdep;air;49.73;13.36;0;Czech Republic;0;0;0;PLZEŇ;10.289;10
16/04/17 12:00;CZ0004;Eurdep;air;50.67;14.03;0;Czech Republic;0;0;0;ÚSTÍ NAD LABEM - SÚJB;9.622;10
16/04/17 12:00;CZ0005;Eurdep;air;50.24;15.87;0;Czech Republic;0;0;0;HRADEC KRÁLOVÉ - SÚJB;11.033;11
16/04/17 12:00;CZ0006;Eurdep;air;49.21;16.62;0;Czech Republic;0;0;0;BRNO;11.811;12
16/04/17 12:00;CZ0007;Eurdep;air;49.83;18.28;0;Czech Republic;0;0;0;OSTRAVA;11.633;12
16/04/17 12:00;CZ0011;Eurdep;air;50.09;14.43;0;Czech Republic;0;0;0;PRAHA - SÚJB;9.056000000000001;9
16/04/17 12:00;CZ0013;Eurdep;air;50.06;14.45;0;Czech Republic;0;0;0;PRAHA - SÚRO;10.733;11
16/04/17 12:00;CZ0020;Eurdep;air;49.62;13.99;0;Czech Republic;0;0;0;KAMENNÁ;17.211000000000002;17
16/04/17 12:00;CZ1015;Eurdep;air;50.97;14.51;0;Czech Republic;0;0;0;VALDEK;11.344;11
16/04/17 12:00;CZ1033;Eurdep;air;50.37;12.61;0;Czech Republic;0;0;0;PŘEBUZ;13.711000000000002;14
16/04/17 12:00;CZ1080;Eurdep;air;50.24;17.19;0;Czech Republic;0;0;0;JESENÍK;9.478;10
16/04/17 12:00;CZ1103;Eurdep;air;48.72;14.73;0;Czech Republic;0;0;0;HOJNÁ VODA;12;13
16/04/17 12:00;CZ1110;Eurdep;air;50.66;15.85;0;Czech Republic;0;0;0;RÝCHORY;10.067;11
16/04/17 12:00;CZ1134;Eurdep;air;49.05;18.01;0;Czech Republic;0;0;0;ŠTÍTNÁ VLÁŘÍ;9.433;9
16/04/17 12:00;CZ1135;Eurdep;air;48.79;16.73;0;Czech Republic;0;0;0;VALTICE - SEDLEC;10.244;10
16/04/17 12:00;CZ1186;Eurdep;air;49.94;17.91;0;Czech Republic;0;0;0;OPAVA;10.889;11
16/04/17 12:00;CZ1214;Eurdep;air;49.54;18.54;0;Czech Republic;0;0;0;BÍLÝ KŘÍŽ;9.222;10
16/04/17 12:00;CZ1406;Eurdep;air;50.08;12.4;0;Czech Republic;0;0;0;CHEB;10.644;11
16/04/17 12:00;CZ1414;Eurdep;air;50.2;12.92;0;Czech Republic;0;0;0;KARLOVY VARY;15.811000000000002;16
16/04/17 12:00;CZ1423;Eurdep;air;49.67;12.68;0;Czech Republic;0;0;0;PŘIMDA;12;13
16/04/17 12:00;CZ1438;Eurdep;air;50.38;13.33;0;Czech Republic;0;0;0;TUŠIMICE;9.933;11
16/04/17 12:00;CZ1457;Eurdep;air;49.07;13.61;0;Czech Republic;0;0;0;CHURÁŇOV;14.922;15
16/04/17 12:00;CZ1487;Eurdep;air;49.47;13.83;0;Czech Republic;0;0;0;KOCELOVICE;15.611;16
16/04/17 12:00;CZ1502;Eurdep;air;50.68;14.04;0;Czech Republic;0;0;0;ÚSTÍ NAD LABEM;11.111;11
16/04/17 12:00;CZ1509;Eurdep;air;50.46;14.17;0;Czech Republic;0;0;0;DOKSANY;11.443999999999999;12
16/04/17 12:00;CZ1518;Eurdep;air;50.1;14.25;0;Czech Republic;0;0;0;PRAHA - RUZYNĚ;12.222;13
16/04/17 12:00;CZ1520;Eurdep;air;50.01;14.45;0;Czech Republic;0;0;0;PRAHA - LIBUŠ;11.344;12
16/04/17 12:00;CZ1538;Eurdep;air;49.2;14.34;0;Czech Republic;0;0;0;TEMELÍN;13.633000000000001;14
16/04/17 12:00;CZ1546;Eurdep;air;48.95;14.47;0;Czech Republic;0;0;0;ČESKÉ BUDĚJOVICE;13.688999999999998;14
16/04/17 12:00;CZ1603;Eurdep;air;50.77;15.02;0;Czech Republic;0;0;0;LIBEREC - LETIŠTĚ;12.111;12
16/04/17 12:00;CZ1628;Eurdep;air;49.57;15.08;0;Czech Republic;0;0;0;KRAMOLÍN - KOŠETICE;13;14
16/04/17 12:00;CZ1636;Eurdep;air;49.17;15.43;0;Czech Republic;0;0;0;KOSTELNÍ MYSLOVÁ;13.278;13
16/04/17 12:00;CZ1643;Eurdep;air;50.69;15.73;0;Czech Republic;0;0;0;PEC POD SNĚŽKOU;12.367;13
16/04/17 12:00;CZ1649;Eurdep;air;50.18;15.84;0;Czech Republic;0;0;0;HRADEC KRÁLOVÉ;8.511;8
16/04/17 12:00;CZ1659;Eurdep;air;49.58;15.77;0;Czech Republic;0;0;0;PŘIBYSLAV;13.078;14
16/04/17 12:00;CZ1679;Eurdep;air;49.98;16.42;0;Czech Republic;0;0;0;ÚSTÍ NAD ORLICÍ;12.033;12
16/04/17 12:00;CZ1683;Eurdep;air;49.73;16.03;0;Czech Republic;0;0;0;SVRATOUCH;12.356;12
16/04/17 12:00;CZ1693;Eurdep;air;49.1;16.13;0;Czech Republic;0;0;0;DUKOVANY;8.778;9
16/04/17 12:00;CZ1698;Eurdep;air;48.88;16.08;0;Czech Republic;0;0;0;KUCHAŘOVICE;10;10
16/04/17 12:00;CZ1710;Eurdep;air;49.65;16.95;0;Czech Republic;0;0;0;LUKÁ;12.589;13
16/04/17 12:00;CZ1723;Eurdep;air;49.15;16.69;0;Czech Republic;0;0;0;BRNO - TUŘANY;11.511;12
16/04/17 12:00;CZ1766;Eurdep;air;49.77;17.55;0;Czech Republic;0;0;0;ČERVENÁ U LIBAVÉ;13.578;14
16/04/17 12:00;CZ1774;Eurdep;air;49.32;17.57;0;Czech Republic;0;0;0;HOLEŠOV;11.522;12
