date;id_station;id_network;type;latitude;longitude;altitude;country;area_adm_1;area_adm_2;area_adm_3;name;value;value_max
15/08/17 02:00;DEZ0001;Eurdep;air;54.78;9.38;0;Germany;0;0;0;FLENSBURG;7.122;7.35
15/08/17 02:00;DEZ0005;Eurdep;air;54.02;9.05;0;Germany;0;0;0;BARLT;7.7010000000000005;8.01
15/08/17 02:00;DEZ0008;Eurdep;air;54.17;9.33;0;Germany;0;0;0;BUNSOH;6.531999999999999;6.81
15/08/17 02:00;DEZ0012;Eurdep;air;54.19;9.15;0;Germany;0;0;0;HEIDE;6.412999999999999;6.63
15/08/17 02:00;DEZ0013;Eurdep;air;54.35;9.02;0;Germany;0;0;0;LEHE;6.965000000000001;7.2700000000000005
15/08/17 02:00;DEZ0017;Eurdep;air;54.21;8.92;0;Germany;0;0;0;WESSELBUREN;7.258;7
15/08/17 02:00;DEZ0032;Eurdep;air;53.39;10.49;0;Germany;0;0;0;SCHNAKENBEK;7.0840000000000005;7.33
15/08/17 02:00;DEZ0034;Eurdep;air;53.44;10.45;0;Germany;0;0;0;WIERSHOP;8.355;8.55
15/08/17 02:00;DEZ0038;Eurdep;air;54.77;8.29;0;Germany;0;0;0;HÖRNUM / SYLT;4.933;5
15/08/17 02:00;DEZ0044;Eurdep;air;54.65;8.35;0;Germany;0;0;0;NEBEL / AMRUM;6.106;6
15/08/17 02:00;DEZ0048;Eurdep;air;54.52;8.67;0;Germany;0;0;0;PELLWORM;8.139;8.53
15/08/17 01:00;DEZ0055;Eurdep;air;54.86;9.01;0;Germany;0;0;0;WESTRE;6.143;6.3100000000000005
15/08/17 02:00;DEZ0057;Eurdep;air;54.5;11.24;0;Germany;0;0;0;MARIENLEUCHTE / FEHMARN;8.378;8.65
15/08/17 02:00;DEZ0059;Eurdep;air;54.2;11.09;0;Germany;0;0;0;DAHME;7.58;7.82
15/08/17 02:00;DEZ0060;Eurdep;air;54.15;10.6;0;Germany;0;0;0;EUTIN;7.487;7.75
15/08/17 02:00;DEZ0062;Eurdep;air;54.38;10.95;0;Germany;0;0;0;HEILIGENHAFEN;8.048;8.190000000000001
15/08/17 02:00;DEZ0068;Eurdep;air;53.9;10.66;0;Germany;0;0;0;STOCKELSDORF;6.851999999999999;7.08
15/08/17 02:00;DEZ0072;Eurdep;air;53.86;9.74;0;Germany;0;0;0;BOKEL;6.086;6.409999999999999
15/08/17 02:00;DEZ0074;Eurdep;air;54.17;7.89;0;Germany;0;0;0;HELGOLAND / UNTERLAND;7.362;7.659999999999999
15/08/17 02:00;DEZ0080;Eurdep;air;54.3;10.23;0;Germany;0;0;0;KLAUSDORF;7.304;7.81
15/08/17 02:00;DEZ0082;Eurdep;air;54.18;10.2;0;Germany;0;0;0;NETTELSEE;6.845999999999999;7.220000000000001
15/08/17 02:00;DEZ0083;Eurdep;air;54.16;10.45;0;Germany;0;0;0;PLÖN;7.718999999999999;8.03
15/08/17 02:00;DEZ0086;Eurdep;air;54.29;10.42;0;Germany;0;0;0;SELENT;7.823;8.03
15/08/17 02:00;DEZ0087;Eurdep;air;54.44;9.7;0;Germany;0;0;0;ASCHEFFEL;7.5569999999999995;7.859999999999999
15/08/17 02:00;DEZ0091;Eurdep;air;54.47;9.87;0;Germany;0;0;0;ECKERNFÖRDE;6.851999999999999;7.08
15/08/17 02:00;DEZ0092;Eurdep;air;54.4;9.97;0;Germany;0;0;0;GETTORF;7.5200000000000005;7.9799999999999995
15/08/17 02:00;DEZ0095;Eurdep;air;54.21;9.71;0;Germany;0;0;0;JEVENSTEDT-OT NIENKATTBEK;5.436999999999999;5.86
15/08/17 02:00;DEZ0097;Eurdep;air;54.27;10.08;0;Germany;0;0;0;MOLFSEE;8.345;8.620000000000001
15/08/17 02:00;DEZ0102;Eurdep;air;54.08;9.9;0;Germany;0;0;0;WASBEK;6.069;6.39
15/08/17 02:00;DEZ0104;Eurdep;air;54.31;9.3;0;Germany;0;0;0;ERFDE;7.07;7.26
15/08/17 02:00;DEZ0107;Eurdep;air;54.65;9.94;0;Germany;0;0;0;KAPPELN;7.044;7.55
15/08/17 02:00;DEZ0111;Eurdep;air;54.53;9.55;0;Germany;0;0;0;SCHLESWIG;7.892;8.190000000000001
15/08/17 02:00;DEZ0112;Eurdep;air;54.64;9.76;0;Germany;0;0;0;SÜDERBRARUP;7.955;8
15/08/17 02:00;DEZ0116;Eurdep;air;54.83;9.55;0;Germany;0;0;0;GLÜCKSBURG;7.6579999999999995;7.890000000000001
15/08/17 02:00;DEZ0119;Eurdep;air;54.73;9.74;0;Germany;0;0;0;STERUP;8.038;8.42
15/08/17 02:00;DEZ0123;Eurdep;air;53.91;10.17;0;Germany;0;0;0;BARK;7.711;7.890000000000001
15/08/17 02:00;DEZ0128;Eurdep;air;53.88;9.98;0;Germany;0;0;0;SCHMALFELD;5.566;5.86
15/08/17 02:00;DEZ0131;Eurdep;air;53.79;10.08;0;Germany;0;0;0;WAKENDORF II;6.7299999999999995;7
15/08/17 02:00;DEZ0136;Eurdep;air;53.78;9.61;0;Germany;0;0;0;KIEBITZREIHE;5.451;5.66
15/08/17 02:00;DEZ0137;Eurdep;air;53.84;9.49;0;Germany;0;0;0;KREMPE;8.081;8.379999999999999
15/08/17 02:00;DEZ0139;Eurdep;air;53.94;9.4;0;Germany;0;0;0;MOORHUSEN;7.726999999999999;8
15/08/17 02:00;DEZ0140;Eurdep;air;53.92;9.58;0;Germany;0;0;0;OELIXDORF;6.793000000000001;7.109999999999999
15/08/17 02:00;DEZ0141;Eurdep;air;53.88;9.26;0;Germany;0;0;0;ST. MARGARETHEN;8.016;8.59
15/08/17 02:00;DEZ0143;Eurdep;air;53.73;9.48;0;Germany;0;0;0;KOLLMAR;8.136;8.39
15/08/17 02:00;DEZ0145;Eurdep;air;53.61;10.24;0;Germany;0;0;0;BRAAK;7.749;8.15
15/08/17 02:00;DEZ0147;Eurdep;air;53.81;10.44;0;Germany;0;0;0;MEDDEWADE;8.034;8.34
15/08/17 02:00;DEZ0151;Eurdep;air;53.53;10.14;0;Germany;0;0;0;HAMBURG-BILLSTEDT;6.889;7.15
15/08/17 02:00;DEZ0156;Eurdep;air;53.58;10.11;0;Germany;0;0;0;HAMBURG-JENFELD;7.781000000000001;8.08
15/08/17 02:00;DEZ0157;Eurdep;air;53.65;10.11;0;Germany;0;0;0;HAMBURG-SASEL;7.292;7.76
15/08/17 02:00;DEZ0158;Eurdep;air;53.47;10.19;0;Germany;0;0;0;HAMBURG-NETTELNBURG;8.049;8.41
15/08/17 02:00;DEZ0167;Eurdep;air;52.13;10.29;0;Germany;0;0;0;SALZGITTER-LICHTENBERG;8.520999999999999;8.86
15/08/17 02:00;DEZ0169;Eurdep;air;52.47;10.53;0;Germany;0;0;0;GIFHORN;6.731999999999999;6.9799999999999995
15/08/17 02:00;DEZ0170;Eurdep;air;52.65;10.46;0;Germany;0;0;0;GROß OESINGEN;5.505;5.88
15/08/17 02:00;DEZ0172;Eurdep;air;52.38;10.53;0;Germany;0;0;0;MEINE;7.789;8.059999999999999
15/08/17 02:00;DEZ0173;Eurdep;air;52.48;10.36;0;Germany;0;0;0;MEINERSEN;7.005;7.290000000000001
15/08/17 02:00;DEZ0175;Eurdep;air;52.77;10.45;0;Germany;0;0;0;SPRAKENSEHL OT HAGEN;5.989;6.220000000000001
15/08/17 02:00;DEZ0176;Eurdep;air;52.62;10.59;0;Germany;0;0;0;WAHRENHOLZ;6.661;6.970000000000001
15/08/17 01:00;DEZ0177;Eurdep;air;52.73;10.73;0;Germany;0;0;0;WITTINGEN;7.0920000000000005;7.290000000000001
15/08/17 02:00;DEZ0178;Eurdep;air;52.62;10.81;0;Germany;0;0;0;WITTINGEN-BOITZENHAGEN;6.348;7.029999999999999
15/08/17 02:00;DEZ0180;Eurdep;air;51.5;9.76;0;Germany;0;0;0;DRANSFELD;10.723;11
15/08/17 02:00;DEZ0182;Eurdep;air;51.44;9.93;0;Germany;0;0;0;FRIEDLAND-GROß SCHNEEN;10.645;11
15/08/17 02:00;DEZ0183;Eurdep;air;51.61;10.21;0;Germany;0;0;0;GIEBOLDEHAUSEN;10.845;11
15/08/17 02:00;DEZ0185;Eurdep;air;51.48;10.11;0;Germany;0;0;0;RITTMARSHAUSEN;9.686;10
15/08/17 02:00;DEZ0186;Eurdep;air;51.52;9.93;0;Germany;0;0;0;GÖTTINGEN;8.886;9.22
15/08/17 02:00;DEZ0188;Eurdep;air;51.56;10.06;0;Germany;0;0;0;WAAKE;11.927;12
15/08/17 02:00;DEZ0189;Eurdep;air;51.81;10.54;0;Germany;0;0;0;TORFHAUS;10.018;10
15/08/17 02:00;DEZ0191;Eurdep;air;51.72;10.6;0;Germany;0;0;0;BRAUNLAGE;9.727;9.95
15/08/17 02:00;DEZ0195;Eurdep;air;52.02;10.44;0;Germany;0;0;0;LIEBENBURG;9.088;9.42
15/08/17 02:00;DEZ0197;Eurdep;air;51.95;10.54;0;Germany;0;0;0;VIENENBURG;9.372;9.61
15/08/17 02:00;DEZ0201;Eurdep;air;52.25;10.81;0;Germany;0;0;0;KÖNIGSLUTTER;6.87;7.220000000000001
15/08/17 02:00;DEZ0205;Eurdep;air;51.88;10;0;Germany;0;0;0;BAD GANDERSHEIM;10.179;10
15/08/17 02:00;DEZ0208;Eurdep;air;51.79;10.06;0;Germany;0;0;0;ECHTE;9.364;9.74
15/08/17 02:00;DEZ0209;Eurdep;air;51.68;10.1;0;Germany;0;0;0;KATLENBURG-LINDAU;10.081999999999999;10
15/08/17 02:00;DEZ0210;Eurdep;air;51.73;9.79;0;Germany;0;0;0;FREDELSLOH;9.68;10
15/08/17 02:00;DEZ0212;Eurdep;air;51.62;9.66;0;Germany;0;0;0;USLAR OT SCHONINGEN;9.308;9.540000000000001
15/08/17 02:00;DEZ0213;Eurdep;air;51.63;10.47;0;Germany;0;0;0;BAD LAUTERBERG IM HARZ;10.568000000000001;10
15/08/17 02:00;DEZ0215;Eurdep;air;51.75;10.21;0;Germany;0;0;0;OSTERODE AM HARZ;9.451;9.92
15/08/17 02:00;DEZ0216;Eurdep;air;51.58;10.61;0;Germany;0;0;0;WALKENRIED;9.72;9.97
15/08/17 02:00;DEZ0218;Eurdep;air;52.27;10.23;0;Germany;0;0;0;GROSS ILSEDE;10.277;10
15/08/17 02:00;DEZ0220;Eurdep;air;52.32;10.24;0;Germany;0;0;0;PEINE;7.765000000000001;8.05
15/08/17 02:00;DEZ0222;Eurdep;air;52.32;10.39;0;Germany;0;0;0;WENDEBURG;7.539;7.83
15/08/17 02:00;DEZ0225;Eurdep;air;52.04;10.6;0;Germany;0;0;0;HORNBURG;10.655;11
15/08/17 02:00;DEZ0227;Eurdep;air;52.04;10.26;0;Germany;0;0;0;SEHLDE;9.141;9
15/08/17 02:00;DEZ0235;Eurdep;air;52.72;8.53;0;Germany;0;0;0;BARNSTORF;6.1049999999999995;6.35
15/08/17 02:00;DEZ0236;Eurdep;air;52.85;8.73;0;Germany;0;0;0;BASSUM;6.891;7.209999999999999
15/08/17 02:00;DEZ0238;Eurdep;air;52.74;8.7;0;Germany;0;0;0;EHRENBURG;7.25;7.640000000000001
14/08/17 20:00;DEZ0239;Eurdep;air;52.62;8.65;0;Germany;0;0;0;FREISTATT;6.520999999999999;6.74
15/08/17 02:00;DEZ0240;Eurdep;air;52.59;8.84;0;Germany;0;0;0;KIRCHDORF;6.715000000000001;6.93
15/08/17 02:00;DEZ0242;Eurdep;air;52.88;9.06;0;Germany;0;0;0;MARTFELD;6.458;6.81
15/08/17 02:00;DEZ0244;Eurdep;air;52.79;8.84;0;Germany;0;0;0;SCHWAFÖRDEN-SUDWALDE;7.976999999999999;8.28
15/08/17 02:00;DEZ0245;Eurdep;air;52.69;8.82;0;Germany;0;0;0;SULINGEN;6.193;6.470000000000001
15/08/17 02:00;DEZ0246;Eurdep;air;52.93;8.82;0;Germany;0;0;0;SYKE-BARRIEN;7.109999999999999;7.390000000000001
15/08/17 02:00;DEZ0248;Eurdep;air;52.06;9.33;0;Germany;0;0;0;AERZEN/GR.BERKEL;8.921;9.129999999999999
15/08/17 02:00;DEZ0250;Eurdep;air;51.97;9.3;0;Germany;0;0;0;BAD PYRMONT;8.639;8.93
15/08/17 02:00;DEZ0251;Eurdep;air;52.11;9.55;0;Germany;0;0;0;COPPENBRÜGGE;8.865;9.059999999999999
15/08/17 02:00;DEZ0253;Eurdep;air;52.15;9.39;0;Germany;0;0;0;UNSEN - HAMELN;8.717;8.959999999999999
15/08/17 02:00;DEZ0254;Eurdep;air;52.17;9.24;0;Germany;0;0;0;HESSISCH-OLDENDORF;8.35;8
15/08/17 02:00;DEZ0255;Eurdep;air;52.07;9.58;0;Germany;0;0;0;SALZHEMMENDORF;9.052;9.42
15/08/17 02:00;DEZ0256;Eurdep;air;52.45;10;0;Germany;0;0;0;BURGDORF;7.473000000000001;7
15/08/17 02:00;DEZ0258;Eurdep;air;52.46;9.6;0;Germany;0;0;0;OSTERWALD/STADT GARBSEN;6.455;6.7700000000000005
15/08/17 02:00;DEZ0259;Eurdep;air;52.3;9.6;0;Germany;0;0;0;GEHRDEN;8.464;8.690000000000001
15/08/17 02:00;DEZ0262;Eurdep;air;52.37;9.97;0;Germany;0;0;0;LEHRTE;7.257;7.56
15/08/17 02:00;DEZ0271;Eurdep;air;52.42;9.43;0;Germany;0;0;0;WUNSTORF;7.619;7
15/08/17 02:00;DEZ0272;Eurdep;air;51.95;9.84;0;Germany;0;0;0;ALFELD-WISPENSTEIN;8.581;9
15/08/17 02:00;DEZ0274;Eurdep;air;52.13;9.73;0;Germany;0;0;0;ELZE;9.594;10
15/08/17 02:00;DEZ0278;Eurdep;air;52.15;10.09;0;Germany;0;0;0;OTTBERGEN;8.356;8.66
15/08/17 02:00;DEZ0279;Eurdep;air;52.05;9.9;0;Germany;0;0;0;SIBBESSE;9.917;10
15/08/17 02:00;DEZ0281;Eurdep;air;52.01;9.7;0;Germany;0;0;0;DUINGEN;9.327;9.629999999999999
15/08/17 02:00;DEZ0284;Eurdep;air;51.84;9.44;0;Germany;0;0;0;HOLZMINDEN;9.76;10
15/08/17 02:00;DEZ0285;Eurdep;air;51.75;9.52;0;Germany;0;0;0;NEUHAUS - HOLZMINDEN;9.096;9.33
15/08/17 02:00;DEZ0286;Eurdep;air;51.95;9.41;0;Germany;0;0;0;OTTENSTEIN;9.263;9.53
15/08/17 02:00;DEZ0287;Eurdep;air;51.89;9.63;0;Germany;0;0;0;STADTOLDENDORF;8.687999999999999;9.02
15/08/17 02:00;DEZ0290;Eurdep;air;52.6;9.09;0;Germany;0;0;0;LIEBENAU;6.645999999999999;7.029999999999999
15/08/17 02:00;DEZ0292;Eurdep;air;52.47;9.23;0;Germany;0;0;0;REHBURG-LOCCUM;7.720000000000001;8.120000000000001
15/08/17 02:00;DEZ0297;Eurdep;air;52.23;9.24;0;Germany;0;0;0;REHREN-AUETAL;8.518;8.89
15/08/17 02:00;DEZ0298;Eurdep;air;52.26;9.03;0;Germany;0;0;0;BÜCKEBURG;7.622;7.92
15/08/17 02:00;DEZ0302;Eurdep;air;52.61;10.29;0;Germany;0;0;0;AHNSBECK;7.741;7.970000000000001
15/08/17 02:00;DEZ0303;Eurdep;air;52.82;9.97;0;Germany;0;0;0;BERGEN;7.188;7.359999999999999
15/08/17 02:00;DEZ0309;Eurdep;air;52.65;9.86;0;Germany;0;0;0;WIETZE;6.077;6.44
15/08/17 02:00;DEZ0310;Eurdep;air;52.73;9.85;0;Germany;0;0;0;MEIßENDORF;6.049;6.25
15/08/17 02:00;DEZ0317;Eurdep;air;53.69;8.56;0;Germany;0;0;0;DORUM;7.936;8.23
15/08/17 02:00;DEZ0320;Eurdep;air;53.63;9.1;0;Germany;0;0;0;LAMSTEDT;6.695;6.87
15/08/17 02:00;DEZ0321;Eurdep;air;53.45;8.63;0;Germany;0;0;0;LOXSTEDT-NESSE;6.894;7.24
15/08/17 02:00;DEZ0324;Eurdep;air;53.81;8.9;0;Germany;0;0;0;OTTERNDORF;7.673;8.02
15/08/17 02:00;DEZ0325;Eurdep;air;53.51;8.81;0;Germany;0;0;0;WEHDEL;6.431;6.65
15/08/17 02:00;DEZ0326;Eurdep;air;53.74;8.8;0;Germany;0;0;0;WANNA;6.475;6.87
15/08/17 02:00;DEZ0327;Eurdep;air;53.64;8.57;0;Germany;0;0;0;WREMEN;7.991;8.41
15/08/17 02:00;DEZ0328;Eurdep;air;53.3;10.05;0;Germany;0;0;0;HANSTEDT/BRACKEL;6.999;7.35
15/08/17 02:00;DEZ0330;Eurdep;air;53.43;10.31;0;Germany;0;0;0;DRAGE;7.194;7.4799999999999995
15/08/17 02:00;DEZ0331;Eurdep;air;53.25;9.83;0;Germany;0;0;0;HANDELOH;7.026000000000001;7.26
15/08/17 02:00;DEZ0332;Eurdep;air;53.2;10.05;0;Germany;0;0;0;EGESTORF-SG HANSTEDT;6.55;6.75
15/08/17 02:00;DEZ0335;Eurdep;air;53.4;10.41;0;Germany;0;0;0;TESPE;6.909000000000001;7.17
15/08/17 02:00;DEZ0336;Eurdep;air;53.36;10.2;0;Germany;0;0;0;WINSEN (LUHE);7.25;7.57
15/08/17 02:00;DEZ0341;Eurdep;air;53.14;11.04;0;Germany;0;0;0;HITZACKER;8.211;8.620000000000001
15/08/17 02:00;DEZ0342;Eurdep;air;53.07;11.44;0;Germany;0;0;0;HÖHBECK;5.974;6.2299999999999995
15/08/17 02:00;DEZ0343;Eurdep;air;52.98;11.07;0;Germany;0;0;0;KÜSTEN;7.053;7.31
15/08/17 02:00;DEZ0344;Eurdep;air;52.92;11.28;0;Germany;0;0;0;SCHWESKAU;6.672;6.959999999999999
15/08/17 02:00;DEZ0346;Eurdep;air;53.24;10.87;0;Germany;0;0;0;KATEMIN;6.68;7.109999999999999
15/08/17 02:00;DEZ0347;Eurdep;air;52.88;10.89;0;Germany;0;0;0;SCHNEGA;6.772;6.959999999999999
15/08/17 02:00;DEZ0348;Eurdep;air;53;11.32;0;Germany;0;0;0;TREBEL;6.221;6.540000000000001
15/08/17 02:00;DEZ0349;Eurdep;air;53.07;10.88;0;Germany;0;0;0;ZERNIEN;6.34;6.51
15/08/17 02:00;DEZ0352;Eurdep;air;53.18;10.75;0;Germany;0;0;0;DAHLENBURG;6.885;7.209999999999999
14/08/17 23:00;DEZ0357;Eurdep;air;53.1;10.22;0;Germany;0;0;0;REHLINGEN;6.225;6
15/08/17 02:00;DEZ0362;Eurdep;air;53.5;9.17;0;Germany;0;0;0;BREMERVÖRDE;5.692;5.93
15/08/17 02:00;DEZ0363;Eurdep;air;53.17;9.67;0;Germany;0;0;0;FINTEL;6.729000000000001;7.0200000000000005
15/08/17 02:00;DEZ0365;Eurdep;air;53.5;8.97;0;Germany;0;0;0;HIPSTEDT;5.904999999999999;6.13
15/08/17 02:00;DEZ0366;Eurdep;air;53.02;9.39;0;Germany;0;0;0;KIRCHWALSEDE;7.135;7.37
15/08/17 02:00;DEZ0367;Eurdep;air;53.11;9.4;0;Germany;0;0;0;ROTENBURG;5.951;6.17
15/08/17 02:00;DEZ0372;Eurdep;air;52.99;9.58;0;Germany;0;0;0;VISSELHÖVEDE;6.689;6.890000000000001
15/08/17 02:00;DEZ0374;Eurdep;air;53.11;10.08;0;Germany;0;0;0;STEINBECK;5.744;5.970000000000001
15/08/17 02:00;DEZ0381;Eurdep;air;53.12;9.8;0;Germany;0;0;0;SCHNEVERDINGEN;7.501;7.779999999999999
15/08/17 02:00;DEZ0383;Eurdep;air;52.9;9.46;0;Germany;0;0;0;WALSRODE OT HAMWIEDE;8.168000000000001;8.35
15/08/17 02:00;DEZ0384;Eurdep;air;52.92;9.97;0;Germany;0;0;0;WIETZENDORF;5.74;6
15/08/17 02:00;DEZ0385;Eurdep;air;53.83;9.13;0;Germany;0;0;0;BALJE / STADE;7.327;7
15/08/17 02:00;DEZ0387;Eurdep;air;53.69;9.43;0;Germany;0;0;0;DROCHTERSEN-ASSEL;7.615;7.909999999999999
15/08/17 02:00;DEZ0388;Eurdep;air;53.52;9.4;0;Germany;0;0;0;FREDENBECK;7.265000000000001;7.529999999999999
15/08/17 02:00;DEZ0390;Eurdep;air;53.63;9.32;0;Germany;0;0;0;HIMMELPFORTEN;6.956999999999999;7.220000000000001
15/08/17 02:00;DEZ0391;Eurdep;air;53.59;9.55;0;Germany;0;0;0;HOLLERN-TWIELENFLETH;7.572;8.07
15/08/17 02:00;DEZ0392;Eurdep;air;53.45;9.51;0;Germany;0;0;0;HARSEFELD;7.284999999999999;7.55
15/08/17 02:00;DEZ0394;Eurdep;air;53.62;9.53;0;Germany;0;0;0;STADE KKW;7.4239999999999995;7.85
15/08/17 02:00;DEZ0396;Eurdep;air;53.77;9.32;0;Germany;0;0;0;WISCHHAFEN;7.075;7.409999999999999
15/08/17 02:00;DEZ0397;Eurdep;air;53.09;10.57;0;Germany;0;0;0;BAD BEVENSEN OT MEDINGEN;6.802;7.12
15/08/17 02:00;DEZ0398;Eurdep;air;53.15;10.49;0;Germany;0;0;0;BIENENBÜTTEL;7.331;7.609999999999999
15/08/17 02:00;DEZ0401;Eurdep;air;53.05;10.38;0;Germany;0;0;0;HANSTEDT 1;5.877000000000001;6.12
15/08/17 02:00;DEZ0402;Eurdep;air;52.8;10.76;0;Germany;0;0;0;LÜDER/LANGENBRÜGGE;6.475;6.67
15/08/17 02:00;DEZ0407;Eurdep;air;53.05;9.04;0;Germany;0;0;0;OYTEN;7.148000000000001;7.35
15/08/17 02:00;DEZ0410;Eurdep;air;53.04;8.59;0;Germany;0;0;0;DELMENHORST;6.720999999999999;6.93
15/08/17 02:00;DEZ0411;Eurdep;air;53.36;7.16;0;Germany;0;0;0;EMDEN / LARRELT;7.718999999999999;8.08
15/08/17 02:00;DEZ0413;Eurdep;air;53.14;8.24;0;Germany;0;0;0;OLDENBURG;6.102;6.32
15/08/17 02:00;DEZ0414;Eurdep;air;52.26;8.11;0;Germany;0;0;0;OSNABRÜCK-DÜSTRUP;6.479000000000001;6.76
15/08/17 02:00;DEZ0416;Eurdep;air;53.6;8.05;0;Germany;0;0;0;WILHELMSHAVEN-SENGWARDEN;7.198;7.57
15/08/17 02:00;DEZ0418;Eurdep;air;53.25;7.94;0;Germany;0;0;0;WESTERSTEDE;5.965999999999999;6.29
15/08/17 02:00;DEZ0420;Eurdep;air;53.47;7.5;0;Germany;0;0;0;AURICH;6.734;7.090000000000001
15/08/17 02:00;DEZ0421;Eurdep;air;53.54;7.62;0;Germany;0;0;0;AURICH-MIDDELS;5.846;6.16
15/08/17 02:00;DEZ0422;Eurdep;air;53.73;7.37;0;Germany;0;0;0;BALTRUM;7.4430000000000005;7.7700000000000005
15/08/17 02:00;DEZ0425;Eurdep;air;53.67;7.28;0;Germany;0;0;0;HAGERMARSCH AS HILGENRIEDERSIEL;7.313;7
15/08/17 02:00;DEZ0427;Eurdep;air;53.5;7.1;0;Germany;0;0;0;KRUMMHÖRN-GREETSIEL;6.734999999999999;7.090000000000001
15/08/17 02:00;DEZ0428;Eurdep;air;53.41;7.02;0;Germany;0;0;0;KRUMMHÖRN-CAMPEN;8.040000000000001;8.35
15/08/17 02:00;DEZ0429;Eurdep;air;53.5;7.3;0;Germany;0;0;0;MARIENHAFE/SIEGELSUM;6.229;6.62
15/08/17 02:00;DEZ0433;Eurdep;air;53.71;7.15;0;Germany;0;0;0;NORDERNEY;6.029999999999999;6.33
15/08/17 02:00;DEZ0434;Eurdep;air;53.17;7.74;0;Germany;0;0;0;BARßEL-BARßELERMOOR;6.962000000000001;7.26
15/08/17 02:00;DEZ0435;Eurdep;air;52.84;8.01;0;Germany;0;0;0;CLOPPENBURG;6.545;6.88
15/08/17 02:00;DEZ0438;Eurdep;air;52.92;7.89;0;Germany;0;0;0;Friesoythe-Augustendorf;5.984;6.42
15/08/17 02:00;DEZ0439;Eurdep;air;52.96;8.03;0;Germany;0;0;0;GARREL;5.918;6.33
15/08/17 02:00;DEZ0441;Eurdep;air;52.6;7.4;0;Germany;0;0;0;BAWINKEL;5.633;5
15/08/17 02:00;DEZ0442;Eurdep;air;52.43;7.51;0;Germany;0;0;0;BEESTEN;6.175;6.4799999999999995
15/08/17 02:00;DEZ0446;Eurdep;air;52.45;7.31;0;Germany;0;0;0;ELBERGEN-EMSBÜREN;6.498;6.85
15/08/17 02:00;DEZ0448;Eurdep;air;52.84;7.1;0;Germany;0;0;0;HAREN/EMS OT RÜTENBROCK;5.8340000000000005;6.2700000000000005
15/08/17 02:00;DEZ0449;Eurdep;air;52.68;7.6;0;Germany;0;0;0;HERZLAKE;6.396;6.69
15/08/17 02:00;DEZ0450;Eurdep;air;52.77;7.46;0;Germany;0;0;0;KLEIN BERßEN;7.364;7
15/08/17 02:00;DEZ0451;Eurdep;air;52.87;7.33;0;Germany;0;0;0;LATHEN;6.285;6.69
15/08/17 02:00;DEZ0453;Eurdep;air;52.56;7.53;0;Germany;0;0;0;LENGERICH;6.606999999999999;6.890000000000001
15/08/17 02:00;DEZ0455;Eurdep;air;52.46;7.37;0;Germany;0;0;0;LINGEN-BRAMSCHE;7.55;7.7700000000000005
15/08/17 02:00;DEZ0456;Eurdep;air;52.51;7.29;0;Germany;0;0;0;LINGEN-SCHEPSDORF;5.67;6.0200000000000005
15/08/17 02:00;DEZ0458;Eurdep;air;53;7.4;0;Germany;0;0;0;NEULEHE;6.715000000000001;7.659999999999999
15/08/17 02:00;DEZ0467;Eurdep;air;53.79;7.91;0;Germany;0;0;0;WANGEROOGE;6.082;6.42
15/08/17 02:00;DEZ0469;Eurdep;air;53.38;7.96;0;Germany;0;0;0;ZETEL-NEUENBURG;7.185;7.43
15/08/17 02:00;DEZ0470;Eurdep;air;52.32;7.17;0;Germany;0;0;0;BAD BENTHEIM;6.3420000000000005;6.57
15/08/17 02:00;DEZ0474;Eurdep;air;52.57;7.08;0;Germany;0;0;0;GEORGSDORF;6.116;6.470000000000001
15/08/17 02:00;DEZ0478;Eurdep;air;52.46;7.18;0;Germany;0;0;0;NORDHORN-KLAUSHEIDE;6.706999999999999;6.909999999999999
15/08/17 02:00;DEZ0479;Eurdep;air;52.47;7.02;0;Germany;0;0;0;NORDHORN-FRENSWEGEN;5.809;6.04
15/08/17 02:00;DEZ0482;Eurdep;air;53.6;6.7;0;Germany;0;0;0;BORKUM;6.362;6.75
15/08/17 02:00;DEZ0487;Eurdep;air;53.33;7.34;0;Germany;0;0;0;MOORMERLAND-OLDERSUM;7.154000000000001;7.640000000000001
15/08/17 02:00;DEZ0490;Eurdep;air;53.13;7.23;0;Germany;0;0;0;WYMEER;5.057;5
15/08/17 02:00;DEZ0491;Eurdep;air;52.96;8.63;0;Germany;0;0;0;GROß IPPENER;6.703;6.99
15/08/17 02:00;DEZ0492;Eurdep;air;52.94;8.26;0;Germany;0;0;0;GROßENKNETEN;7.0200000000000005;7.42
15/08/17 02:00;DEZ0493;Eurdep;air;53.02;8.35;0;Germany;0;0;0;KIRCHHATTEN;6.006;6.1899999999999995
15/08/17 02:00;DEZ0494;Eurdep;air;53.11;8.46;0;Germany;0;0;0;HUDE;6.311;6.590000000000001
15/08/17 02:00;DEZ0495;Eurdep;air;53.06;8.21;0;Germany;0;0;0;WARDENBURG;6.566;6.88
15/08/17 02:00;DEZ0496;Eurdep;air;52.9;8.43;0;Germany;0;0;0;WILDESHAUSEN;6.6930000000000005;6.95
15/08/17 01:00;DEZ0498;Eurdep;air;52.32;8.34;0;Germany;0;0;0;BAD ESSEN;8.607;8.73
15/08/17 02:00;DEZ0501;Eurdep;air;52.45;7.96;0;Germany;0;0;0;BRAMSCHE-HESEPE;6.499;6.75
15/08/17 02:00;DEZ0503;Eurdep;air;52.62;7.74;0;Germany;0;0;0;BERGE;7.503;7.74
15/08/17 02:00;DEZ0505;Eurdep;air;52.38;8.2;0;Germany;0;0;0;OSTERCAPPELN-SCHWAGSTORF;7.397;7.62
15/08/17 02:00;DEZ0506;Eurdep;air;52.67;7.94;0;Germany;0;0;0;QUAKENBRÜCK;6.939;7.970000000000001
15/08/17 02:00;DEZ0510;Eurdep;air;52.71;8.29;0;Germany;0;0;0;VECHTA;7.545999999999999;7.970000000000001
15/08/17 02:00;DEZ0511;Eurdep;air;53.33;8.48;0;Germany;0;0;0;BRAKE-UNTERWESER;7.935;8.22
15/08/17 02:00;DEZ0512;Eurdep;air;53.57;8.36;0;Germany;0;0;0;BUTJADINGEN-BURHAVE;8.019;8.309999999999999
15/08/17 02:00;DEZ0514;Eurdep;air;53.25;8.47;0;Germany;0;0;0;ELSFLETH-LIENEN;8.544;8.85
15/08/17 02:00;DEZ0515;Eurdep;air;53.34;8.19;0;Germany;0;0;0;JADE-JADERBERG;6.322;6.75
15/08/17 02:00;DEZ0518;Eurdep;air;53.27;8.32;0;Germany;0;0;0;OVELGÖNNE-GROßENMEER;7.253;7.609999999999999
15/08/17 02:00;DEZ0519;Eurdep;air;53.46;8.36;0;Germany;0;0;0;STADLAND-SEEFELD;8.187000000000001;8.440000000000001
15/08/17 02:00;DEZ0521;Eurdep;air;53.65;7.61;0;Germany;0;0;0;ESENS;5.786;6.13
15/08/17 02:00;DEZ0525;Eurdep;air;53.77;7.69;0;Germany;0;0;0;SPIEKEROOG;6.1850000000000005;6.44
15/08/17 02:00;DEZ0531;Eurdep;air;53.6;8.53;0;Germany;0;0;0;BREMERHAVEN-WEDDEWARDEN;7.636;7.890000000000001
15/08/17 02:00;DEZ0532;Eurdep;air;53.5;8.57;0;Germany;0;0;0;BREMERHAVEN-LUNEPLATE;6.399;6.709999999999999
15/08/17 02:00;DEZ0533;Eurdep;air;53.55;8.6;0;Germany;0;0;0;BREMERHAVEN-GEESTEMÜNDE;6.449;6.62
15/08/17 02:00;DEZ0540;Eurdep;air;51.3;6.54;0;Germany;0;0;0;KREFELD-FISCHELN;8.431000000000001;8.879999999999999
15/08/17 02:00;DEZ0541;Eurdep;air;51.18;6.4;0;Germany;0;0;0;MÖNCHENGLADBACH;8.059999999999999;8.379999999999999
15/08/17 02:00;DEZ0543;Eurdep;air;51.19;7.27;0;Germany;0;0;0;REMSCHEID-LENNEP;10.511;11
15/08/17 02:00;DEZ0545;Eurdep;air;51.3;7.2;0;Germany;0;0;0;WUPPERTAL-BARMEN;9.556000000000001;10
15/08/17 02:00;DEZ0553;Eurdep;air;51.59;6.21;0;Germany;0;0;0;KEVELAER;7.323;7.58
15/08/17 02:00;DEZ0560;Eurdep;air;51.28;7.03;0;Germany;0;0;0;WÜLFRATH;9.05;9.290000000000001
15/08/17 02:00;DEZ0562;Eurdep;air;51.1;6.5600000000000005;0;Germany;0;0;0;GREVENBROICH-FÜRTH;9.899;10
15/08/17 02:00;DEZ0566;Eurdep;air;51.24;6.18;0;Germany;0;0;0;BRÜGGEN;6;7.140000000000001
15/08/17 02:00;DEZ0567;Eurdep;air;51.34;6.33;0;Germany;0;0;0;GREFRATH;8.925;9.290000000000001
15/08/17 02:00;DEZ0572;Eurdep;air;51.73;6.73;0;Germany;0;0;0;HAMMINKELN-MARIENTHAL;7.05;7.470000000000001
15/08/17 02:00;DEZ0582;Eurdep;air;50.99;6.95;0;Germany;0;0;0;KÖLN-WEIDENPESCH;8.767;9.16
15/08/17 02:00;DEZ0585;Eurdep;air;50.6;6.29;0;Germany;0;0;0;SIMMERATH;9.206999999999999;9.52
15/08/17 02:00;DEZ0588;Eurdep;air;50.92;6.33;0;Germany;0;0;0;JÜLICH-KOSLAR;9.895999999999999;10
15/08/17 02:00;DEZ0589;Eurdep;air;50.96;6.43;0;Germany;0;0;0;JÜLICH-GÜSTEN;9.638;10
15/08/17 02:00;DEZ0594;Eurdep;air;51.01;6.43;0;Germany;0;0;0;TITZ;10.336;10
15/08/17 02:00;DEZ0599;Eurdep;air;51.01;6.82;0;Germany;0;0;0;PULHEIM-SINNERSDORF;8.187000000000001;8.49
15/08/17 02:00;DEZ0606;Eurdep;air;51.01;6.04;0;Germany;0;0;0;GANGELT-BIRGDEN;8.551;8.84
15/08/17 02:00;DEZ0607;Eurdep;air;51.04;6.13;0;Germany;0;0;0;HEINSBERG-HÜLHOVEN;9.615;9.85
15/08/17 02:00;DEZ0615;Eurdep;air;50.63;7.22;0;Germany;0;0;0;BAD HONNEF;8.23;8.58
15/08/17 02:00;DEZ0616;Eurdep;air;50.78;7.01;0;Germany;0;0;0;BORNHEIM;8.209;8.68
15/08/17 02:00;DEZ0618;Eurdep;air;50.79;7.28;0;Germany;0;0;0;HENNEF/SIEG;8.328;8.77
15/08/17 02:00;DEZ0623;Eurdep;air;51.56;7.07;0;Germany;0;0;0;GELSENKIRCHEN;7.345999999999999;7.67
15/08/17 02:00;DEZ0624;Eurdep;air;52;7.59;0;Germany;0;0;0;MÜNSTER-KINDERHAUS;8.209;8.440000000000001
15/08/17 02:00;DEZ0627;Eurdep;air;52.13;6.91;0;Germany;0;0;0;AHAUS-ALSTÄTTE;6.481999999999999;6.62
15/08/17 02:00;DEZ0628;Eurdep;air;52.04;6.93;0;Germany;0;0;0;AHAUS-OTTENSTEIN;6.642;6.92
15/08/17 02:00;DEZ0632;Eurdep;air;51.83;6.79;0;Germany;0;0;0;BORKEN-RHEDEBRÜGGE;6.678;6.93
15/08/17 02:00;DEZ0633;Eurdep;air;51.95;6.99;0;Germany;0;0;0;GESCHER;7.133;7.38
15/08/17 02:00;DEZ0634;Eurdep;air;52.2;7.03;0;Germany;0;0;0;GRONAU;6.958;7
15/08/17 01:00;DEZ0635;Eurdep;air;52.22;7.01;0;Germany;0;0;0;GRONAU-SPECHTHOLTSHOOK;7.055;7.24
15/08/17 02:00;DEZ0636;Eurdep;air;52.17;7.06;0;Germany;0;0;0;GRONAU-EPE;6.141;6.65
15/08/17 02:00;DEZ0637;Eurdep;air;52.13;7.1;0;Germany;0;0;0;HEEK;6.705;7.12
15/08/17 02:00;DEZ0638;Eurdep;air;52.12;7.05;0;Germany;0;0;0;HEEK-AHLE;5.659000000000001;6.05
15/08/17 02:00;DEZ0640;Eurdep;air;52.05;7.15;0;Germany;0;0;0;LEGDEN-ASBECK;7.203;7.51
15/08/17 02:00;DEZ0644;Eurdep;air;51.94;6.8100000000000005;0;Germany;0;0;0;SÜDLOHN-OEDING;7.861;8.22
15/08/17 02:00;DEZ0646;Eurdep;air;52.1;6.85;0;Germany;0;0;0;VREDEN-LÜNTEN;7.934;8.28
15/08/17 02:00;DEZ0647;Eurdep;air;51.79;7.62;0;Germany;0;0;0;ASCHEBERG;6.6450000000000005;7.06
15/08/17 02:00;DEZ0651;Eurdep;air;52.03;7.27;0;Germany;0;0;0;ROSENDAHL-DARFELD;6.628;6.9799999999999995
15/08/17 02:00;DEZ0652;Eurdep;air;51.85;7.48;0;Germany;0;0;0;SENDEN;6.827;7.17
15/08/17 02:00;DEZ0653;Eurdep;air;51.54;7.33;0;Germany;0;0;0;CASTROP-RAUXEL;9.142;9.58
15/08/17 02:00;DEZ0654;Eurdep;air;51.67;7.36;0;Germany;0;0;0;DATTELN;6.618;6.92
15/08/17 02:00;DEZ0655;Eurdep;air;51.66;7;0;Germany;0;0;0;DORSTEN;6.691;7.07
15/08/17 02:00;DEZ0656;Eurdep;air;51.73;7.2;0;Germany;0;0;0;HALTERN;6.845999999999999;7.15
15/08/17 02:00;DEZ0657;Eurdep;air;51.65;7.16;0;Germany;0;0;0;MARL;7.059;7.42
15/08/17 02:00;DEZ0660;Eurdep;air;52.13;7.7;0;Germany;0;0;0;GREVEN FLUGHAFEN MS OS;8.747;9.34
15/08/17 02:00;DEZ0661;Eurdep;air;52.33;7.5;0;Germany;0;0;0;HÖRSTEL-DREIERWALDE;7.162999999999999;7.58
15/08/17 02:00;DEZ0664;Eurdep;air;52.11;7.88;0;Germany;0;0;0;LIENEN-KATTENVENNE;8.391;8.55
15/08/17 02:00;DEZ0666;Eurdep;air;52.21;7.19;0;Germany;0;0;0;OCHTRUP;7.206999999999999;7.55
15/08/17 02:00;DEZ0668;Eurdep;air;52.16;7.33;0;Germany;0;0;0;STEINFURT-BURGSTEINFURT;7.584999999999999;8.040000000000001
15/08/17 02:00;DEZ0672;Eurdep;air;51.89;8.04;0;Germany;0;0;0;ENNIGERLOH-WESTKIRCHEN;7.447;7.95
15/08/17 02:00;DEZ0673;Eurdep;air;51.91;7.8100000000000005;0;Germany;0;0;0;EVERSWINKEL-ALVERSKIRCHEN;6.287;6.529999999999999
15/08/17 02:00;DEZ0674;Eurdep;air;51.8;8.2;0;Germany;0;0;0;OELDE-STROMBERG;7.3549999999999995;7.87
15/08/17 02:00;DEZ0675;Eurdep;air;52.05;8.03;0;Germany;0;0;0;SASSENBERG-FÜCHTORF;6.57;6.87
15/08/17 02:00;DEZ0679;Eurdep;air;52.05;8.3;0;Germany;0;0;0;HALLE-HÖRSTE;7.023999999999999;7.37
15/08/17 02:00;DEZ0680;Eurdep;air;51.97;8.22;0;Germany;0;0;0;HARSEWINKEL;6.161;6.42
15/08/17 02:00;DEZ0682;Eurdep;air;51.92;8.66;0;Germany;0;0;0;SCHLOß HOLTE-STUKENBROCK;6.384;6.709999999999999
15/08/17 02:00;DEZ0685;Eurdep;air;52.23;8.47;0;Germany;0;0;0;RÖDINGHAUSEN;8.416;8.74
15/08/17 02:00;DEZ0686;Eurdep;air;52.12;8.49;0;Germany;0;0;0;SPENGE-LENZINGHAUSEN;8.454;8.72
15/08/17 02:00;DEZ0687;Eurdep;air;52.17;8.86;0;Germany;0;0;0;VLOTHO;9.495999999999999;9.78
15/08/17 02:00;DEZ0688;Eurdep;air;51.74;9.01;0;Germany;0;0;0;BAD DRIBURG;9.684000000000001;10
15/08/17 02:00;DEZ0692;Eurdep;air;51.79;9.4;0;Germany;0;0;0;HÖXTER;9.774;10
15/08/17 02:00;DEZ0693;Eurdep;air;51.82;9.24;0;Germany;0;0;0;MARIENMÜNSTER-VÖRDEN;10.614;11
15/08/17 02:00;DEZ0694;Eurdep;air;51.88;9.08;0;Germany;0;0;0;STEINHEIM;8.918000000000001;9.15
15/08/17 02:00;DEZ0702;Eurdep;air;52.02;8.91;0;Germany;0;0;0;LEMGO;6.8709999999999996;7.24
15/08/17 02:00;DEZ0705;Eurdep;air;52.26;8.75;0;Germany;0;0;0;BAD OEYNHAUSEN-WULFERD.;7.9670000000000005;8.32
15/08/17 02:00;DEZ0707;Eurdep;air;52.31;8.61;0;Germany;0;0;0;LÜBBECKE;8.512;8.75
15/08/17 02:00;DEZ0708;Eurdep;air;52.38;8.99;0;Germany;0;0;0;PETERSHAGEN-LAHDE;8.463;8.620000000000001
15/08/17 02:00;DEZ0709;Eurdep;air;52.43;8.6;0;Germany;0;0;0;RAHDEN;6.431;6.640000000000001
15/08/17 02:00;DEZ0710;Eurdep;air;52.37;8.46;0;Germany;0;0;0;STEMWEDE-LEVERN;6.962000000000001;7.279999999999999
15/08/17 02:00;DEZ0711;Eurdep;air;51.55;8.55;0;Germany;0;0;0;BÜREN;7.6579999999999995;7.840000000000001
15/08/17 02:00;DEZ0712;Eurdep;air;51.76;8.56;0;Germany;0;0;0;DELBRÜCK;5.872;6.15
15/08/17 02:00;DEZ0714;Eurdep;air;51.62;8.89;0;Germany;0;0;0;LICHTENAU;8.317;8.64
15/08/17 02:00;DEZ0719;Eurdep;air;51.43;7.19;0;Germany;0;0;0;BOCHUM;9.588;9.84
15/08/17 02:00;DEZ0721;Eurdep;air;51.47;7.6;0;Germany;0;0;0;DORTMUND-LICHTENDORF;9.763;10
15/08/17 02:00;DEZ0726;Eurdep;air;51.36;7.3;0;Germany;0;0;0;SPROCKHÖVEL-HIDDINGHAUSEN;8.509;9.620000000000001
15/08/17 02:00;DEZ0730;Eurdep;air;51.39;8.58;0;Germany;0;0;0;BRILON;8.956;9.22
15/08/17 02:00;DEZ0733;Eurdep;air;51.47;8.85;0;Germany;0;0;0;MARSBERG;10.128;10
15/08/17 02:00;DEZ0739;Eurdep;air;51.32;8;0;Germany;0;0;0;SUNDERN;8.545;8
15/08/17 02:00;DEZ0748;Eurdep;air;51.12;7.88;0;Germany;0;0;0;ATTENDORN-NEULISTERNOHL;9.59;9.879999999999999
15/08/17 02:00;DEZ0750;Eurdep;air;51.08;8.1;0;Germany;0;0;0;KIRCHHUNDEM;11.227;11
15/08/17 02:00;DEZ0752;Eurdep;air;50.98;7.85;0;Germany;0;0;0;WENDEN-GERLINGEN;11.055;11
15/08/17 02:00;DEZ0753;Eurdep;air;51.08;8.42;0;Germany;0;0;0;BAD BERLEBURG-WEMLIGHAUSEN;10.104000000000001;10
15/08/17 02:00;DEZ0761;Eurdep;air;51.66;8.05;0;Germany;0;0;0;LIPPETAL-LIPPBORG;6.784999999999999;7.17
15/08/17 02:00;DEZ0763;Eurdep;air;51.69;8.44;0;Germany;0;0;0;LIPPSTADT-HÖRSTE;6.1450000000000005;6
15/08/17 02:00;DEZ0766;Eurdep;air;51.5;8.44;0;Germany;0;0;0;RÜTHEN;8.028;8
15/08/17 02:00;DEZ0767;Eurdep;air;51.43;8.34;0;Germany;0;0;0;WARSTEIN;8.89;9.22
15/08/17 02:00;DEZ0771;Eurdep;air;51.62;7.52;0;Germany;0;0;0;LÜNEN;7.406999999999999;7
15/08/17 02:00;DEZ0772;Eurdep;air;51.54;7.73;0;Germany;0;0;0;UNNA-MÜHLHAUSEN;8.74;9.17
15/08/17 01:00;DEZ0775;Eurdep;air;50.16;8.65;0;Germany;0;0;0;FRANKFURT A.M. ST ESCHERSHEIM;9.117;9.36
15/08/17 02:00;DEZ0778;Eurdep;air;50.02;8.53;0;Germany;0;0;0;FRANKFURT A.M.;7.3260000000000005;7.58
15/08/17 02:00;DEZ0781;Eurdep;air;50.09;8.22;0;Germany;0;0;0;WIESBADEN;9.681000000000001;10
15/08/17 02:00;DEZ0786;Eurdep;air;49.67;8.53;0;Germany;0;0;0;EINHAUSEN;8.201;8.41
15/08/17 02:00;DEZ0790;Eurdep;air;49.59;8.81;0;Germany;0;0;0;WALDMICHELBACH ST GADERN;11.159;11
15/08/17 02:00;DEZ0791;Eurdep;air;49.74;8.62;0;Germany;0;0;0;ALSBACH-HÄHNLEIN;9.042;9.39
15/08/17 02:00;DEZ0794;Eurdep;air;49.8;8.64;0;Germany;0;0;0;PFUNGSTADT;8.981;9.22
15/08/17 02:00;DEZ0796;Eurdep;air;49.77;8.48;0;Germany;0;0;0;BIEBESHEIM;8.931999999999999;9.24
15/08/17 02:00;DEZ0797;Eurdep;air;49.91;8.48;0;Germany;0;0;0;GROß-GERAU;9;9.78
15/08/17 02:00;DEZ0798;Eurdep;air;49.97;8.58;0;Germany;0;0;0;MÖRFELDEN-WALLDORF;7.564;7.7700000000000005
15/08/17 02:00;DEZ0799;Eurdep;air;49.84;8.45;0;Germany;0;0;0;RIEDSTADT;8.775;9.08
15/08/17 02:00;DEZ0803;Eurdep;air;50.31;8.56;0;Germany;0;0;0;WEHRHEIM;9.546;10
15/08/17 02:00;DEZ0805;Eurdep;air;50.12;9.47;0;Germany;0;0;0;FLÖRSBACHTAL OT LOHRHAUPTEN;9.827;10
15/08/17 02:00;DEZ0807;Eurdep;air;50.2;9.18;0;Germany;0;0;0;GELNHAUSEN;9.591;9.809999999999999
15/08/17 02:00;DEZ0811;Eurdep;air;50.35;9.53;0;Germany;0;0;0;SCHLÜCHTERN;10.618;11
15/08/17 02:00;DEZ0812;Eurdep;air;50.26;9.52;0;Germany;0;0;0;STEINAU A.D.STR. OT MARJOß;8.95;9.290000000000001
15/08/17 02:00;DEZ0813;Eurdep;air;50.27;9.32;0;Germany;0;0;0;WÄCHTERSBACH;9.75;9.97
15/08/17 02:00;DEZ0814;Eurdep;air;50.06;8.37;0;Germany;0;0;0;HOFHEIM A.T. /WALLAU;9.754000000000001;10
15/08/17 02:00;DEZ0816;Eurdep;air;49.81;9.05;0;Germany;0;0;0;BREUBERG OT RAI-BREITENBACH;9.916;10
15/08/17 02:00;DEZ0818;Eurdep;air;49.72;8.84;0;Germany;0;0;0;REICHELSHEIM (ODW);11;11
15/08/17 02:00;DEZ0819;Eurdep;air;49.5;8.92;0;Germany;0;0;0;ROTHENBERG;8.331999999999999;8.83
10/08/17 00:00;DEZ0820;Eurdep;air;50.02;8.8;0;Germany;0;0;0;DIETZENBACH;0;0
15/08/17 02:00;DEZ0821;Eurdep;air;49.96;8.66;0;Germany;0;0;0;EGELSBACH;8.98;9.28
15/08/17 02:00;DEZ0823;Eurdep;air;50.05;8.97;0;Germany;0;0;0;SELIGENSTADT;9.144;9.45
15/08/17 02:00;DEZ0824;Eurdep;air;50.16;8.06;0;Germany;0;0;0;BAD SCHWALBACH;10.193999999999999;10
15/08/17 02:00;DEZ0830;Eurdep;air;50.29;8.95;0;Germany;0;0;0;ALTENSTADT;10.149;10
15/08/17 02:00;DEZ0832;Eurdep;air;50.29;9.11;0;Germany;0;0;0;BÜDINGEN;9.704;9.95
15/08/17 02:00;DEZ0835;Eurdep;air;50.32;8.75;0;Germany;0;0;0;FRIEDBERG (HESSEN);8.964;9.42
15/08/17 02:00;DEZ0836;Eurdep;air;50.39;9.14;0;Germany;0;0;0;HIRZENHAIN;9.395;9.83
15/08/17 02:00;DEZ0840;Eurdep;air;50.47;8.89;0;Germany;0;0;0;HUNGEN;9.511;9.67
15/08/17 02:00;DEZ0847;Eurdep;air;50.58;8.29;0;Germany;0;0;0;GREIFENSTEIN;9.714;10
15/08/17 02:00;DEZ0850;Eurdep;air;50.3;8.27;0;Germany;0;0;0;BAD CAMBERG;10.184999999999999;10
15/08/17 02:00;DEZ0851;Eurdep;air;50.44;8.03;0;Germany;0;0;0;HADAMAR;9.735;10
15/08/17 02:00;DEZ0853;Eurdep;air;50.48;8.24;0;Germany;0;0;0;WEILBURG;9.969;10
15/08/17 02:00;DEZ0854;Eurdep;air;50.43;8.38;0;Germany;0;0;0;WEILMÜNSTER;9.748000000000001;10
15/08/17 02:00;DEZ0858;Eurdep;air;50.69;8.61;0;Germany;0;0;0;LOHRA OT KIRCHVERS;9.244;9.540000000000001
15/08/17 02:00;DEZ0859;Eurdep;air;50.79;8.77;0;Germany;0;0;0;MARBURG;8.733;9.15
15/08/17 02:00;DEZ0860;Eurdep;air;50.82;8.99;0;Germany;0;0;0;STADTALLENDORF;8.518;8.75
15/08/17 02:00;DEZ0862;Eurdep;air;50.72;9.25;0;Germany;0;0;0;ALSFELD;11.536;12
15/08/17 02:00;DEZ0864;Eurdep;air;50.69;9.05;0;Germany;0;0;0;GEMÜNDEN (FELDA);8.042;8.33
15/08/17 02:00;DEZ0865;Eurdep;air;50.63;9.39;0;Germany;0;0;0;LAUTERBACH;8.251999999999999;8.53
15/08/17 02:00;DEZ0866;Eurdep;air;50.67;9.57;0;Germany;0;0;0;SCHLITZ;10.029;10
15/08/17 02:00;DEZ0874;Eurdep;air;50.5;9.94;0;Germany;0;0;0;GERSFELD/RHÖN;9.118;9.45
15/08/17 02:00;DEZ0882;Eurdep;air;50.65;10.02;0;Germany;0;0;0;TANN (RHÖN);10.523;10
15/08/17 02:00;DEZ0893;Eurdep;air;51.25;9.37;0;Germany;0;0;0;BAUNATAL OT GROßENRITTE;9.062000000000001;9.35
15/08/17 02:00;DEZ0899;Eurdep;air;51.49;9.59;0;Germany;0;0;0;REINHARDSHAGEN OT VECKERHAGEN;8.717;9.03
15/08/17 02:00;DEZ0903;Eurdep;air;51.37;9.3;0;Germany;0;0;0;ZIERENBERG;10.102;10
15/08/17 02:00;DEZ0905;Eurdep;air;51.02;9.41;0;Germany;0;0;0;HOMBERG (EFZE);10.45;10
15/08/17 02:00;DEZ0911;Eurdep;air;51.38;9;0;Germany;0;0;0;BAD AROLSEN;9.769;10
15/08/17 02:00;DEZ0913;Eurdep;air;51.01;8.63;0;Germany;0;0;0;BATTENBERG (EDER);10.289;10
15/08/17 02:00;DEZ0914;Eurdep;air;51.36;8.81;0;Germany;0;0;0;DIEMELSEE OT ADORF;9.845;10
15/08/17 02:00;DEZ0918;Eurdep;air;50.97;8.98;0;Germany;0;0;0;GEMÜNDEN (WOHRA);10.189;10
15/08/17 02:00;DEZ0920;Eurdep;air;51.2;8.8;0;Germany;0;0;0;LICHTENFELS ST GODDELSHEIM;9.615;9.98
15/08/17 02:00;DEZ0921;Eurdep;air;51.23;9.09;0;Germany;0;0;0;WALDECK OT NETZE;10.15;10
15/08/17 02:00;DEZ0922;Eurdep;air;51.28;8.66;0;Germany;0;0;0;WILLINGEN OT USSELN;10.841;11
15/08/17 02:00;DEZ0926;Eurdep;air;51.04;10.15;0;Germany;0;0;0;HERLESHAUSEN;9.858;10
15/08/17 02:00;DEZ0927;Eurdep;air;51.2;9.65;0;Germany;0;0;0;HESSISCH LICHTENAU OT QUENTEL;10.555;11
15/08/17 02:00;DEZ0928;Eurdep;air;51.24;10.06;0;Germany;0;0;0;MEINHARD OT HITZELRODE;10.120000000000001;10
15/08/17 02:00;DEZ0931;Eurdep;air;51.19;10.18;0;Germany;0;0;0;WANFRIED;10.923;11
15/08/17 02:00;DEZ0932;Eurdep;air;51.35;9.86;0;Germany;0;0;0;WITZENHAUSEN;10.836;11
15/08/17 02:00;DEZ0933;Eurdep;air;50.51;6.99;0;Germany;0;0;0;ALTENAHR-ALTENBURG;10.75;11
15/08/17 02:00;DEZ0935;Eurdep;air;50.46;7.21;0;Germany;0;0;0;NIEDERZISSEN;11;11
15/08/17 02:00;DEZ0942;Eurdep;air;49.79;7.49;0;Germany;0;0;0;KIRN/NAHE;9.946;10
15/08/17 02:00;DEZ0943;Eurdep;air;49.95;7.79;0;Germany;0;0;0;STROMBERG;9.796;9.97
15/08/17 02:00;DEZ0945;Eurdep;air;49.88;7.63;0;Germany;0;0;0;WINTERBACH;10.741;11
15/08/17 02:00;DEZ0949;Eurdep;air;49.7;7.35;0;Germany;0;0;0;IDAR-OBERSTEIN;10.058;10
15/08/17 02:00;DEZ0950;Eurdep;air;49.86;7.34;0;Germany;0;0;0;RHAUNEN/HUNSRÜCK;10.845;11
15/08/17 02:00;DEZ0954;Eurdep;air;50.22;6.98;0;Germany;0;0;0;ULMEN;10.279;10
15/08/17 02:00;DEZ0957;Eurdep;air;50.32;7.22;0;Germany;0;0;0;MAYEN;11.473;11
15/08/17 02:00;DEZ0959;Eurdep;air;50.41;7.55;0;Germany;0;0;0;KALTENENGERS;10.181999999999999;10
15/08/17 02:00;DEZ0960;Eurdep;air;50.39;7.5;0;Germany;0;0;0;MÜLHEIM-KÄRLICH;11.85;12
15/08/17 02:00;DEZ0961;Eurdep;air;50.34;7.46;0;Germany;0;0;0;WOLKEN;11.655;12
15/08/17 02:00;DEZ0962;Eurdep;air;50.24;7.36;0;Germany;0;0;0;MÜNSTERMAIFELD;11.282;11
15/08/17 02:00;DEZ0965;Eurdep;air;50.56;7.29;0;Germany;0;0;0;LINZ AM RHEIN;9.201;9.61
15/08/17 02:00;DEZ0966;Eurdep;air;50.43;7.48;0;Germany;0;0;0;NEUWIED;10.486;11
15/08/17 02:00;DEZ0967;Eurdep;air;50.17;7.5600000000000005;0;Germany;0;0;0;HALSENBACH;11.218;11
15/08/17 02:00;DEZ0968;Eurdep;air;50.07;7.45;0;Germany;0;0;0;KASTELLAUN;11.214;11
15/08/17 02:00;DEZ0969;Eurdep;air;49.91;7.51;0;Germany;0;0;0;MENGERSCHIED;11.091;11
15/08/17 02:00;DEZ0970;Eurdep;air;49.98;7.52;0;Germany;0;0;0;SIMMERN;10.836;11
15/08/17 02:00;DEZ0973;Eurdep;air;50.35;7.89;0;Germany;0;0;0;HOLZAPPEL;10.745000000000001;11
15/08/17 02:00;DEZ0974;Eurdep;air;50.27;7.98;0;Germany;0;0;0;KATZENELNBOGEN;12.105;12
15/08/17 02:00;DEZ0975;Eurdep;air;50.32;7.59;0;Germany;0;0;0;LAHNSTEIN;10.074;10
15/08/17 02:00;DEZ0976;Eurdep;air;50.2;7.86;0;Germany;0;0;0;NASTÄTTEN;9;10
15/08/17 02:00;DEZ0977;Eurdep;air;50.15;7.73;0;Germany;0;0;0;ST. GOARSHAUSEN;11.273;11
15/08/17 02:00;DEZ0978;Eurdep;air;50.27;7.83;0;Germany;0;0;0;SINGHOFEN;9.912;10
15/08/17 02:00;DEZ0984;Eurdep;air;50.65;7.72;0;Germany;0;0;0;WAHLROD;9.405;9.620000000000001
15/08/17 02:00;DEZ0985;Eurdep;air;49.75;6.66;0;Germany;0;0;0;TRIER;10.518;10
15/08/17 02:00;DEZ0988;Eurdep;air;50.09;6.8100000000000005;0;Germany;0;0;0;MANDERSCHEID;10.019;10
15/08/17 02:00;DEZ0989;Eurdep;air;49.86;6.9;0;Germany;0;0;0;NEUMAGEN-DHRON;10.645;11
15/08/17 02:00;DEZ0994;Eurdep;air;50.02;6.23;0;Germany;0;0;0;KARLSHAUSEN;10.764;11
15/08/17 02:00;DEZ0997;Eurdep;air;49.94;6.64;0;Germany;0;0;0;SPEICHER;10.805;11
15/08/17 02:00;DEZ0998;Eurdep;air;49.97;6.19;0;Germany;0;0;0;WALDHOF-FALKENSTEIN;10.445;10
15/08/17 02:00;DEZ1000;Eurdep;air;50.3;6.34;0;Germany;0;0;0;AUW BEI PRÜM;9.399;9.89
15/08/17 02:00;DEZ1003;Eurdep;air;50.1;6.45;0;Germany;0;0;0;FEUERSCHEID;9.379999999999999;9.790000000000001
15/08/17 02:00;DEZ1004;Eurdep;air;50.16;6.22;0;Germany;0;0;0;GROßKAMPENBERG;9.995000000000001;10
15/08/17 02:00;DEZ1006;Eurdep;air;50.21;6.42;0;Germany;0;0;0;PRÜM;10.24;10
15/08/17 02:00;DEZ1008;Eurdep;air;50.29;6.67;0;Germany;0;0;0;HILLESHEIM;10.072;10
15/08/17 02:00;DEZ1009;Eurdep;air;50.35;6.57;0;Germany;0;0;0;JÜNKERATH;10.709;11
15/08/17 02:00;DEZ1011;Eurdep;air;50.33;6.45;0;Germany;0;0;0;ORMONT;9.318999999999999;9
15/08/17 02:00;DEZ1016;Eurdep;air;49.6;6.5600000000000005;0;Germany;0;0;0;SAARBURG;10.395;10
15/08/17 02:00;DEZ1019;Eurdep;air;49.67;6.52;0;Germany;0;0;0;TAWERN;10.045;10
15/08/17 02:00;DEZ1021;Eurdep;air;49.6;6.42;0;Germany;0;0;0;WINCHERINGEN;11.318000000000001;11
15/08/17 02:00;DEZ1022;Eurdep;air;49.6;6.69;0;Germany;0;0;0;ZERF;9.647;10
15/08/17 02:00;DEZ1028;Eurdep;air;49.2;7.62;0;Germany;0;0;0;PIRMASENS;10.864;11
15/08/17 02:00;DEZ1030;Eurdep;air;49.67;8.35;0;Germany;0;0;0;WORMS;8.65;9.059999999999999
15/08/17 02:00;DEZ1031;Eurdep;air;49.76;8.34;0;Germany;0;0;0;ALSHEIM;9.173;9
15/08/17 02:00;DEZ1032;Eurdep;air;49.74;8.12;0;Germany;0;0;0;ALZEY;12.495000000000001;12
15/08/17 02:00;DEZ1034;Eurdep;air;49.77;7.95;0;Germany;0;0;0;STEIN-BOCKENHEIM;10.382;11
15/08/17 02:00;DEZ1036;Eurdep;air;49.47;8.19;0;Germany;0;0;0;BAD DÜRKHEIM;9.025;9.28
15/08/17 02:00;DEZ1037;Eurdep;air;49.35;7.94;0;Germany;0;0;0;ELMSTEIN;9.745999999999999;10
15/08/17 02:00;DEZ1038;Eurdep;air;49.57;8.18;0;Germany;0;0;0;GRÜNSTADT;9.391;9.629999999999999
15/08/17 02:00;DEZ1039;Eurdep;air;49.41;8.01;0;Germany;0;0;0;WEIDENTHAL;9.214;9.53
15/08/17 02:00;DEZ1041;Eurdep;air;49.66;8.01;0;Germany;0;0;0;KIRCHHEIMBOLANDEN;12;12
15/08/17 02:00;DEZ1042;Eurdep;air;49.73;7.78;0;Germany;0;0;0;OBERMOSCHEL;12.295;13
15/08/17 02:00;DEZ1043;Eurdep;air;49.6;7.78;0;Germany;0;0;0;GUNDERSWEILER;11.568000000000001;12
15/08/17 02:00;DEZ1045;Eurdep;air;49.21;8.36;0;Germany;0;0;0;GERMERSHEIM;8.66;8.940000000000001
15/08/17 02:00;DEZ1046;Eurdep;air;48.99;8.24;0;Germany;0;0;0;NEUBURG AM RHEIN;8.663;9.01
15/08/17 02:00;DEZ1049;Eurdep;air;49.05;8.25;0;Germany;0;0;0;WÖRTH AM RHEIN;7.881;8.26
15/08/17 02:00;DEZ1051;Eurdep;air;49.49;7.89;0;Germany;0;0;0;ENKENBACH-ALSENBORN;9.211;9.52
15/08/17 02:00;DEZ1058;Eurdep;air;49.28;8.23;0;Germany;0;0;0;BÖBINGEN;9.198;9.53
15/08/17 02:00;DEZ1059;Eurdep;air;49.05;8.03;0;Germany;0;0;0;STEINFELD;9.645999999999999;9.91
15/08/17 02:00;DEZ1060;Eurdep;air;49.26;8.4;0;Germany;0;0;0;RÖMERBERG-MECHTERSHEIM;8.849;9.23
15/08/17 02:00;DEZ1061;Eurdep;air;49.4;8.39;0;Germany;0;0;0;SCHIFFERSTADT;9.003;9.23
15/08/17 02:00;DEZ1065;Eurdep;air;49.97;8.26;0;Germany;0;0;0;MAINZ-HECHTSHEIM;11.009;11
15/08/17 02:00;DEZ1071;Eurdep;air;49.32;7.7;0;Germany;0;0;0;HELTERSBERG;8.405;8.690000000000001
15/08/17 02:00;DEZ1072;Eurdep;air;49.26;7.5600000000000005;0;Germany;0;0;0;THALEISCHWEILER-FRÖSCHEN;9.97;10
15/08/17 02:00;DEZ1073;Eurdep;air;49.22;7.9;0;Germany;0;0;0;WILGARTSWIESEN;9.012;9.370000000000001
15/08/17 02:00;DEZ1075;Eurdep;air;49.19;7.44;0;Germany;0;0;0;DIETRICHINGEN;11.595;12
15/08/17 02:00;DEZ1078;Eurdep;air;48.78;9.18;0;Germany;0;0;0;STUTTGART;11.195;11
15/08/17 02:00;DEZ1079;Eurdep;air;48.69;9.04;0;Germany;0;0;0;BÖBLINGEN;10.128;10
15/08/17 02:00;DEZ1080;Eurdep;air;48.6;8.86;0;Germany;0;0;0;HERRENBERG;10.440999999999999;10
15/08/17 01:00;DEZ1081;Eurdep;air;48.8;9;0;Germany;0;0;0;LEONBERG;11;12
15/08/17 02:00;DEZ1082;Eurdep;air;48.72;8.98;0;Germany;0;0;0;SINDELFINGEN;10.891;11
15/08/17 02:00;DEZ1084;Eurdep;air;48.75;9.32;0;Germany;0;0;0;ESSLINGEN;9.955;10
15/08/17 02:00;DEZ1086;Eurdep;air;48.74;9.48;0;Germany;0;0;0;LICHTENWALD;8.637;9.05
15/08/17 02:00;DEZ1087;Eurdep;air;48.55;9.37;0;Germany;0;0;0;NEUFFEN;9.463;9.75
15/08/17 02:00;DEZ1090;Eurdep;air;48.72;9.26;0;Germany;0;0;0;OSTFILDERN ST RUIT;8.914;9.209999999999999
15/08/17 02:00;DEZ1091;Eurdep;air;48.68;9.93;0;Germany;0;0;0;BÖHMENKIRCH;9.183;9.629999999999999
15/08/17 02:00;DEZ1092;Eurdep;air;48.74;9.72;0;Germany;0;0;0;GÖPPINGEN ST HOHENSTAUF.;10.366;10
15/08/17 02:00;DEZ1104;Eurdep;air;48.99;9.55;0;Germany;0;0;0;MURRHARDT;10.681999999999999;11
15/08/17 02:00;DEZ1109;Eurdep;air;49.18;8.83;0;Germany;0;0;0;EPPINGEN ST ELSENZ;10.586;11
15/08/17 02:00;DEZ1117;Eurdep;air;49.28;9.8;0;Germany;0;0;0;KÜNZELSAU ST NITZENHAUSEN;11.277;11
15/08/17 02:00;DEZ1118;Eurdep;air;49.3;9.62;0;Germany;0;0;0;NIEDERNHALL;12.095;12
13/08/17 00:00;DEZ1121;Eurdep;air;49.29;10.04;0;Germany;0;0;0;BLAUFELDEN OT WIESENBACH;0;0
15/08/17 02:00;DEZ1126;Eurdep;air;49.08;9.55;0;Germany;0;0;0;MAINHARDT;9.224;9.540000000000001
15/08/17 02:00;DEZ1127;Eurdep;air;49.1;9.73;0;Germany;0;0;0;SCHWÄBISCH HALL;11.545;12
15/08/17 02:00;DEZ1129;Eurdep;air;49.08;9.98;0;Germany;0;0;0;FRANKENHARDT OT GRÜNDELH.;9.834;10
15/08/17 02:00;DEZ1130;Eurdep;air;49.41;9.83;0;Germany;0;0;0;BAD MERGENTHEIM ST HERBSTHAUSEN;10.206;10
15/08/17 02:00;DEZ1132;Eurdep;air;49.67;9.74;0;Germany;0;0;0;GROßRINDERFELD;9.798;10
15/08/17 01:00;DEZ1133;Eurdep;air;49.53;9.85;0;Germany;0;0;0;IGERSHEIM OT HARTHAUSEN;9.657;9.83
15/08/17 02:00;DEZ1140;Eurdep;air;48.86;9.79;0;Germany;0;0;0;DURLANGEN;10.223;10
15/08/17 02:00;DEZ1144;Eurdep;air;48.76;10.33;0;Germany;0;0;0;NERESHEIM;7.641;7.9799999999999995
15/08/17 02:00;DEZ1145;Eurdep;air;48.94;10.37;0;Germany;0;0;0;UNTERSCHNEIDHEIM;9.228;9.440000000000001
15/08/17 02:00;DEZ1146;Eurdep;air;48.83;10.12;0;Germany;0;0;0;AALEN ST UNTERKOCHEN;7.773000000000001;8
15/08/17 02:00;DEZ1154;Eurdep;air;49.12;8.73;0;Germany;0;0;0;KRAICHTAL ST MÜNZESHEIM;10.895;11
15/08/17 02:00;DEZ1156;Eurdep;air;49.13;8.53;0;Germany;0;0;0;KARLSDORF-NEUTHARD OT K.;8.595;9.01
15/08/17 02:00;DEZ1160;Eurdep;air;49.09;8.48;0;Germany;0;0;0;STUTENSEE OT FRIEDRICHST.;8.695;9.07
15/08/17 02:00;DEZ1163;Eurdep;air;48.69;8.13;0;Germany;0;0;0;BÜHL;11.168000000000001;11
15/08/17 02:00;DEZ1164;Eurdep;air;48.69;8.36;0;Germany;0;0;0;FORBACH OT GAUSBACH;12.705;13
15/08/17 02:00;DEZ1165;Eurdep;air;48.61;8.28;0;Germany;0;0;0;FORBACH OT HUNDSBACH;13.727;14
15/08/17 01:00;DEZ1166;Eurdep;air;48.79;8.33;0;Germany;0;0;0;GAGGENAU ST OTTENAU;10.26;10
15/08/17 02:00;DEZ1170;Eurdep;air;48.75;8;0;Germany;0;0;0;RHEINMÜNSTER OT GREFFERN;8.537;8.879999999999999
15/08/17 02:00;DEZ1174;Eurdep;air;49.37;9.42;0;Germany;0;0;0;ADELSHEIM ST LEIBENSTADT;11.145;11
15/08/17 02:00;DEZ1176;Eurdep;air;49.52;9.33;0;Germany;0;0;0;BUCHEN;9.940999999999999;10
15/08/17 02:00;DEZ1177;Eurdep;air;49.61;9.47;0;Germany;0;0;0;HARDHEIM;11.190999999999999;11
15/08/17 02:00;DEZ1196;Eurdep;air;48.66;8.6;0;Germany;0;0;0;NEUWEILER;10.214;10
15/08/17 02:00;DEZ1197;Eurdep;air;48.57;8.69;0;Germany;0;0;0;ROHRDORF;11;11
15/08/17 02:00;DEZ1199;Eurdep;air;48.7;8.53;0;Germany;0;0;0;BAD WILDBAD;8.14;8.379999999999999
15/08/17 02:00;DEZ1200;Eurdep;air;48.71;8.76;0;Germany;0;0;0;CALW ST HEUMADEN;10.759;11
15/08/17 02:00;DEZ1203;Eurdep;air;48.85;8.58;0;Germany;0;0;0;NEUENBÜRG;11.709;12
15/08/17 02:00;DEZ1206;Eurdep;air;48.35;8.39;0;Germany;0;0;0;ALPIRSBACH;14.077000000000002;14
15/08/17 02:00;DEZ1210;Eurdep;air;48.52;8.56;0;Germany;0;0;0;PFALZGRAFENWEILER;11.504999999999999;12
15/08/17 02:00;DEZ1211;Eurdep;air;48.59;8.42;0;Germany;0;0;0;SEEWALD OT BESENFELD;10.527;10
15/08/17 02:00;DEZ1213;Eurdep;air;47.92;7.91;0;Germany;0;0;0;SCHAUINSLAND FREIBURG;11.168000000000001;11
15/08/17 02:00;DEZ1218;Eurdep;air;47.98;7.91;0;Germany;0;0;0;FREIBURG ST EBNET;10.754999999999999;11
15/08/17 02:00;DEZ1223;Eurdep;air;47.86;8.11;0;Germany;0;0;0;FELDBERG OT ALTGLASHÜTTEN;12.105;12
15/08/17 02:00;DEZ1229;Eurdep;air;48.17;8.06;0;Germany;0;0;0;ELZACH;11.345;11
15/08/17 02:00;DEZ1232;Eurdep;air;48.16;7.64;0;Germany;0;0;0;WYHL;10.855;11
15/08/17 02:00;DEZ1235;Eurdep;air;48.66;8.02;0;Germany;0;0;0;ACHERN OT GAMSHURST;10.175;10
15/08/17 02:00;DEZ1236;Eurdep;air;48.43;8.21;0;Germany;0;0;0;BAD PETERSTAL-GRIEßBACH;12;12
15/08/17 02:00;DEZ1241;Eurdep;air;48.53;8.07;0;Germany;0;0;0;OBERKIRCH;11.268;11
15/08/17 02:00;DEZ1244;Eurdep;air;48.27;7.95;0;Germany;0;0;0;SCHUTTERTAL;10.705;11
15/08/17 02:00;DEZ1245;Eurdep;air;48.45;7.89;0;Germany;0;0;0;SCHUTTERWALD;12.155;12
15/08/17 02:00;DEZ1248;Eurdep;air;48.35;7.76;0;Germany;0;0;0;SCHWANAU OT NONNENWEIER;8.897;9.47
15/08/17 02:00;DEZ1249;Eurdep;air;48.47;7.8;0;Germany;0;0;0;NEURIED OT ALTENHEIM;8.64;9.18
15/08/17 02:00;DEZ1252;Eurdep;air;48.29;8.56;0;Germany;0;0;0;OBERNDORF/N. ST LINDENHOF;13.322999999999999;13
15/08/17 02:00;DEZ1253;Eurdep;air;48.25;8.44;0;Germany;0;0;0;SCHRAMBERG ST BRAMBACH;11.491;11
15/08/17 02:00;DEZ1258;Eurdep;air;48.12;8.39;0;Germany;0;0;0;ST. GEORGEN;11.905;12
15/08/17 02:00;DEZ1260;Eurdep;air;48;8.32;0;Germany;0;0;0;VÖHRENBACH ST HAMMEREIS.;14.577000000000002;14
15/08/17 02:00;DEZ1263;Eurdep;air;48.01;8.66;0;Germany;0;0;0;TALHEIM;10.845;11
15/08/17 02:00;DEZ1264;Eurdep;air;47.99;8.81;0;Germany;0;0;0;TUTTLINGEN;10.261;10
15/08/17 02:00;DEZ1265;Eurdep;air;47.86;8.78;0;Germany;0;0;0;ENGEN;8.785;9.16
15/08/17 02:00;DEZ1268;Eurdep;air;47.68;9.19;0;Germany;0;0;0;KONSTANZ;9.266;9.709999999999999
15/08/17 02:00;DEZ1269;Eurdep;air;47.66;8.89;0;Germany;0;0;0;ÖHNINGEN;8.857;9.290000000000001
15/08/17 02:00;DEZ1270;Eurdep;air;47.74;8.98;0;Germany;0;0;0;RADOLFZELL;8.351;8.61
15/08/17 02:00;DEZ1273;Eurdep;air;47.86;9.01;0;Germany;0;0;0;STOCKACH;9.929;10
15/08/17 02:00;DEZ1274;Eurdep;air;47.82;8.66;0;Germany;0;0;0;TENGEN;9.718;9.98
15/08/17 02:00;DEZ1275;Eurdep;air;47.74;7.55;0;Germany;0;0;0;BAD BELLINGEN;8.757;9.120000000000001
15/08/17 02:00;DEZ1276;Eurdep;air;47.66;7.54;0;Germany;0;0;0;EFRINGEN-KIRCHEN OT ISTEIN;9.017;9.440000000000001
15/08/17 02:00;DEZ1277;Eurdep;air;47.74;7.8100000000000005;0;Germany;0;0;0;ELBENSCHWAND OT LANGENSEE;13;14
15/08/17 02:00;DEZ1278;Eurdep;air;47.71;7.61;0;Germany;0;0;0;KANDERN ST TANNENKIRCH;11;11
15/08/17 02:00;DEZ1279;Eurdep;air;47.56;7.78;0;Germany;0;0;0;RHEINFELDEN;9.222;9.84
15/08/17 02:00;DEZ1280;Eurdep;air;47.65;7.83;0;Germany;0;0;0;SCHOPFHEIM;12.159;12
15/08/17 02:00;DEZ1283;Eurdep;air;47.84;7.88;0;Germany;0;0;0;WIEDEN;12.431999999999999;12
15/08/17 02:00;DEZ1284;Eurdep;air;47.54;7.67;0;Germany;0;0;0;GRENZACH-WYHLEN OT GRENZ.;8.101;8.440000000000001
15/08/17 02:00;DEZ1286;Eurdep;air;47.82;8.34;0;Germany;0;0;0;BONNDORF;10.486;10
15/08/17 02:00;DEZ1293;Eurdep;air;47.74;8.44;0;Germany;0;0;0;STÜHLINGEN;9.282;10
15/08/17 02:00;DEZ1298;Eurdep;air;48.28;9.48;0;Germany;0;0;0;HAYINGEN;9.379999999999999;9
15/08/17 02:00;DEZ1300;Eurdep;air;48.41;9.53;0;Germany;0;0;0;MÜNSINGEN ST AUINGEN;8.905;9.33
15/08/17 02:00;DEZ1301;Eurdep;air;48.48;9.23;0;Germany;0;0;0;PFULLINGEN;7.571;7.909999999999999
15/08/17 02:00;DEZ1302;Eurdep;air;48.48;9.4;0;Germany;0;0;0;BAD URACH;6.554;6.959999999999999
15/08/17 02:00;DEZ1303;Eurdep;air;48.35;9.33;0;Germany;0;0;0;HOHENSTEIN;10.455;10
15/08/17 02:00;DEZ1305;Eurdep;air;48.4;9.05;0;Germany;0;0;0;MÖSSINGEN;9.836;10
15/08/17 02:00;DEZ1309;Eurdep;air;48.27;8.85;0;Germany;0;0;0;BALINGEN;11.504999999999999;11
15/08/17 02:00;DEZ1310;Eurdep;air;48.29;9.14;0;Germany;0;0;0;BURLADINGEN;8.211;8.53
15/08/17 02:00;DEZ1311;Eurdep;air;48.35;8.78;0;Germany;0;0;0;HAIGERLOCH ST GRUOL;11.686;12
15/08/17 02:00;DEZ1313;Eurdep;air;48.21;8.77;0;Germany;0;0;0;SCHÖMBERG;11.091;11
15/08/17 02:00;DEZ1314;Eurdep;air;48.21;9;0;Germany;0;0;0;ALBSTADT ST EBINGEN;8.712;9
15/08/17 02:00;DEZ1317;Eurdep;air;48.47;9.94;0;Germany;0;0;0;DORNSTADT;10.17;10
15/08/17 02:00;DEZ1318;Eurdep;air;48.27;9.73;0;Germany;0;0;0;EHINGEN;8.921;9.22
15/08/17 02:00;DEZ1323;Eurdep;air;48.37;9.74;0;Germany;0;0;0;SCHELKLINGEN;7.294;7.659999999999999
15/08/17 02:00;DEZ1327;Eurdep;air;48.11;9.42;0;Germany;0;0;0;ERTINGEN OT BINZWANGEN;8.785;9.16
15/08/17 02:00;DEZ1328;Eurdep;air;48.18;9.97;0;Germany;0;0;0;SCHWENDI;8.725;9.01
15/08/17 02:00;DEZ1331;Eurdep;air;48.2;9.78;0;Germany;0;0;0;SCHEMMERHOFEN OT INGERK.;10.968;11
15/08/17 02:00;DEZ1335;Eurdep;air;47.59;9.6;0;Germany;0;0;0;KRESSBRONN;8.535;8.86
15/08/17 02:00;DEZ1337;Eurdep;air;47.78;9.15;0;Germany;0;0;0;ÜBERLINGEN;9.308;9.709999999999999
15/08/17 02:00;DEZ1338;Eurdep;air;47.8;9.43;0;Germany;0;0;0;DEGGENHAUSERTAL OT LIMP.;9.006;9.209999999999999
15/08/17 02:00;DEZ1339;Eurdep;air;47.94;10.09;0;Germany;0;0;0;AITRACH;8.475;8.75
15/08/17 02:00;DEZ1345;Eurdep;air;47.82;10.02;0;Germany;0;0;0;LEUTKIRCH;8.775;9.15
15/08/17 02:00;DEZ1346;Eurdep;air;47.8;9.63;0;Germany;0;0;0;RAVENSBURG;8.847;9.28
15/08/17 02:00;DEZ1348;Eurdep;air;47.82;9.79;0;Germany;0;0;0;WOLFEGG;9.497;9.76
15/08/17 02:00;DEZ1349;Eurdep;air;48.05;8.97;0;Germany;0;0;0;BEURON;9.233;9.66
15/08/17 02:00;DEZ1351;Eurdep;air;48.02;9.23;0;Germany;0;0;0;KRAUCHENWIES OT ABLACH;8.72;9.129999999999999
15/08/17 02:00;DEZ1352;Eurdep;air;47.95;9.37;0;Germany;0;0;0;OSTRACH;9.068000000000001;9.53
15/08/17 02:00;DEZ1354;Eurdep;air;48.09;9.22;0;Germany;0;0;0;SIGMARINGEN;9.768;10
15/08/17 02:00;DEZ1355;Eurdep;air;48.12;9.08;0;Germany;0;0;0;STETTEN A.K.M.;8.99;9.27
15/08/17 02:00;DEZ1356;Eurdep;air;47.95;9.03;0;Germany;0;0;0;SAULDORF OT BOLL;9.42;9.83
15/08/17 02:00;DEZ1357;Eurdep;air;47.86;9.24;0;Germany;0;0;0;HERDWANGEN-SCHÖNACH;8.531;8.89
15/08/17 02:00;DEZ1360;Eurdep;air;48.15;11.45;0;Germany;0;0;0;MÜNCHEN-PASING;8.704;9.16
15/08/17 02:00;DEZ1361;Eurdep;air;48.09;11.66;0;Germany;0;0;0;München-Neuperlach;7.958;8.41
15/08/17 02:00;DEZ1365;Eurdep;air;48.21;12.88;0;Germany;0;0;0;HAIMING;8.926;9.28
15/08/17 02:00;DEZ1374;Eurdep;air;47.61;12.91;0;Germany;0;0;0;RAMSAU;10.302;10
15/08/17 02:00;DEZ1384;Eurdep;air;48.36;11.39;0;Germany;0;0;0;MARKT INDERSDORF;9.209;9.76
15/08/17 02:00;DEZ1386;Eurdep;air;48.08;11.96;0;Germany;0;0;0;EBERSBERG;9.437000000000001;9.73
15/08/17 02:00;DEZ1394;Eurdep;air;48.82;11.09;0;Germany;0;0;0;WELLHEIM;8.796;9.120000000000001
15/08/17 02:00;DEZ1409;Eurdep;air;47.48;11.06;0;Germany;0;0;0;GARMISCH-PARTENKIRCHEN;8.456;8.83
15/08/17 02:00;DEZ1419;Eurdep;air;48.07;11.03;0;Germany;0;0;0;WINDACH;9.893;10
15/08/17 02:00;DEZ1422;Eurdep;air;47.72;11.96;0;Germany;0;0;0;FISCHBACHAU;9.524;9.83
15/08/17 02:00;DEZ1430;Eurdep;air;48.36;12.51;0;Germany;0;0;0;NEUMARKT-ST.VEIT;9.315000000000001;9
15/08/17 02:00;DEZ1432;Eurdep;air;47.97;11.63;0;Germany;0;0;0;SAUERLACH;8.568000000000001;8.78
15/08/17 02:00;DEZ1438;Eurdep;air;48.5;11.36;0;Germany;0;0;0;GEROLSBACH;10.029;10
15/08/17 02:00;DEZ1445;Eurdep;air;47.74;12.12;0;Germany;0;0;0;BRANNENBURG;7.389;7.67
15/08/17 02:00;DEZ1447;Eurdep;air;47.8;12.29;0;Germany;0;0;0;FRASDORF;9.82;10
15/08/17 02:00;DEZ1450;Eurdep;air;47.98;12.05;0;Germany;0;0;0;KRONAU;9.379999999999999;9
15/08/17 02:00;DEZ1451;Eurdep;air;48.06;12.22;0;Germany;0;0;0;WASSERBURG AM INN;8.845;9
15/08/17 02:00;DEZ1453;Eurdep;air;48.07;11.25;0;Germany;0;0;0;WEßLING;8.528;9.03
15/08/17 02:00;DEZ1455;Eurdep;air;47.78;12.45;0;Germany;0;0;0;GRASSAU;8.851;9.17
15/08/17 02:00;DEZ1460;Eurdep;air;47.67;12.47;0;Germany;0;0;0;REIT IM WINKL;9.217;9.91
15/08/17 02:00;DEZ1461;Eurdep;air;47.73;12.66;0;Germany;0;0;0;RUHPOLDING OT LAUBAU;8.583;8.92
15/08/17 02:00;DEZ1462;Eurdep;air;47.7;12.4;0;Germany;0;0;0;SCHLECHING;10.293000000000001;10
15/08/17 02:00;DEZ1469;Eurdep;air;47.82;11.3;0;Germany;0;0;0;SEESHAUPT;9.152;9.45
15/08/17 02:00;DEZ1470;Eurdep;air;47.83;11.17;0;Germany;0;0;0;WEILHEIM OT DEUTENHAUSEN;9.982;10
15/08/17 02:00;DEZ1488;Eurdep;air;48.95;11.68;0;Germany;0;0;0;RIEDENBURG;8.958;9
15/08/17 02:00;DEZ1490;Eurdep;air;48.55;12.26;0;Germany;0;0;0;ADLKOFEN;11.055;11
15/08/17 02:00;DEZ1492;Eurdep;air;48.57;12.17;0;Germany;0;0;0;ERGOLDING;9.165000000000001;9.52
15/08/17 02:00;DEZ1497;Eurdep;air;48.47;12.27;0;Germany;0;0;0;GEISENHAUSEN;10.415000000000001;10
15/08/17 02:00;DEZ1498;Eurdep;air;48.51;12.42;0;Germany;0;0;0;GERZEN;11.645;12
15/08/17 02:00;DEZ1502;Eurdep;air;48.65;12.33;0;Germany;0;0;0;POSTAU;9.574;9.89
15/08/17 02:00;DEZ1507;Eurdep;air;48.52;12;0;Germany;0;0;0;BRUCKBERG;9.636;9.93
15/08/17 02:00;DEZ1511;Eurdep;air;48.72;13.33;0;Germany;0;0;0;FÜRSTENSTEIN;15.536000000000001;15
15/08/17 02:00;DEZ1523;Eurdep;air;49.04;12.99;0;Germany;0;0;0;TEISNACH;14.782;15
15/08/17 02:00;DEZ1530;Eurdep;air;48.44;12.57;0;Germany;0;0;0;GANGKOFEN;10.16;10
15/08/17 02:00;DEZ1531;Eurdep;air;48.24;12.98;0;Germany;0;0;0;KIRCHDORF AM INN;9.623000000000001;10
15/08/17 02:00;DEZ1532;Eurdep;air;48.48;12.84;0;Germany;0;0;0;SCHÖNAU 1;12.009;12
15/08/17 02:00;DEZ1537;Eurdep;air;48.94;12.72;0;Germany;0;0;0;HUNDERDORF;13.559000000000001;14
15/08/17 02:00;DEZ1544;Eurdep;air;48.63;12.86;0;Germany;0;0;0;EICHENDORF;8.917;9
15/08/17 02:00;DEZ1550;Eurdep;air;48.74;12.75;0;Germany;0;0;0;WALLERSDORF;11.282;11
15/08/17 02:00;DEZ1553;Eurdep;air;49.04;12.1;0;Germany;0;0;0;REGENSBURG;9.296;9
15/08/17 02:00;DEZ1559;Eurdep;air;49.26;11.93;0;Germany;0;0;0;SCHMIDMÜHLEN;10.058;10
15/08/17 02:00;DEZ1560;Eurdep;air;49.5;11.74;0;Germany;0;0;0;SULZBACH-ROSENBERG;9.808;10
15/08/17 02:00;DEZ1565;Eurdep;air;49.1;12.48;0;Germany;0;0;0;FALKENSTEIN;12.514;12
15/08/17 02:00;DEZ1568;Eurdep;air;49.2;13.05;0;Germany;0;0;0;LAM;14.241;14
15/08/17 02:00;DEZ1572;Eurdep;air;49.36;12.61;0;Germany;0;0;0;SCHÖNTHAL;13.794999999999998;14
15/08/17 02:00;DEZ1583;Eurdep;air;49.16;11.73;0;Germany;0;0;0;PARSBERG;9.517;9
15/08/17 02:00;DEZ1586;Eurdep;air;49.29;11.62;0;Germany;0;0;0;VELBURG OT UNTERWIESENACKER;8.575;8.959999999999999
15/08/17 02:00;DEZ1604;Eurdep;air;48.84;12.19;0;Germany;0;0;0;SCHIERLING-EGGMÜHL;8.901;9.48
15/08/17 02:00;DEZ1607;Eurdep;air;49.25;12.3;0;Germany;0;0;0;BRUCK IN DER OBERPFALZ;11.254999999999999;11
15/08/17 02:00;DEZ1608;Eurdep;air;49.2;12.06;0;Germany;0;0;0;BURGLENGENFELD;11.032;11
15/08/17 02:00;DEZ1615;Eurdep;air;49.51;12.54;0;Germany;0;0;0;SCHÖNSEE;10.645;11
15/08/17 02:00;DEZ1617;Eurdep;air;49.4;12.14;0;Germany;0;0;0;SCHWARZENFELD;11.173;11
15/08/17 02:00;DEZ1620;Eurdep;air;49.81;12.44;0;Germany;0;0;0;BÄRNAU;12;12
15/08/17 02:00;DEZ1626;Eurdep;air;49.88;12.34;0;Germany;0;0;0;TIRSCHENREUTH;12.473;13
15/08/17 02:00;DEZ1627;Eurdep;air;50;12.3;0;Germany;0;0;0;WALDSASSEN;12.190999999999999;12
15/08/17 02:00;DEZ1632;Eurdep;air;49.99;10.85;0;Germany;0;0;0;BAUNACH;9.483;9.74
15/08/17 02:00;DEZ1635;Eurdep;air;49.89;11.11;0;Germany;0;0;0;HEILIGENSTADT I. OFR.;8.155;8.440000000000001
15/08/17 02:00;DEZ1637;Eurdep;air;49.97;11.03;0;Germany;0;0;0;SCHEßLITZ;10.001000000000001;10
15/08/17 02:00;DEZ1638;Eurdep;air;50;11.2;0;Germany;0;0;0;STADELHOFEN;8.953;9.26
15/08/17 02:00;DEZ1640;Eurdep;air;49.85;11.62;0;Germany;0;0;0;CREUßEN;8.292;8.59
15/08/17 02:00;DEZ1646;Eurdep;air;49.77;11.41;0;Germany;0;0;0;POTTENSTEIN;8.940000000000001;9.120000000000001
15/08/17 02:00;DEZ1648;Eurdep;air;49.87;11.33;0;Germany;0;0;0;WAISCHENFELD OT NANKENDORF;8.706999999999999;8.89
15/08/17 02:00;DEZ1650;Eurdep;air;50.32;10.9;0;Germany;0;0;0;MEEDER;11.686;12
15/08/17 02:00;DEZ1651;Eurdep;air;50.33;11.1;0;Germany;0;0;0;NEUSTADT BEI COBURG;10.677;10
15/08/17 02:00;DEZ1656;Eurdep;air;49.78;11.19;0;Germany;0;0;0;EBERMANNSTADT;8.416;8.65
15/08/17 02:00;DEZ1657;Eurdep;air;49.65;11.24;0;Germany;0;0;0;GRÄFENBERG;10.291;10
15/08/17 02:00;DEZ1661;Eurdep;air;50.34;11.6;0;Germany;0;0;0;GEROLDSGRÜN;7.901999999999999;8.15
15/08/17 02:00;DEZ1675;Eurdep;air;50.4;11.38;0;Germany;0;0;0;TEUSCHNITZ;11.291;11
15/08/17 02:00;DEZ1683;Eurdep;air;50.07;11.09;0;Germany;0;0;0;BAD STAFFELSTEIN;8.288;8.58
15/08/17 01:00;DEZ1685;Eurdep;air;50;12.07;0;Germany;0;0;0;MARKTREDWITZ;11;12
15/08/17 02:00;DEZ1689;Eurdep;air;49.32;10.57;0;Germany;0;0;0;ANSBACH;10.831999999999999;11
15/08/17 02:00;DEZ1694;Eurdep;air;49.44;10.17;0;Germany;0;0;0;ADELSHOFEN;10.393;10
15/08/17 02:00;DEZ1698;Eurdep;air;49.07;10.32;0;Germany;0;0;0;DINKELSBÜHL;10;10
15/08/17 02:00;DEZ1699;Eurdep;air;49.2;10.31;0;Germany;0;0;0;FEUCHTWANGEN OT BANZENWEILER;12.504999999999999;13
15/08/17 02:00;DEZ1700;Eurdep;air;49.06;10.5;0;Germany;0;0;0;GEROLFINGEN;10.203;10
15/08/17 02:00;DEZ1701;Eurdep;air;49.34;10.79;0;Germany;0;0;0;HEILSBRONN;10.545;10
15/08/17 02:00;DEZ1709;Eurdep;air;49.62;10.83;0;Germany;0;0;0;WEISENDORF;11.536;12
15/08/17 02:00;DEZ1719;Eurdep;air;49.44;10.33;0;Germany;0;0;0;BURGBERNHEIM;11.614;12
15/08/17 02:00;DEZ1720;Eurdep;air;49.73;10.6;0;Germany;0;0;0;BURGHASLACH;11.241;11
15/08/17 02:00;DEZ1721;Eurdep;air;49.58;10.62;0;Germany;0;0;0;NEUSTADT AN DER AISCH;10.709;11
15/08/17 02:00;DEZ1723;Eurdep;air;49.67;10.46;0;Germany;0;0;0;SCHEINFELD;11.126999999999999;11
15/08/17 02:00;DEZ1724;Eurdep;air;49.6;10.44;0;Germany;0;0;0;SUGENHEIM;9.686;10
15/08/17 02:00;DEZ1728;Eurdep;air;49.13;11.11;0;Germany;0;0;0;HEIDECK;10.059999999999999;10
15/08/17 02:00;DEZ1734;Eurdep;air;49.02;10.74;0;Germany;0;0;0;HEIDENHEIM AM HAHNE;9.004999999999999;9.26
15/08/17 02:00;DEZ1736;Eurdep;air;49.01;11.13;0;Germany;0;0;0;RAITENBUCH;11.223;11
15/08/17 02:00;DEZ1740;Eurdep;air;50.04;10.21;0;Germany;0;0;0;SCHWEINFURT;11.405;11
15/08/17 02:00;DEZ1741;Eurdep;air;49.77;9.96;0;Germany;0;0;0;WÜRZBURG;8.888;9.24
15/08/17 02:00;DEZ1743;Eurdep;air;50;9.17;0;Germany;0;0;0;GOLDBACH;11.236;11
15/08/17 02:00;DEZ1755;Eurdep;air;50.2;9.96;0;Germany;0;0;0;OBERTHULBA;11.577;11
15/08/17 02:00;DEZ1760;Eurdep;air;50.36;10.46;0;Germany;0;0;0;HÖCHHEIM OT IRMELSHAUSEN;11.15;11
15/08/17 02:00;DEZ1766;Eurdep;air;50.36;10.23;0;Germany;0;0;0;WOLLBACH;9.268;9.65
15/08/17 02:00;DEZ1772;Eurdep;air;50.2;10.66;0;Germany;0;0;0;MAROLDSWEISACH;10.936;11
15/08/17 02:00;DEZ1773;Eurdep;air;49.89;10.55;0;Germany;0;0;0;RAUHENEBRACH OT UNTERSTEINBACH;11;11
15/08/17 02:00;DEZ1775;Eurdep;air;49.64;10.22;0;Germany;0;0;0;SEINSHEIM;10.136;10
15/08/17 02:00;DEZ1778;Eurdep;air;49.78;9.38;0;Germany;0;0;0;DORFPROZELTEN;9.22;9.790000000000001
15/08/17 02:00;DEZ1780;Eurdep;air;49.72;9.21;0;Germany;0;0;0;KLEINHEUBACH;8.321;8.620000000000001
15/08/17 02:00;DEZ1783;Eurdep;air;49.98;9.96;0;Germany;0;0;0;ARNSTEIN;9.520999999999999;9.809999999999999
15/08/17 02:00;DEZ1785;Eurdep;air;50.06;9.69;0;Germany;0;0;0;GEMÜNDEN AM MAIN;10.541;10
15/08/17 02:00;DEZ1788;Eurdep;air;49.85;9.63;0;Germany;0;0;0;MARKTHEIDENFELD;8.823;9.23
15/08/17 02:00;DEZ1789;Eurdep;air;49.95;9.67;0;Germany;0;0;0;STEINFELD;10.138;10
15/08/17 02:00;DEZ1793;Eurdep;air;49.99;10.31;0;Germany;0;0;0;GRETTSTADT;8.751000000000001;9.02
15/08/17 02:00;DEZ1794;Eurdep;air;49.92;10.23;0;Germany;0;0;0;KOLITZHEIM;9.474;9.84
15/08/17 02:00;DEZ1797;Eurdep;air;50.04;10;0;Germany;0;0;0;WASSERLOSEN / BURGHAUSEN;10.431999999999999;10
15/08/17 02:00;DEZ1799;Eurdep;air;49.61;9.91;0;Germany;0;0;0;BÜTTHARD OT HÖTTINGEN;11.059000000000001;11
15/08/17 02:00;DEZ1801;Eurdep;air;49.76;9.71;0;Germany;0;0;0;HELMSTADT;9.004000000000001;9.28
15/08/17 02:00;DEZ1804;Eurdep;air;49.85;10.04;0;Germany;0;0;0;KÜRNACH;10.395999999999999;10
15/08/17 02:00;DEZ1807;Eurdep;air;49.51;9.97;0;Germany;0;0;0;RÖTTINGEN;10.256;10
15/08/17 02:00;DEZ1808;Eurdep;air;49.88;9.84;0;Germany;0;0;0;THÜNGERSHEIM;9.117;9.42
15/08/17 02:00;DEZ1812;Eurdep;air;47.72;10.34;0;Germany;0;0;0;KEMPTEN;11.273;11
15/08/17 02:00;DEZ1824;Eurdep;air;48.17;10.6;0;Germany;0;0;0;MITTELNEUFNACH;10.305;10
15/08/17 02:00;DEZ1825;Eurdep;air;48.4;10.61;0;Germany;0;0;0;ZUSMARSHAUSEN;8.437999999999999;8.65
15/08/17 02:00;DEZ1827;Eurdep;air;48.49;10.44;0;Germany;0;0;0;BAUMGARTEN;9.325;9.74
15/08/17 02:00;DEZ1828;Eurdep;air;48.57;10.5;0;Germany;0;0;0;DILLINGEN A. D. DONAU;8.872;9.23
15/08/17 02:00;DEZ1833;Eurdep;air;48.46;10.26;0;Germany;0;0;0;GÜNZBURG;8.613;9.15
15/08/17 02:00;DEZ1834;Eurdep;air;48.37;10.3;0;Germany;0;0;0;ICHENHAUSEN;7.984999999999999;8.47
15/08/17 02:00;DEZ1835;Eurdep;air;48.38;10.44;0;Germany;0;0;0;JETTINGEN-SCHEPPACH;8.747;9.28
15/08/17 02:00;DEZ1838;Eurdep;air;48.27;10.47;0;Germany;0;0;0;THANNHAUSEN;7.468000000000001;7.909999999999999
15/08/17 02:00;DEZ1840;Eurdep;air;48.43;10.15;0;Germany;0;0;0;OBERFAHLHEIM;10.164;10
15/08/17 02:00;DEZ1841;Eurdep;air;48.34;10.04;0;Germany;0;0;0;GERLENHOFEN;9.27;9.58
15/08/17 02:00;DEZ1842;Eurdep;air;48.3;10.17;0;Germany;0;0;0;WEIßENHORN;9.162;9
15/08/17 02:00;DEZ1846;Eurdep;air;48.03;10.72;0;Germany;0;0;0;BUCHLOE;9.91;10
15/08/17 02:00;DEZ1847;Eurdep;air;47.7;10.52;0;Germany;0;0;0;GÖRISRIED;9.781;10
15/08/17 02:00;DEZ1851;Eurdep;air;47.85;10.41;0;Germany;0;0;0;OBERGÜNZBURG;10.102;10
15/08/17 02:00;DEZ1854;Eurdep;air;48.03;10.34;0;Germany;0;0;0;ERKHEIM;9.144;9.540000000000001
15/08/17 02:00;DEZ1858;Eurdep;air;47.99;10.21;0;Germany;0;0;0;MEMMINGERBERG;10.359;10
15/08/17 02:00;DEZ1859;Eurdep;air;48.04;10.49;0;Germany;0;0;0;MINDELHEIM;9.659;10
15/08/17 02:00;DEZ1864;Eurdep;air;48.96;10.61;0;Germany;0;0;0;HAINSFARTH;10.004000000000001;10
15/08/17 02:00;DEZ1865;Eurdep;air;48.78;10.7;0;Germany;0;0;0;HARBURG;7.220000000000001;7.49
15/08/17 02:00;DEZ1866;Eurdep;air;48.84;10.85;0;Germany;0;0;0;MONHEIM;9.828;10
15/08/17 02:00;DEZ1867;Eurdep;air;48.85;10.51;0;Germany;0;0;0;NÖRDLINGEN;11.227;11
15/08/17 02:00;DEZ1869;Eurdep;air;48.87;10.73;0;Germany;0;0;0;WEMDING;9.114;9.42
15/08/17 02:00;DEZ1870;Eurdep;air;47.49;10.39;0;Germany;0;0;0;BAD HINDELANG OT BAD OBERDORF;9.006;9.45
15/08/17 02:00;DEZ1873;Eurdep;air;47.4;10.28;0;Germany;0;0;0;OBERSTDORF;9.35;10
15/08/17 02:00;DEZ1874;Eurdep;air;47.64;10.13;0;Germany;0;0;0;WEITNAU;9.472;9.83
15/08/17 02:00;DEZ1877;Eurdep;air;49.23;6.92;0;Germany;0;0;0;SAARBRÜCKEN-GERSWEILER;10.55;10
15/08/17 02:00;DEZ1883;Eurdep;air;49.42;6.76;0;Germany;0;0;0;BECKINGEN-DÜPPENWEILER;10.709;11
15/08/17 02:00;DEZ1884;Eurdep;air;49.55;6.73;0;Germany;0;0;0;LOSHEIM-SCHEIDEN;9.177;9
15/08/17 02:00;DEZ1885;Eurdep;air;49.43;6.58;0;Germany;0;0;0;MERZIG-SILWINGEN;10.686;11
15/08/17 02:00;DEZ1886;Eurdep;air;49.49;6.62;0;Germany;0;0;0;METTLACH;8.735;8.99
15/08/17 02:00;DEZ1887;Eurdep;air;49.5;6.5;0;Germany;0;0;0;METTLACH-ORSCHOLZ;9.59;9.809999999999999
15/08/17 02:00;DEZ1888;Eurdep;air;49.5;6.44;0;Germany;0;0;0;PERL-BORG;8.447;8
15/08/17 02:00;DEZ1892;Eurdep;air;49.4;7.17;0;Germany;0;0;0;OTTWEILER;10.536;11
15/08/17 02:00;DEZ1894;Eurdep;air;49.39;6.9;0;Germany;0;0;0;LEBACH-EIDENBORN;10.368;10
15/08/17 02:00;DEZ1895;Eurdep;air;49.36;6.62;0;Germany;0;0;0;REHLINGEN-SIERSBURG-HEMMERSDORF;10.162;10
15/08/17 02:00;DEZ1897;Eurdep;air;49.26;6.69;0;Germany;0;0;0;ÜBERHERRN-BERUS;9.281;9.61
15/08/17 02:00;DEZ1898;Eurdep;air;49.32;6.66;0;Germany;0;0;0;WALLERFANGEN-KERLINGEN;9.948;10
15/08/17 02:00;DEZ1899;Eurdep;air;49.28;6.79;0;Germany;0;0;0;BOUS;10.386;10
15/08/17 02:00;DEZ1900;Eurdep;air;49.24;7.27;0;Germany;0;0;0;BLIESKASTEL-WEBENHEIM;10.868;11
15/08/17 02:00;DEZ1901;Eurdep;air;49.15;7.22;0;Germany;0;0;0;GERSHEIM;11.244;11
15/08/17 02:00;DEZ1903;Eurdep;air;49.31;7.34;0;Germany;0;0;0;HOMBURG/SAAR;9.459999999999999;9.86
15/08/17 02:00;DEZ1906;Eurdep;air;49.55;7.25;0;Germany;0;0;0;FREISEN;11.927;12
15/08/17 02:00;DEZ1915;Eurdep;air;47.64;11.75;0;Germany;0;0;0;KREUTH;9.312000000000001;9.85
15/08/17 02:00;DEZ1917;Eurdep;air;48.24;11.55;0;Germany;0;0;0;OBERSCHLEIßHEIM;7.909999999999999;8.47
15/08/17 02:00;DEZ1918;Eurdep;air;48.08;11.37;0;Germany;0;0;0;GAUTING;8.39;8
15/08/17 02:00;DEZ1919;Eurdep;air;48.83;13.78;0;Germany;0;0;0;HAIDMÜHLE;17.794999999999998;18
15/08/17 02:00;DEZ1930;Eurdep;air;48.47;10.49;0;Germany;0;0;0;WINTERBACH;8.838;9.22
15/08/17 02:00;DEZ1934;Eurdep;air;47.56;10.74;0;Germany;0;0;0;HOHENSCHWANGAU;8.568000000000001;8.77
15/08/17 02:00;DEZ1939;Eurdep;air;52.45;10.94;0;Germany;0;0;0;GRAFHORST;7.840000000000001;8.120000000000001
15/08/17 02:00;DEZ1940;Eurdep;air;52.1;10.87;0;Germany;0;0;0;INGELEBEN;8.936;9.26
15/08/17 02:00;DEZ1945;Eurdep;air;53.44;9.91;0;Germany;0;0;0;VAHRENDORF;8.55;9.040000000000001
15/08/17 02:00;DEZ1946;Eurdep;air;53.38;10.11;0;Germany;0;0;0;STELLE/HARBURG;6.781000000000001;7.08
15/08/17 02:00;DEZ1947;Eurdep;air;53.03;11.3;0;Germany;0;0;0;GEDELITZ;6.3950000000000005;6.609999999999999
15/08/17 02:00;DEZ1949;Eurdep;air;51.83;6.54;0;Germany;0;0;0;BOCHOLT-LIEDERN;6.82;7.15
15/08/17 02:00;DEZ1950;Eurdep;air;51.82;6.93;0;Germany;0;0;0;HEIDEN;6.465000000000001;6.82
15/08/17 02:00;DEZ1953;Eurdep;air;52.02;8.59;0;Germany;0;0;0;BIELEFELD;6.784999999999999;7
15/08/17 02:00;DEZ1954;Eurdep;air;51.96;8.37;0;Germany;0;0;0;GÜTERSLOH-HOLLEN;5.947;6.17
15/08/17 02:00;DEZ1955;Eurdep;air;51.63;9.29;0;Germany;0;0;0;BEVERUNGEN-DAHLHAUSEN;9.376999999999999;9.64
15/08/17 02:00;DEZ1956;Eurdep;air;51.7;9.28;0;Germany;0;0;0;HÖXTER-BRUCHHAUSEN;8.97;9
15/08/17 02:00;DEZ1961;Eurdep;air;51.49;6.96;0;Germany;0;0;0;ESSEN-BERGEBORBECK;8.549;8
15/08/17 02:00;DEZ1964;Eurdep;air;51.27;6.37;0;Germany;0;0;0;VIERSEN;8.015;8.309999999999999
15/08/17 02:00;DEZ1967;Eurdep;air;50.91;6.41;0;Germany;0;0;0;JÜLICH;8.352;8.61
15/08/17 02:00;DEZ1968;Eurdep;air;50.98;6.68;0;Germany;0;0;0;BERGHEIM-NIEDERAUßEM;9.129000000000001;9.47
15/08/17 02:00;DEZ1971;Eurdep;air;50.59;6.66;0;Germany;0;0;0;MECHERNICH;9.473;9.84
15/08/17 02:00;DEZ1975;Eurdep;air;49.21;7.11;0;Germany;0;0;0;SAARBRÜCKEN-ENSHEIM;10.244;10
15/08/17 02:00;DEZ1977;Eurdep;air;49.2;12.79;0;Germany;0;0;0;CHAMERAU OT LEDERDORN;14.232;14
15/08/17 02:00;DEZ1987;Eurdep;air;48.02;11.48;0;Germany;0;0;0;BAIERBRUNN;10.027;10
15/08/17 02:00;DEZ1990;Eurdep;air;47.89;12.41;0;Germany;0;0;0;GSTADT AM CHIEMSEE;9.656;10
15/08/17 02:00;DEZ1994;Eurdep;air;48.91;13.09;0;Germany;0;0;0;BISCHOFSMAIS;13.963999999999999;14
15/08/17 02:00;DEZ1997;Eurdep;air;54.1;13.41;0;Germany;0;0;0;GREIFSWALD;7.617;7.840000000000001
15/08/17 02:00;DEZ1999;Eurdep;air;53.64;11.39;0;Germany;0;0;0;SCHWERIN;7.8709999999999996;8
15/08/17 02:00;DEZ2000;Eurdep;air;53.9;11.42;0;Germany;0;0;0;WISMAR;8.455;8.84
15/08/17 02:00;DEZ2002;Eurdep;air;53.9;13.05;0;Germany;0;0;0;DEMMIN;7.9030000000000005;8.35
15/08/17 02:00;DEZ2010;Eurdep;air;54.44;12.73;0;Germany;0;0;0;ZINGST;6.505;6.75
15/08/17 02:00;DEZ2013;Eurdep;air;54.68;13.43;0;Germany;0;0;0;PUTGARTEN OT ARKONA;7.683;7.85
15/08/17 02:00;DEZ2019;Eurdep;air;53.77;8.64;0;Germany;0;0;0;NORDHOLZ;6.755;7.140000000000001
15/08/17 02:00;DEZ2020;Eurdep;air;53.41;8.79;0;Germany;0;0;0;STUBBEN;6.6530000000000005;6.970000000000001
15/08/17 02:00;DEZ2022;Eurdep;air;53.55;7.94;0;Germany;0;0;0;SCHORTENS-HEIDMÜHLE;6.019;6.26
15/08/17 02:00;DEZ2023;Eurdep;air;53.54;8.47;0;Germany;0;0;0;NORDENHAM-SCHWEEWARDEN;8.275;8.51
15/08/17 02:00;DEZ2028;Eurdep;air;53.19;8.58;0;Germany;0;0;0;BREMEN-BLUMENTHAL;6.18;6
15/08/17 02:00;DEZ2030;Eurdep;air;52.29;10.45;0;Germany;0;0;0;BRAUNSCHWEIG / WATENBÜTTEL;7.377;7.720000000000001
15/08/17 02:00;DEZ2032;Eurdep;air;51.83;9.87;0;Germany;0;0;0;EINBECK;10.14;10
15/08/17 02:00;DEZ2033;Eurdep;air;52.23;9.67;0;Germany;0;0;0;BENNIGSEN;9.342;9.55
15/08/17 02:00;DEZ2036;Eurdep;air;52.24;9.86;0;Germany;0;0;0;SARSTEDT;9.027;9.370000000000001
15/08/17 02:00;DEZ2039;Eurdep;air;52.6;10.04;0;Germany;0;0;0;CELLE-WIETZENBRUCH;6.351;6.7299999999999995
15/08/17 02:00;DEZ2043;Eurdep;air;51.69;13.23;0;Germany;0;0;0;HERZBERG/ELSTER;7.5200000000000005;7.69
15/08/17 02:00;DEZ2071;Eurdep;air;51.37;6.44;0;Germany;0;0;0;KEMPEN;8.07;8.49
15/08/17 02:00;DEZ2076;Eurdep;air;50.94;7.05;0;Germany;0;0;0;KÖLN-MERHEIM;8.729000000000001;9.15
15/08/17 02:00;DEZ2079;Eurdep;air;50.72;6.4;0;Germany;0;0;0;HÜRTGENWALD-KLEINHAU;9.327;9.76
15/08/17 02:00;DEZ2081;Eurdep;air;50.97;6.58;0;Germany;0;0;0;BERGHEIM-GLESCH;10.28;10
15/08/17 02:00;DEZ2082;Eurdep;air;50.89;6.87;0;Germany;0;0;0;HÜRTH;9.345;9.67
15/08/17 02:00;DEZ2084;Eurdep;air;50.67;6.76;0;Germany;0;0;0;EUSKIRCHEN;8.768;9.14
15/08/17 02:00;DEZ2086;Eurdep;air;49.55;8.59;0;Germany;0;0;0;VIERNHEIM;8.455;8.77
15/08/17 02:00;DEZ2088;Eurdep;air;50.6;8.84;0;Germany;0;0;0;REISKIRCHEN;9.58;9.959999999999999
15/08/17 02:00;DEZ2089;Eurdep;air;50.82;8.53;0;Germany;0;0;0;DAUTPHETAL;8.384;8.75
15/08/17 02:00;DEZ2096;Eurdep;air;50.86;9.48;0;Germany;0;0;0;OBERAULA;10.205;10
15/08/17 02:00;DEZ2098;Eurdep;air;51.11;9.12;0;Germany;0;0;0;BAD WILDUNGEN;10.545;10
15/08/17 02:00;DEZ2102;Eurdep;air;51.32;13.29;0;Germany;0;0;0;RIESA;9.475;9
15/08/17 02:00;DEZ2103;Eurdep;air;50.88;12.13;0;Germany;0;0;0;GERA OT LEUMNITZ;9.324;9.64
15/08/17 02:00;DEZ2108;Eurdep;air;49.6;7.06;0;Germany;0;0;0;NOHFELDEN-SÖTERN;11.364;11
15/08/17 02:00;DEZ2117;Eurdep;air;53.03;13.99;0;Germany;0;0;0;KERKOW;8.187000000000001;8
15/08/17 02:00;DEZ2118;Eurdep;air;52.87;14.15;0;Germany;0;0;0;HOHENSAATEN;7.0329999999999995;7.35
15/08/17 02:00;DEZ2120;Eurdep;air;52.21;14.12;0;Germany;0;0;0;LINDENBERG;7.51;7.81
15/08/17 02:00;DEZ2123;Eurdep;air;52.28;12.61;0;Germany;0;0;0;GOLZOW;6.8420000000000005;7.18
15/08/17 02:00;DEZ2124;Eurdep;air;52.92;13.73;0;Germany;0;0;0;ALTENHOF;7.0489999999999995;7.56
15/08/17 02:00;DEZ2126;Eurdep;air;53.14;13.03;0;Germany;0;0;0;NEUGLOBSOW;6.577;6.81
15/08/17 02:00;DEZ2134;Eurdep;air;53.16;12.2;0;Germany;0;0;0;PRITZWALK;7.5680000000000005;7.82
15/08/17 02:00;DEZ2135;Eurdep;air;52.53;14.37;0;Germany;0;0;0;SEELOW;7.82;8.040000000000001
15/08/17 02:00;DEZ2137;Eurdep;air;51.51;13.98;0;Germany;0;0;0;SENFTENBERG;7.247;7.5200000000000005
15/08/17 02:00;DEZ2148;Eurdep;air;51.27;12.67;0;Germany;0;0;0;BEIERSDORF;10.129000000000001;10
15/08/17 02:00;DEZ2150;Eurdep;air;51.27;13.89;0;Germany;0;0;0;KÖNIGSBRÜCK;7.869;8.14
15/08/17 02:00;DEZ2153;Eurdep;air;51.29;14.85;0;Germany;0;0;0;NIESKY;8.068999999999999;8.459999999999999
15/08/17 02:00;DEZ2157;Eurdep;air;51.49;14.63;0;Germany;0;0;0;WEIßWASSER;6.635;6.88
15/08/17 02:00;DEZ2161;Eurdep;air;50.98;12.52;0;Germany;0;0;0;NOBITZ;10.876999999999999;11
15/08/17 02:00;DEZ2163;Eurdep;air;50.8;10.25;0;Germany;0;0;0;BAD SALZUNGEN;11.355;11
15/08/17 02:00;DEZ2165;Eurdep;air;50.96;10.71;0;Germany;0;0;0;GOTHA;11.845;12
15/08/17 02:00;DEZ2166;Eurdep;air;51.2;10.44;0;Germany;0;0;0;MÜHLHAUSEN;10.882;11
15/08/17 02:00;DEZ2167;Eurdep;air;51.5;10.81;0;Germany;0;0;0;NORDHAUSEN;11.914;12
15/08/17 02:00;DEZ2174;Eurdep;air;53.29;9.5;0;Germany;0;0;0;SITTENSEN;6.798;7.109999999999999
15/08/17 02:00;DEZ2175;Eurdep;air;52.96;7.27;0;Germany;0;0;0;DERSUM;8.143;8.540000000000001
15/08/17 02:00;DEZ2176;Eurdep;air;52.52;7.31;0;Germany;0;0;0;LINGEN / DWD;5.622;5.93
15/08/17 02:00;DEZ2178;Eurdep;air;53.28;10.73;0;Germany;0;0;0;BLECKEDE;6.3740000000000006;6.69
15/08/17 02:00;DEZ2182;Eurdep;air;52.17;9;0;Germany;0;0;0;KALLETAL-STEMMEN;9.492;9.690000000000001
15/08/17 02:00;DEZ2183;Eurdep;air;51.47;8.71;0;Germany;0;0;0;WÜNNENBERG-BLEIWÄSCHE;8.633;8.99
15/08/17 02:00;DEZ2184;Eurdep;air;51.18;8.49;0;Germany;0;0;0;WINTERBERG-KAHLER ASTEN;9.805;10
15/08/17 02:00;DEZ2186;Eurdep;air;50.71;8.08;0;Germany;0;0;0;BURBACH;8.405;8.92
15/08/17 02:00;DEZ2188;Eurdep;air;50.84;8.02;0;Germany;0;0;0;SIEGEN;10.882;11
15/08/17 02:00;DEZ2190;Eurdep;air;50.55;6.25;0;Germany;0;0;0;MONSCHAU-HÖFEN;10.119;10
15/08/17 02:00;DEZ2192;Eurdep;air;51.08;7.53;0;Germany;0;0;0;MARIENHEIDE;9.527;9.879999999999999
15/08/17 02:00;DEZ2196;Eurdep;air;49.21;8.18;0;Germany;0;0;0;LANDAU/PF.-MÖRLHEIM;9.303;9.629999999999999
15/08/17 02:00;DEZ2197;Eurdep;air;49.46;8.44;0;Germany;0;0;0;LUDWIGSHAFEN/RHEIN;9.25;9.540000000000001
15/08/17 02:00;DEZ2198;Eurdep;air;49.36;8.14;0;Germany;0;0;0;NEUSTADT/WEINSTR. OT HAARDT.;8.879999999999999;9.32
15/08/17 02:00;DEZ2199;Eurdep;air;49.31;8.45;0;Germany;0;0;0;SPEYER;8.493;8.78
15/08/17 02:00;DEZ2200;Eurdep;air;48.98;8.14;0;Germany;0;0;0;SCHEIBENHARDT;9.076;9.41
15/08/17 02:00;DEZ2201;Eurdep;air;49.13;8.15;0;Germany;0;0;0;STEINWEILER;8.433;8.83
15/08/17 02:00;DEZ2203;Eurdep;air;48.9;9.13;0;Germany;0;0;0;ASPERG;10.705;11
15/08/17 02:00;DEZ2204;Eurdep;air;49.04;9.12;0;Germany;0;0;0;BÖNNIGHEIM ST HOHENSTEIN;10.818000000000001;11
15/08/17 02:00;DEZ2205;Eurdep;air;48.94;9.29;0;Germany;0;0;0;ERDMANNHAUSEN;9.66;9.92
15/08/17 02:00;DEZ2207;Eurdep;air;49;9.11;0;Germany;0;0;0;LÖCHGAU;10.718;11
15/08/17 02:00;DEZ2210;Eurdep;air;48.83;9.14;0;Germany;0;0;0;KORNTAL-MÜNCHINGEN;11.626999999999999;11
15/08/17 02:00;DEZ2211;Eurdep;air;48.95;9.45;0;Germany;0;0;0;BACKNANG;9.986;10
15/08/17 02:00;DEZ2213;Eurdep;air;49.24;9.11;0;Germany;0;0;0;BAD RAPPENAU;10.659;11
15/08/17 02:00;DEZ2214;Eurdep;air;49.16;8.99;0;Germany;0;0;0;GEMMINGEN;10.097;10
15/08/17 02:00;DEZ2215;Eurdep;air;49.06;9.29;0;Germany;0;0;0;ILSFELD OT AUENSTEIN;10.823;11
15/08/17 02:00;DEZ2216;Eurdep;air;49.1;9.39;0;Germany;0;0;0;LÖWENSTEIN;10.745000000000001;11
15/08/17 02:00;DEZ2220;Eurdep;air;48.6;10.25;0;Germany;0;0;0;HERMARINGEN;10.049;10
15/08/17 02:00;DEZ2223;Eurdep;air;48.95;8.39;0;Germany;0;0;0;ETTLINGEN;10.290000000000001;10
15/08/17 02:00;DEZ2224;Eurdep;air;49.24;8.46;0;Germany;0;0;0;PHILIPPSBURG;8.440999999999999;8.91
15/08/17 02:00;DEZ2229;Eurdep;air;49.23;8.51;0;Germany;0;0;0;WAGHÄUSEL OT WIESENTAL;8.879999999999999;9.129999999999999
15/08/17 02:00;DEZ2230;Eurdep;air;49.26;8.5;0;Germany;0;0;0;OBERHAUSEN-RHEINHAUSEN;9.284;9.66
15/08/17 02:00;DEZ2232;Eurdep;air;49.16;8.42;0;Germany;0;0;0;DETTENHEIM OT LIEDOLSHEIM;8.522;8
15/08/17 02:00;DEZ2233;Eurdep;air;48.95;8.23;0;Germany;0;0;0;AU AM RHEIN;8.764;9.07
15/08/17 02:00;DEZ2234;Eurdep;air;48.86;8.2;0;Germany;0;0;0;RASTATT;9.065000000000001;9
15/08/17 02:00;DEZ2235;Eurdep;air;48.9;8.2;0;Germany;0;0;0;STEINMAUERN;8.715;9.02
15/08/17 02:00;DEZ2238;Eurdep;air;49.43;8.54;0;Germany;0;0;0;MANNHEIM ST RHEINAU;9.225;9
15/08/17 02:00;DEZ2239;Eurdep;air;49.37;9.02;0;Germany;0;0;0;AGLASTERHAUSEN OT BREIT.;11.086;11
15/08/17 02:00;DEZ2240;Eurdep;air;49.45;9.18;0;Germany;0;0;0;LIMBACH OT KRUMBACH;11.618;11
15/08/17 02:00;DEZ2241;Eurdep;air;49.35;9.13;0;Germany;0;0;0;MOSBACH;11.036;11
14/08/17 13:00;DEZ2242;Eurdep;air;49.36;9.11;0;Germany;0;0;0;MOSBACH ST DIEDESHEIM;9.091;9.41
15/08/17 02:00;DEZ2243;Eurdep;air;49.39;9.09;0;Germany;0;0;0;MOSBACH ST REICHENBUCH;11.032;11
15/08/17 02:00;DEZ2244;Eurdep;air;49.54;9.16;0;Germany;0;0;0;MUDAU OT SCHLOSSAU;10.986;11
15/08/17 02:00;DEZ2246;Eurdep;air;49.4;9.27;0;Germany;0;0;0;UNTER-SCHEFFLENZ;10.736;11
15/08/17 02:00;DEZ2248;Eurdep;air;49.24;8.68;0;Germany;0;0;0;MALSCH;10.876999999999999;11
15/08/17 02:00;DEZ2249;Eurdep;air;49.34;8.8;0;Germany;0;0;0;MAUER;10.331999999999999;10
15/08/17 02:00;DEZ2250;Eurdep;air;49.46;8.81;0;Germany;0;0;0;SCHÖNAU ST ALTNEUDORF;10.055;10
15/08/17 02:00;DEZ2252;Eurdep;air;49.53;8.64;0;Germany;0;0;0;WEINHEIM;9.857;10
15/08/17 02:00;DEZ2253;Eurdep;air;49.33;8.98;0;Germany;0;0;0;HELMSTADT-BARGEN OT HELM.;10.764;11
15/08/17 02:00;DEZ2254;Eurdep;air;49.31;9.02;0;Germany;0;0;0;HELMSTADT-BARGEN OT BARG.;11;12
15/08/17 02:00;DEZ2255;Eurdep;air;49.05;8.85;0;Germany;0;0;0;STERNENFELS;11.882;12
15/08/17 02:00;DEZ2257;Eurdep;air;48.02;7.73;0;Germany;0;0;0;FREIBURG ST WALTERSHOFEN;11.35;11
15/08/17 02:00;DEZ2259;Eurdep;air;47.98;7.79;0;Germany;0;0;0;FREIBURG ST ST. GEORGEN;11.35;11
15/08/17 02:00;DEZ2261;Eurdep;air;48.03;7.6;0;Germany;0;0;0;BREISACH;9.351;10
15/08/17 02:00;DEZ2264;Eurdep;air;47.86;7.58;0;Germany;0;0;0;NEUENBURG ST GRIßHEIM;9.118;9.67
15/08/17 02:00;DEZ2268;Eurdep;air;47.65;8.13;0;Germany;0;0;0;ALBBRUCK OT UNTERALPFEN;12.504999999999999;12
15/08/17 02:00;DEZ2269;Eurdep;air;47.64;8.08;0;Germany;0;0;0;GÖRWIHL OT GÖRWIHL;13.305000000000001;13
15/08/17 02:00;DEZ2270;Eurdep;air;47.68;8.01;0;Germany;0;0;0;HERRISCHRIED OT GROßHERRISCHWAND;19;19
15/08/17 02:00;DEZ2272;Eurdep;air;47.63;8.31;0;Germany;0;0;0;LAUCHRINGEN OT UNTERLAU.;11.591;12
15/08/17 02:00;DEZ2273;Eurdep;air;47.56;7.97;0;Germany;0;0;0;BAD SÄCKINGEN;8.985;9.47
15/08/17 02:00;DEZ2274;Eurdep;air;47.77;8.11;0;Germany;0;0;0;ST. BLASIEN;15.705000000000002;16
15/08/17 02:00;DEZ2277;Eurdep;air;47.72;8.32;0;Germany;0;0;0;ÜHLINGEN-BIRKENDORF;12.168000000000001;12
15/08/17 02:00;DEZ2288;Eurdep;air;54.18;12.08;0;Germany;0;0;0;ROSTOCK-WARNEMÜNDE;7.829000000000001;8
15/08/17 02:00;DEZ2291;Eurdep;air;53.95;13.42;0;Germany;0;0;0;GÜTZKOW;7;7.87
15/08/17 02:00;DEZ2293;Eurdep;air;53.32;11.11;0;Germany;0;0;0;LÜBTHEEN;7.087999999999999;7.26
15/08/17 02:00;DEZ2298;Eurdep;air;54.37;13.67;0;Germany;0;0;0;SELLIN;7.615;7.92
15/08/17 02:00;DEZ2308;Eurdep;air;53.43;10.75;0;Germany;0;0;0;GRESSE;6.834999999999999;7.19
15/08/17 02:00;DEZ2309;Eurdep;air;53.38;11.24;0;Germany;0;0;0;KUHSTORF;6.098;6.2299999999999995
15/08/17 02:00;DEZ2312;Eurdep;air;53.13;11.36;0;Germany;0;0;0;POLZ;5.994;6.37
15/08/17 02:00;DEZ2313;Eurdep;air;53.23;11.2;0;Germany;0;0;0;TEWSWOOS;6.6579999999999995;6.890000000000001
15/08/17 01:00;DEZ2314;Eurdep;air;53.5;11.09;0;Germany;0;0;0;WITTENBURG;7.25;7.42
15/08/17 02:00;DEZ2315;Eurdep;air;53.46;13.29;0;Germany;0;0;0;GODENSWEGE;7.848999999999999;8.190000000000001
15/08/17 02:00;DEZ2317;Eurdep;air;53.32;12.36;0;Germany;0;0;0;JAEBETZ;7.343000000000001;7.58
15/08/17 02:00;DEZ2320;Eurdep;air;54.03;12.88;0;Germany;0;0;0;GRAMMENDORF;8.159;8.41
15/08/17 02:00;DEZ2321;Eurdep;air;54.4;13.01;0;Germany;0;0;0;KLAUSDORF;8.138;8.34
15/08/17 02:00;DEZ2322;Eurdep;air;53.77;11.46;0;Germany;0;0;0;BAD KLEINEN;9.699;9.97
15/08/17 02:00;DEZ2327;Eurdep;air;53.95;13.85;0;Germany;0;0;0;LASSAN;7.584999999999999;7.82
15/08/17 02:00;DEZ2332;Eurdep;air;53.87;14.17;0;Germany;0;0;0;ZIRCHOW;7.1049999999999995;7.37
15/08/17 02:00;DEZ2333;Eurdep;air;53.62;12.18;0;Germany;0;0;0;GOLDBERG;7.888;8
15/08/17 02:00;DEZ2334;Eurdep;air;53.55;11.92;0;Germany;0;0;0;LENSCHOW;8.11;8.440000000000001
15/08/17 02:00;DEZ2336;Eurdep;air;53.67;11.65;0;Germany;0;0;0;WENDORF;7.095999999999999;7
15/08/17 02:00;DEZ2337;Eurdep;air;54.32;13.53;0;Germany;0;0;0;INSEL VILM;7.392;7.609999999999999
15/08/17 02:00;DEZ2338;Eurdep;air;54.54;13.55;0;Germany;0;0;0;SAGARD OT MARLOW;8.917;9
15/08/17 02:00;DEZ2349;Eurdep;air;51.78;14.32;0;Germany;0;0;0;COTTBUS;6.656999999999999;7.040000000000001
15/08/17 02:00;DEZ2350;Eurdep;air;52.16;14.66;0;Germany;0;0;0;EISENHÜTTENSTADT;6.411;6.76
15/08/17 02:00;DEZ2351;Eurdep;air;52.37;14.48;0;Germany;0;0;0;FRANKFURT/ODER;6.645999999999999;6.95
03/08/17 00:00;DEZ2353;Eurdep;air;53.07;14.2;0;Germany;0;0;0;SCHWEDT;0;0
09/08/17 00:00;DEZ2354;Eurdep;air;53.21;14.38;0;Germany;0;0;0;GARTZ/ODER;0;0
15/08/17 02:00;DEZ2360;Eurdep;air;51.75;14.63;0;Germany;0;0;0;FORST;9.149;9
15/08/17 02:00;DEZ2364;Eurdep;air;52;13.07;0;Germany;0;0;0;JÜTERBOG;7.9799999999999995;8.23
15/08/17 02:00;DEZ2367;Eurdep;air;52.94;12.41;0;Germany;0;0;0;KYRITZ;7.359999999999999;7
15/08/17 02:00;DEZ2368;Eurdep;air;51.94;13.91;0;Germany;0;0;0;LÜBBEN;5.884;6
15/08/17 02:00;DEZ2371;Eurdep;air;52.9;12.81;0;Germany;0;0;0;NEURUPPIN;7.118;7.4799999999999995
15/08/17 02:00;DEZ2372;Eurdep;air;52.64;13.25;0;Germany;0;0;0;STOLPE;7.08;7.37
15/08/17 02:00;DEZ2373;Eurdep;air;53.07;11.85;0;Germany;0;0;0;PERLEBERG;7;7.970000000000001
15/08/17 02:00;DEZ2374;Eurdep;air;53.31;13.87;0;Germany;0;0;0;PRENZLAU;7.686;8.02
15/08/17 02:00;DEZ2375;Eurdep;air;52.55;14.55;0;Germany;0;0;0;MANSCHNOW;7.345000000000001;7.640000000000001
15/08/17 02:00;DEZ2377;Eurdep;air;52.6;13.58;0;Germany;0;0;0;AHRENSFELDE;8.522;8
15/08/17 02:00;DEZ2379;Eurdep;air;52.79;13.49;0;Germany;0;0;0;KLOSTERFELDE;8.242;8.540000000000001
15/08/17 02:00;DEZ2380;Eurdep;air;52.92;14.11;0;Germany;0;0;0;LUNOW;7.74;8.120000000000001
15/08/17 02:00;DEZ2381;Eurdep;air;52.77;13.7;0;Germany;0;0;0;MELCHOW;6.814;7.040000000000001
15/08/17 02:00;DEZ2382;Eurdep;air;52.85;13.94;0;Germany;0;0;0;NIEDERFINOW;7.353;7.609999999999999
15/08/17 02:00;DEZ2383;Eurdep;air;51.92;13.58;0;Germany;0;0;0;DRAHNSDORF;6.831999999999999;7.2299999999999995
15/08/17 02:00;DEZ2384;Eurdep;air;51.98;14.29;0;Germany;0;0;0;LIEBEROSE;5.697;5.92
15/08/17 02:00;DEZ2385;Eurdep;air;51.85;13.7;0;Germany;0;0;0;LUCKAU;7.125;7.35
15/08/17 02:00;DEZ2388;Eurdep;air;51.65;13.57;0;Germany;0;0;0;DOBERLUG-KIRCHHAIN;6.411;6.69
15/08/17 02:00;DEZ2391;Eurdep;air;52.59;12.63;0;Germany;0;0;0;BUSCHOW;5.782;6.05
15/08/17 02:00;DEZ2396;Eurdep;air;53.14;13.24;0;Germany;0;0;0;BREDEREICHE;6.959999999999999;7.32
15/08/17 02:00;DEZ2397;Eurdep;air;52.9;13.16;0;Germany;0;0;0;LÖWENBERG;7.6209999999999996;8.01
15/08/17 02:00;DEZ2399;Eurdep;air;51.37;13.76;0;Germany;0;0;0;ORTRAND;7.069;7
15/08/17 02:00;DEZ2401;Eurdep;air;52.35;14.28;0;Germany;0;0;0;BRIESEN;6.647;7.01
15/08/17 02:00;DEZ2402;Eurdep;air;52.09;14.64;0;Germany;0;0;0;NEUZELLE;7.123;7.43
15/08/17 02:00;DEZ2403;Eurdep;air;52.24;13.95;0;Germany;0;0;0;STORKOW;6.484999999999999;6.7700000000000005
15/08/17 00:00;DEZ2407;Eurdep;air;52.25;12.95;0;Germany;0;0;0;BEELITZ;6.584999999999999;6.81
15/08/17 02:00;DEZ2408;Eurdep;air;52.21;12.8;0;Germany;0;0;0;BRÜCK;6.2909999999999995;6.55
15/08/17 02:00;DEZ2410;Eurdep;air;52.02;12.53;0;Germany;0;0;0;KLEPZIG;7;7.49
15/08/17 02:00;DEZ2411;Eurdep;air;52.12;12.46;0;Germany;0;0;0;WIESENBURG;7.356;7.709999999999999
15/08/17 02:00;DEZ2412;Eurdep;air;52.25;12.26;0;Germany;0;0;0;ZIESAR;7.321;7.63
15/08/17 02:00;DEZ2414;Eurdep;air;53.25;12.04;0;Germany;0;0;0;PUTLITZ;7.569;7.779999999999999
15/08/17 02:00;DEZ2417;Eurdep;air;51.67;14.75;0;Germany;0;0;0;KLEIN BADEMEUSEL;8.748999999999999;9.02
15/08/17 02:00;DEZ2423;Eurdep;air;52.21;13.16;0;Germany;0;0;0;SCHÖNHAGEN;6.873;7.13
15/08/17 02:00;DEZ2424;Eurdep;air;51.88;13.25;0;Germany;0;0;0;WIEPERSDORF;7.249;7.5200000000000005
15/08/17 02:00;DEZ2426;Eurdep;air;53.27;13.62;0;Germany;0;0;0;BOITZENBURG;8.128;8.52
15/08/17 02:00;DEZ2428;Eurdep;air;53.24;13.98;0;Germany;0;0;0;HOHENGÜSTOW;8.117;8.35
15/08/17 02:00;DEZ2429;Eurdep;air;53.22;13.32;0;Germany;0;0;0;LYCHEN;7.531999999999999;7.85
15/08/17 02:00;DEZ2431;Eurdep;air;53.39;14;0;Germany;0;0;0;KLOCKOW;8.198;8.58
15/08/17 02:00;DEZ2432;Eurdep;air;53.27;14.35;0;Germany;0;0;0;TANTOW;8.028;8
15/08/17 02:00;DEZ2433;Eurdep;air;53.09;14.29;0;Germany;0;0;0;VIERRADEN;8.187000000000001;8.47
15/08/17 02:00;DEZ2434;Eurdep;air;51.52;11.97;0;Germany;0;0;0;HALLE;9.122;9.55
15/08/17 02:00;DEZ2436;Eurdep;air;51.76;11.49;0;Germany;0;0;0;ASCHERSLEBEN;10.014;10
15/08/17 02:00;DEZ2437;Eurdep;air;51.81;11.73;0;Germany;0;0;0;BERNBURG;9.398;9.68
15/08/17 02:00;DEZ2438;Eurdep;air;51.63;12.29;0;Germany;0;0;0;BITTERFELD;8.305;8.459999999999999
15/08/17 02:00;DEZ2443;Eurdep;air;52.27;11.42;0;Germany;0;0;0;HALDENSLEBEN;8.055;8.39
15/08/17 02:00;DEZ2444;Eurdep;air;52.84;12.08;0;Germany;0;0;0;HAVELBERG;7.042;7
15/08/17 02:00;DEZ2446;Eurdep;air;51.8;12.96;0;Germany;0;0;0;JESSEN;8.083;8.25
15/08/17 02:00;DEZ2447;Eurdep;air;52.63;11.14;0;Germany;0;0;0;KLÖTZE;6.059;6.32
15/08/17 02:00;DEZ2448;Eurdep;air;51.73;11.95;0;Germany;0;0;0;KÖTHEN;10.068000000000001;10
15/08/17 02:00;DEZ2450;Eurdep;air;52.89;11.73;0;Germany;0;0;0;SEEHAUSEN;6.725;6.99
15/08/17 02:00;DEZ2451;Eurdep;air;52.88;11.57;0;Germany;0;0;0;LEPPIN;6.9959999999999996;7.2299999999999995
15/08/17 02:00;DEZ2454;Eurdep;air;52.83;11.19;0;Germany;0;0;0;SALZWEDEL;6.912000000000001;7.090000000000001
15/08/17 02:00;DEZ2456;Eurdep;air;52.01;11.75;0;Germany;0;0;0;SCHÖNEBECK/ELBE;11.462;11
15/08/17 02:00;DEZ2459;Eurdep;air;51.89;12.65;0;Germany;0;0;0;WITTENBERG;6.9799999999999995;7.2700000000000005
15/08/17 02:00;DEZ2460;Eurdep;air;52.24;11.64;0;Germany;0;0;0;WOLMIRSTEDT;9.731;10
15/08/17 02:00;DEZ2464;Eurdep;air;52;12.28;0;Germany;0;0;0;POLENZKO OT BÄRENTHOREN;7.486;7.67
15/08/17 02:00;DEZ2466;Eurdep;air;51.62;12.12;0;Germany;0;0;0;ZÖRBIG;9.706999999999999;10
15/08/17 02:00;DEZ2467;Eurdep;air;51.73;12.48;0;Germany;0;0;0;GRÄFENHAINICHEN;7.279000000000001;7.45
12/08/17 00:00;DEZ2468;Eurdep;air;51.15;11.79;0;Germany;0;0;0;NAUMBURG;0;0
15/08/17 02:00;DEZ2471;Eurdep;air;51.65;11.68;0;Germany;0;0;0;IHLEWITZ;10.671;11
15/08/17 02:00;DEZ2473;Eurdep;air;51.39;11.66;0;Germany;0;0;0;OBHAUSEN;9.658;9.95
15/08/17 02:00;DEZ2477;Eurdep;air;51.94;11.45;0;Germany;0;0;0;EGELN;9.132;9.53
15/08/17 02:00;DEZ2478;Eurdep;air;52.16;11.18;0;Germany;0;0;0;UMMENDORF;9.227;9.66
15/08/17 02:00;DEZ2479;Eurdep;air;51.98;10.88;0;Germany;0;0;0;BADERSLEBEN;9.92;10
15/08/17 02:00;DEZ2480;Eurdep;air;52.38;11.98;0;Germany;0;0;0;PAREY;7.509;7.83
15/08/17 02:00;DEZ2484;Eurdep;air;52.71;11.86;0;Germany;0;0;0;GOLDBECK;6.718999999999999;7.029999999999999
15/08/17 02:00;DEZ2489;Eurdep;air;51.8;10.62;0;Germany;0;0;0;SCHIERKE/BROCKEN;13.547999999999998;14
15/08/17 02:00;DEZ2491;Eurdep;air;52.79;10.89;0;Germany;0;0;0;DÄHRE;7.314;7
15/08/17 02:00;DEZ2492;Eurdep;air;52.79;11.38;0;Germany;0;0;0;FLEETMARK;8.05;8.290000000000001
15/08/17 02:00;DEZ2502;Eurdep;air;51.16;14.95;0;Germany;0;0;0;GÖRLITZ;8.34;8.66
15/08/17 02:00;DEZ2503;Eurdep;air;51.33;12.29;0;Germany;0;0;0;LEIPZIG;9.131;9.39
15/08/17 02:00;DEZ2505;Eurdep;air;50.54;12.42;0;Germany;0;0;0;RODEWISCH;12.862;13
15/08/17 02:00;DEZ2506;Eurdep;air;51.18;14.45;0;Germany;0;0;0;BAUTZEN;9.39;9.709999999999999
15/08/17 02:00;DEZ2507;Eurdep;air;51.14;14.2;0;Germany;0;0;0;BISCHOFSWERDA;10.013;10
15/08/17 02:00;DEZ2509;Eurdep;air;50.71;13.51;0;Germany;0;0;0;CÄMMERSWALDE;12.262;12
15/08/17 02:00;DEZ2510;Eurdep;air;50.81;13.41;0;Germany;0;0;0;MULDA;12.39;12
15/08/17 01:00;DEZ2512;Eurdep;air;51.12;13.67;0;Germany;0;0;0;RADEBEUL;12.88;13
15/08/17 02:00;DEZ2513;Eurdep;air;50.91;13.34;0;Germany;0;0;0;FREIBERG;11.886;12
15/08/17 02:00;DEZ2514;Eurdep;air;50.88;12.59;0;Germany;0;0;0;WALDENBURG;10.905;11
15/08/17 02:00;DEZ2516;Eurdep;air;51.43;14.28;0;Germany;0;0;0;HOYERSWERDA;6.491;6.85
15/08/17 02:00;DEZ2520;Eurdep;air;50.33;12.29;0;Germany;0;0;0;ADORF;11.209999999999999;11
15/08/17 02:00;DEZ2524;Eurdep;air;50.85;14.06;0;Germany;0;0;0;ROSENTHAL;9.540000000000001;9
15/08/17 02:00;DEZ2525;Eurdep;air;50.48;12.13;0;Germany;0;0;0;PLAUEN;10.468;10
15/08/17 02:00;DEZ2527;Eurdep;air;50.43;12.71;0;Germany;0;0;0;JOHANNGEORGENSTADT;13.190000000000001;13
12/08/17 00:00;DEZ2529;Eurdep;air;50.93;14.36;0;Germany;0;0;0;HINTERHERMSDORF;0;0
15/08/17 02:00;DEZ2531;Eurdep;air;50.68;12.47;0;Germany;0;0;0;ZWICKAU;10.071;10
15/08/17 02:00;DEZ2532;Eurdep;air;50.64;12.96;0;Germany;0;0;0;EHRENFRIEDERSDORF;11;11
15/08/17 02:00;DEZ2533;Eurdep;air;51.31;14.33;0;Germany;0;0;0;KÖNIGSWARTHA;7.1819999999999995;7
15/08/17 02:00;DEZ2534;Eurdep;air;51.09;14.39;0;Germany;0;0;0;WILTHEN;8.826;9.22
15/08/17 02:00;DEZ2535;Eurdep;air;51.45;12.63;0;Germany;0;0;0;EILENBURG;9.47;9.809999999999999
15/08/17 02:00;DEZ2536;Eurdep;air;51.07;13.04;0;Germany;0;0;0;WALDHEIM;10.008;10
15/08/17 02:00;DEZ2547;Eurdep;air;51.26;14.64;0;Germany;0;0;0;WEIGERSDORF;6.75;6.99
15/08/17 02:00;DEZ2551;Eurdep;air;50.89;14.66;0;Germany;0;0;0;GROßSCHÖNAU;11.257;11
15/08/17 02:00;DEZ2553;Eurdep;air;51.02;14.53;0;Germany;0;0;0;NEUSALZA-SPREMBERG;8.84;9
15/08/17 02:00;DEZ2554;Eurdep;air;50.83;14.72;0;Germany;0;0;0;OYBIN;11.576;12
15/08/17 02:00;DEZ2555;Eurdep;air;50.89;14.2;0;Germany;0;0;0;REINHARDTSDORF;7.5489999999999995;7.85
15/08/17 02:00;DEZ2557;Eurdep;air;51.23;13.03;0;Germany;0;0;0;MÜGELN;11.348;11
15/08/17 02:00;DEZ2558;Eurdep;air;50.73;13.75;0;Germany;0;0;0;ALTENBERG OT GEORGENFELD;16.819;17
15/08/17 02:00;DEZ2559;Eurdep;air;51.19;14.02;0;Germany;0;0;0;PULSNITZ;7.19;7.409999999999999
15/08/17 02:00;DEZ2560;Eurdep;air;51.06;13.95;0;Germany;0;0;0;DRESDEN OT ROSSENDORF;9.172;9.540000000000001
15/08/17 02:00;DEZ2562;Eurdep;air;51.39;14.03;0;Germany;0;0;0;WIEDNITZ;6.882;7.159999999999999
15/08/17 02:00;DEZ2569;Eurdep;air;50.5;11.14;0;Germany;0;0;0;NEUHAUS/RENNWEG;12.341;12
15/08/17 02:00;DEZ2572;Eurdep;air;50.57;11.8;0;Germany;0;0;0;SCHLEIZ;8.175;8.43
15/08/17 02:00;DEZ2573;Eurdep;air;51.16;11.11;0;Germany;0;0;0;SÖMMERDA;11.314;11
15/08/17 02:00;DEZ2574;Eurdep;air;51.28;10.72;0;Germany;0;0;0;EBELEBEN;9.575;9.98
15/08/17 02:00;DEZ2575;Eurdep;air;50.7;10.69;0;Germany;0;0;0;OBERHOF;14.019;14
15/08/17 02:00;DEZ2576;Eurdep;air;51.39;10.31;0;Germany;0;0;0;LEINEFELDE;10.491;11
15/08/17 02:00;DEZ2578;Eurdep;air;50.99;10.31;0;Germany;0;0;0;EISENACH;11.91;12
15/08/17 02:00;DEZ2580;Eurdep;air;51.11;10.64;0;Germany;0;0;0;BAD LANGENSALZA;10.662;11
15/08/17 02:00;DEZ2584;Eurdep;air;51.37;10.91;0;Germany;0;0;0;SONDERSHAUSEN;12.862;13
15/08/17 02:00;DEZ2588;Eurdep;air;50.79;10.61;0;Germany;0;0;0;TAMBACH - DIETHARZ;12.947999999999999;13
15/08/17 02:00;DEZ2590;Eurdep;air;50.28;10.72;0;Germany;0;0;0;BAD COLBERG;12.556999999999999;13
15/08/17 02:00;DEZ2592;Eurdep;air;50.56;10.96;0;Germany;0;0;0;ALTENFELD;14.233;14
15/08/17 02:00;DEZ2593;Eurdep;air;50.65;10.77;0;Germany;0;0;0;GEHLBERG;16;16
15/08/17 02:00;DEZ2594;Eurdep;air;50.68;10.89;0;Germany;0;0;0;ILMENAU;14.524000000000001;15
15/08/17 02:00;DEZ2596;Eurdep;air;50.39;11;0;Germany;0;0;0;SCHALKAU;12.414;12
15/08/17 02:00;DEZ2597;Eurdep;air;50.38;11.18;0;Germany;0;0;0;SONNEBERG - NEUFANG;9.614;9.959999999999999
15/08/17 02:00;DEZ2600;Eurdep;air;50.44;11.87;0;Germany;0;0;0;GEFELL;10.709999999999999;11
15/08/17 02:00;DEZ2601;Eurdep;air;50.71;11.57;0;Germany;0;0;0;PÖßNECK;9.49;9.75
15/08/17 02:00;DEZ2605;Eurdep;air;53.03;13.71;0;Germany;0;0;0;FRIEDRICHSWALDE;8.994;9.24
15/08/17 02:00;DEZ2609;Eurdep;air;52.38;13.53;0;Germany;0;0;0;SCHÖNEFELD;7;7
15/08/17 02:00;DEZ2611;Eurdep;air;52.64;14.19;0;Germany;0;0;0;ALTFRIEDLAND;7.115;7.37
15/08/17 02:00;DEZ2612;Eurdep;air;52.58;14.07;0;Germany;0;0;0;BUCKOW;7.606;7.85
15/08/17 02:00;DEZ2613;Eurdep;air;52.67;14.43;0;Germany;0;0;0;KIENITZ;8.119;8.540000000000001
15/08/17 02:00;DEZ2614;Eurdep;air;52.72;14.28;0;Germany;0;0;0;NEULEWIN;8.790000000000001;9.09
15/08/17 02:00;DEZ2620;Eurdep;air;53.07;13.09;0;Germany;0;0;0;GROßWOLTERSDORF;7.2090000000000005;7.609999999999999
15/08/17 02:00;DEZ2621;Eurdep;air;52.76;13.03;0;Germany;0;0;0;KREMMEN;7.276999999999999;7
15/08/17 02:00;DEZ2624;Eurdep;air;52.46;14.22;0;Germany;0;0;0;HEINERSDORF;7.2459999999999996;7.609999999999999
15/08/17 02:00;DEZ2627;Eurdep;air;52.07;14.75;0;Germany;0;0;0;RATZDORF;5.8740000000000006;6.05
15/08/17 02:00;DEZ2628;Eurdep;air;52.24;14.58;0;Germany;0;0;0;WIESENAU;6.912000000000001;7.12
15/08/17 02:00;DEZ2631;Eurdep;air;53.16;12.76;0;Germany;0;0;0;FLECKEN ZECHLIN;7.58;8.03
15/08/17 02:00;DEZ2633;Eurdep;air;52.97;12.99;0;Germany;0;0;0;LINDOW;6.706;7.0200000000000005
15/08/17 02:00;DEZ2634;Eurdep;air;52.91;12.59;0;Germany;0;0;0;LÖGOW;7.292;7.58
15/08/17 02:00;DEZ2635;Eurdep;air;53.04;12.86;0;Germany;0;0;0;SCHWANOW;7.183;7.45
15/08/17 02:00;DEZ2637;Eurdep;air;52.96;11.94;0;Germany;0;0;0;BAD WILSNACK;7.126;7.68
15/08/17 02:00;DEZ2641;Eurdep;air;51.94;14.69;0;Germany;0;0;0;GUBEN;8.495999999999999;9.01
15/08/17 02:00;DEZ2643;Eurdep;air;53.16;14.35;0;Germany;0;0;0;FRIEDRICHSTHAL;5.632;5.96
15/08/17 02:00;DEZ2645;Eurdep;air;53.37;13.7;0;Germany;0;0;0;WITTSTOCK;8.306999999999999;8.52
15/08/17 02:00;DEZ2646;Eurdep;air;52.99;14.14;0;Germany;0;0;0;STOLPE;6.872;7.19
14/08/17 23:00;DEZ2648;Eurdep;air;54.13;11.87;0;Germany;0;0;0;BAD DOBERAN;7.909999999999999;8.25
15/08/17 02:00;DEZ2650;Eurdep;air;54.25;12.25;0;Germany;0;0;0;GRAAL-MÜRITZ;8.16;8.32
15/08/17 01:00;DEZ2654;Eurdep;air;53.63;12.91;0;Germany;0;0;0;KITTENDORF;8.08;8.33
15/08/17 02:00;DEZ2655;Eurdep;air;53.85;12.77;0;Germany;0;0;0;SCHORRENTIN;8.106;8.41
15/08/17 02:00;DEZ2656;Eurdep;air;53.94;11.97;0;Germany;0;0;0;KLEIN BELITZ;7.865;8.15
15/08/17 02:00;DEZ2658;Eurdep;air;53.89;12.46;0;Germany;0;0;0;NEU HEINDE;7.731999999999999;8.07
15/08/17 02:00;DEZ2659;Eurdep;air;53.82;11.95;0;Germany;0;0;0;RÜHN;8.409;8.76
15/08/17 02:00;DEZ2661;Eurdep;air;53.56;11.27;0;Germany;0;0;0;WALSMÜHLEN;8.088;8.58
15/08/17 02:00;DEZ2663;Eurdep;air;53.44;11.49;0;Germany;0;0;0;FAHRBINDE;6.361;6.85
15/08/17 02:00;DEZ2664;Eurdep;air;53.17;11.29;0;Germany;0;0;0;NEU KALIß;6.418000000000001;6.609999999999999
15/08/17 02:00;DEZ2665;Eurdep;air;53.43;10.93;0;Germany;0;0;0;RODENWALDE;7.135;7.4799999999999995
15/08/17 02:00;DEZ2666;Eurdep;air;53.16;11.54;0;Germany;0;0;0;STEESOW;6.103;6.409999999999999
15/08/17 02:00;DEZ2669;Eurdep;air;53.46;13.58;0;Germany;0;0;0;WOLDEGK;9.698;10
15/08/17 02:00;DEZ2676;Eurdep;air;54.28;12.31;0;Germany;0;0;0;DIERHAGEN;5.481;5.68
15/08/17 02:00;DEZ2678;Eurdep;air;54.15;12.43;0;Germany;0;0;0;GRESENHORST;7.739;8.09
15/08/17 02:00;DEZ2680;Eurdep;air;54;11.44;0;Germany;0;0;0;KIRCHDORF / POEL;7.949;8.16
15/08/17 02:00;DEZ2681;Eurdep;air;54.3;12.73;0;Germany;0;0;0;LÖBNITZ;6.37;6.609999999999999
15/08/17 02:00;DEZ2682;Eurdep;air;54.21;12.82;0;Germany;0;0;0;MILLIENHAGEN;7.676;7.87
15/08/17 02:00;DEZ2683;Eurdep;air;54.2;13.19;0;Germany;0;0;0;REINKENHAGEN;7.925;8.14
15/08/17 02:00;DEZ2684;Eurdep;air;54.05;13.12;0;Germany;0;0;0;POGGENDORF;8.275;8.58
15/08/17 02:00;DEZ2687;Eurdep;air;53.76;10.93;0;Germany;0;0;0;CARLOW;7.898000000000001;8.23
15/08/17 02:00;DEZ2688;Eurdep;air;53.91;11.27;0;Germany;0;0;0;GROß WALMSTORF;7.175;7.4799999999999995
15/08/17 02:00;DEZ2689;Eurdep;air;53.97;11.04;0;Germany;0;0;0;KALKHORST;8.57;8.76
15/08/17 02:00;DEZ2690;Eurdep;air;53.95;11.59;0;Germany;0;0;0;NEUBURG;7.542;7.82
15/08/17 02:00;DEZ2691;Eurdep;air;53.86;10.93;0;Germany;0;0;0;SCHÖNBERG;8.894;9.36
15/08/17 02:00;DEZ2694;Eurdep;air;54.04;13.3;0;Germany;0;0;0;DERSEKOW;7.901000000000001;8.25
15/08/17 02:00;DEZ2695;Eurdep;air;53.83;13.44;0;Germany;0;0;0;KRIEN;9.286;9.52
15/08/17 02:00;DEZ2696;Eurdep;air;53.52;11.64;0;Germany;0;0;0;TRAMM;7.539;7
15/08/17 02:00;DEZ2706;Eurdep;air;50.38;12.13;0;Germany;0;0;0;TRIEBEL;11.381;11
15/08/17 02:00;DEZ2708;Eurdep;air;50.43;12.95;0;Germany;0;0;0;OBERWIESENTHAL;13.605;13
15/08/17 02:00;DEZ2710;Eurdep;air;51.54;12.34;0;Germany;0;0;0;DELITZSCH;9.509;9.74
15/08/17 02:00;DEZ2712;Eurdep;air;51.31;12.52;0;Germany;0;0;0;ENGELSDORF OT KLEINPÖSNA;9.66;9.940000000000001
15/08/17 02:00;DEZ2713;Eurdep;air;51.22;12.32;0;Germany;0;0;0;ZWENKAU;10.076;10
14/08/17 08:00;DEZ2714;Eurdep;air;51.06;13.27;0;Germany;0;0;0;NOSSEN;10;10
15/08/17 02:00;DEZ2715;Eurdep;air;50.61;13.46;0;Germany;0;0;0;DEUTSCHNEUDORF;11.838;12
15/08/17 02:00;DEZ2716;Eurdep;air;50.56;13.22;0;Germany;0;0;0;REITZENHAIN;12.809999999999999;13
15/08/17 02:00;DEZ2717;Eurdep;air;50.6;13.3;0;Germany;0;0;0;RÜBENAU;10.767;11
15/08/17 02:00;DEZ2721;Eurdep;air;51.26;15.03;0;Germany;0;0;0;DESCHKA;10.015;10
15/08/17 02:00;DEZ2722;Eurdep;air;51.12;14.81;0;Germany;0;0;0;REICHENBACH/O.L.;8.828;9.059999999999999
15/08/17 02:00;DEZ2728;Eurdep;air;50.44;12.59;0;Germany;0;0;0;CARLSFELD;11.229000000000001;12
15/08/17 02:00;DEZ2732;Eurdep;air;52.12;12.09;0;Germany;0;0;0;LOBURG;6.654999999999999;6.959999999999999
15/08/17 02:00;DEZ2734;Eurdep;air;51.72;12.62;0;Germany;0;0;0;ATERITZ;7.077;7.43
15/08/17 02:00;DEZ2736;Eurdep;air;51.28;11.64;0;Germany;0;0;0;KARSDORF;10.681000000000001;10
15/08/17 02:00;DEZ2737;Eurdep;air;51.09;11.93;0;Germany;0;0;0;OSTERFELD;8.959;9.17
15/08/17 02:00;DEZ2739;Eurdep;air;51.3;11.79;0;Germany;0;0;0;MÜCHELN;9.131;9.48
15/08/17 02:00;DEZ2740;Eurdep;air;51.28;12.1;0;Germany;0;0;0;TOLLWITZ;9.058;9.47
15/08/17 02:00;DEZ2741;Eurdep;air;51.44;12.04;0;Germany;0;0;0;DIESKAU;9.018;9
15/08/17 01:00;DEZ2745;Eurdep;air;51.23;11.88;0;Germany;0;0;0;PETTSTÄDT;9.714;9.95
15/08/17 02:00;DEZ2748;Eurdep;air;52.07;11.37;0;Germany;0;0;0;KLEIN WANZLEBEN;10.269;10
15/08/17 02:00;DEZ2750;Eurdep;air;52.17;11.07;0;Germany;0;0;0;SOMMERSDORF;9.193000000000001;9.58
15/08/17 02:00;DEZ2752;Eurdep;air;52.32;11.15;0;Germany;0;0;0;BEHNSDORF;6.859999999999999;7.220000000000001
15/08/17 02:00;DEZ2758;Eurdep;air;52.99;11.67;0;Germany;0;0;0;WAHRENBERG;7.287999999999999;7.55
15/08/17 02:00;DEZ2759;Eurdep;air;51.74;11.23;0;Germany;0;0;0;BALLENSTEDT;9.344;9.91
15/08/17 02:00;DEZ2760;Eurdep;air;51.65;11.14;0;Germany;0;0;0;HARZGERODE;9.783;10
15/08/17 02:00;DEZ2762;Eurdep;air;51.69;10.85;0;Germany;0;0;0;HASSELFELDE;9.788;10
15/08/17 02:00;DEZ2764;Eurdep;air;52.51;11.18;0;Germany;0;0;0;PECKFITZ;7.321;7.45
15/08/17 02:00;DEZ2765;Eurdep;air;52.71;11.05;0;Germany;0;0;0;ROHRBERG;7.267;7
15/08/17 02:00;DEZ2766;Eurdep;air;52.43;11.4;0;Germany;0;0;0;ROXFÖRDE;6.43;6.63
15/08/17 02:00;DEZ2767;Eurdep;air;52.74;11.24;0;Germany;0;0;0;WINTERFELD;6.984;7.2700000000000005
15/08/17 02:00;DEZ2771;Eurdep;air;51.44;10.57;0;Germany;0;0;0;BLEICHERODE;11.695;11
15/08/17 02:00;DEZ2772;Eurdep;air;50.76;10.08;0;Germany;0;0;0;GEHAUS;9.931999999999999;10
15/08/17 02:00;DEZ2776;Eurdep;air;50.72;10.45;0;Germany;0;0;0;SCHMALKALDEN;13.686000000000002;14
15/08/17 02:00;DEZ2779;Eurdep;air;50.41;10.73;0;Germany;0;0;0;HILDBURGHAUSEN;9.831;10
15/08/17 02:00;DEZ2782;Eurdep;air;50.78;11.39;0;Germany;0;0;0;NEUSITZ;11.914;12
15/08/17 02:00;DEZ2783;Eurdep;air;50.66;11.1;0;Germany;0;0;0;KÖNIGSEE;10.99;11
15/08/17 02:00;DEZ2785;Eurdep;air;50.86;11.87;0;Germany;0;0;0;REICHENBACH;9.213;9.65
15/08/17 02:00;DEZ2786;Eurdep;air;50.46;11.53;0;Germany;0;0;0;WURZBACH;13.086000000000002;13
15/08/17 02:00;DEZ2789;Eurdep;air;54.11;8.94;0;Germany;0;0;0;NORDERMELDORF;6.686;6.909999999999999
15/08/17 02:00;DEZ2790;Eurdep;air;53.73;10.72;0;Germany;0;0;0;KLEIN DISNACK;8.179;8.49
15/08/17 02:00;DEZ2791;Eurdep;air;54.43;9.2;0;Germany;0;0;0;WINNERT;6.6450000000000005;6.95
15/08/17 02:00;DEZ2792;Eurdep;air;54.81;8.71;0;Germany;0;0;0;EMMELSBÜLL;7.973999999999999;8.35
15/08/17 02:00;DEZ2793;Eurdep;air;54.21;9.92;0;Germany;0;0;0;LANGWEDEL;7.449;7.74
15/08/17 02:00;DEZ2794;Eurdep;air;54.13;9.56;0;Germany;0;0;0;TODENBÜTTEL;7.215000000000001;7.470000000000001
15/08/17 02:00;DEZ2795;Eurdep;air;54.44;9.43;0;Germany;0;0;0;GROß RHEIDE;6.525;6.76
15/08/17 02:00;DEZ2797;Eurdep;air;53.97;9.97;0;Germany;0;0;0;GROßENASPE;6.547;6.82
15/08/17 02:00;DEZ2798;Eurdep;air;54.04;10.22;0;Germany;0;0;0;TRAPPENKAMP;7.281000000000001;7.540000000000001
15/08/17 02:00;DEZ2799;Eurdep;air;52.15;10.33;0;Germany;0;0;0;SALZGITTER-LEBENSTEDT;9.533;9.83
15/08/17 02:00;DEZ2804;Eurdep;air;53.25;8.82;0;Germany;0;0;0;OSTERH.-SCHARMB. OT PENNIGBÜTTEL;6.029;6.279999999999999
15/08/17 02:00;DEZ2805;Eurdep;air;53.46;7.83;0;Germany;0;0;0;FRIEDEBURG;5.5840000000000005;5.970000000000001
15/08/17 02:00;DEZ2806;Eurdep;air;53.05;8.8;0;Germany;0;0;0;BREMEN-NEUENLANDE;6.991;7.209999999999999
15/08/17 02:00;DEZ2807;Eurdep;air;50.8;6.4;0;Germany;0;0;0;LANGERWEHE-SCHLICH;9.571;9.89
15/08/17 02:00;DEZ2808;Eurdep;air;50.97;6.28;0;Germany;0;0;0;LINNICH;9.446;9.790000000000001
15/08/17 02:00;DEZ2809;Eurdep;air;50.87;6.47;0;Germany;0;0;0;NIEDERZIER;8.905;9.26
15/08/17 02:00;DEZ2810;Eurdep;air;50.91;6.68;0;Germany;0;0;0;KERPEN-SINDORF;9.595;10
15/08/17 02:00;DEZ2812;Eurdep;air;50.96;7.55;0;Germany;0;0;0;WIEHL;10.329;10
15/08/17 02:00;DEZ2813;Eurdep;air;52.04;7.1;0;Germany;0;0;0;LEGDEN;6.506;6
15/08/17 02:00;DEZ2814;Eurdep;air;52.1;7.23;0;Germany;0;0;0;SCHÖPPINGEN;6.493;6.790000000000001
15/08/17 02:00;DEZ2816;Eurdep;air;52.32;7.79;0;Germany;0;0;0;METTINGEN;7.7780000000000005;8.16
15/08/17 02:00;DEZ2818;Eurdep;air;51.24;7.64;0;Germany;0;0;0;LÜDENSCHEID;9.965;10
15/08/17 02:00;DEZ2819;Eurdep;air;51.29;7.8;0;Germany;0;0;0;NEUENRADE;10.219;10
15/08/17 02:00;DEZ2820;Eurdep;air;49.56;9.02;0;Germany;0;0;0;SENSBACHTAL;8.883;9.15
15/08/17 02:00;DEZ2821;Eurdep;air;47.96;7.8;0;Germany;0;0;0;EBRINGEN;11.052;11
15/08/17 02:00;DEZ2823;Eurdep;air;48.5;10.17;0;Germany;0;0;0;LANGENAU;8.962;9.440000000000001
15/08/17 02:00;DEZ2832;Eurdep;air;47.8;11.02;0;Germany;0;0;0;HOHENPEIßENBERG;8.679;8.91
