date;id_station;id_network;type;latitude;longitude;altitude;country;area_adm_1;area_adm_2;area_adm_3;name;value;value_max
22/08/17 14:00;DEZ0001;Eurdep;air;54.78;9.38;0;Germany;0;0;0;FLENSBURG;7.191;7.609999999999999
22/08/17 14:00;DEZ0005;Eurdep;air;54.02;9.05;0;Germany;0;0;0;BARLT;7.634;8.05
22/08/17 14:00;DEZ0008;Eurdep;air;54.17;9.33;0;Germany;0;0;0;BUNSOH;6.401000000000001;6.62
22/08/17 14:00;DEZ0012;Eurdep;air;54.19;9.15;0;Germany;0;0;0;HEIDE;6.295;6.45
22/08/17 14:00;DEZ0013;Eurdep;air;54.35;9.02;0;Germany;0;0;0;LEHE;6.840999999999999;7.08
22/08/17 14:00;DEZ0017;Eurdep;air;54.21;8.92;0;Germany;0;0;0;WESSELBUREN;7.13;7.33
22/08/17 14:00;DEZ0032;Eurdep;air;53.39;10.49;0;Germany;0;0;0;SCHNAKENBEK;6.997;7.18
22/08/17 14:00;DEZ0034;Eurdep;air;53.44;10.45;0;Germany;0;0;0;WIERSHOP;8.312999999999999;8.559999999999999
22/08/17 14:00;DEZ0038;Eurdep;air;54.77;8.29;0;Germany;0;0;0;HÃ–RNUM / SYLT;4.753;5.0200000000000005
22/08/17 14:00;DEZ0044;Eurdep;air;54.65;8.35;0;Germany;0;0;0;NEBEL / AMRUM;6.006;6.1899999999999995
22/08/17 14:00;DEZ0048;Eurdep;air;54.52;8.67;0;Germany;0;0;0;PELLWORM;7.837000000000001;8
