date;id_station;id_network;type;latitude;longitude;altitude;country;area_adm_1;area_adm_2;area_adm_3;name;value;value_max
12/04/17 12:00;DEZ0001;Eurdep;air;54.78;9.38;0;Germany;0;0;0;FLENSBURG;7.586;7.779999999999999
12/04/17 12:00;DEZ0005;Eurdep;air;54.02;9.05;0;Germany;0;0;0;BARLT;8.05;8.49
12/04/17 12:00;DEZ0008;Eurdep;air;54.17;9.33;0;Germany;0;0;0;BUNSOH;6.854000000000001;7
12/04/17 12:00;DEZ0012;Eurdep;air;54.19;9.15;0;Germany;0;0;0;HEIDE;6.751;7.140000000000001
12/04/17 12:00;DEZ0013;Eurdep;air;54.35;9.02;0;Germany;0;0;0;LEHE;7.148999999999999;7.44
12/04/17 12:00;DEZ0017;Eurdep;air;54.21;8.92;0;Germany;0;0;0;WESSELBUREN;7.202;7.37
12/04/17 12:00;DEZ0032;Eurdep;air;53.39;10.49;0;Germany;0;0;0;SCHNAKENBEK;7.051;7.529999999999999
12/04/17 12:00;DEZ0034;Eurdep;air;53.44;10.45;0;Germany;0;0;0;WIERSHOP;8.494;8.78
12/04/17 12:00;DEZ0038;Eurdep;air;54.77;8.29;0;Germany;0;0;0;HÖRNUM / SYLT;4.979;5.32
12/04/17 12:00;DEZ0044;Eurdep;air;54.65;8.35;0;Germany;0;0;0;NEBEL / AMRUM;6;6.75
09/04/17 22:00;DEZ0048;Eurdep;air;54.52;8.67;0;Germany;0;0;0;PELLWORM;0;0
12/04/17 11:00;DEZ0055;Eurdep;air;54.86;9.01;0;Germany;0;0;0;WESTRE;6.279999999999999;6.459999999999999
12/04/17 12:00;DEZ0057;Eurdep;air;54.5;11.24;0;Germany;0;0;0;MARIENLEUCHTE / FEHMARN;8.737;9.16
12/04/17 12:00;DEZ0059;Eurdep;air;54.2;11.09;0;Germany;0;0;0;DAHME;7.937;8.27
12/04/17 12:00;DEZ0060;Eurdep;air;54.15;10.6;0;Germany;0;0;0;EUTIN;7.909000000000001;8.23
12/04/17 12:00;DEZ0062;Eurdep;air;54.38;10.95;0;Germany;0;0;0;HEILIGENHAFEN;8.349;8.709999999999999
12/04/17 12:00;DEZ0068;Eurdep;air;53.9;10.66;0;Germany;0;0;0;STOCKELSDORF;7.145999999999999;7.540000000000001
12/04/17 12:00;DEZ0072;Eurdep;air;53.86;9.74;0;Germany;0;0;0;BOKEL;6.352;6.76
12/04/17 13:00;DEZ0074;Eurdep;air;54.17;7.89;0;Germany;0;0;0;HELGOLAND / UNTERLAND;7.756;8.16
02/04/17 22:00;DEZ0077;Eurdep;air;54.37;10.21;0;Germany;0;0;0;HEIKENDORF;0;0
12/04/17 12:00;DEZ0080;Eurdep;air;54.3;10.23;0;Germany;0;0;0;KLAUSDORF;7.632;8.040000000000001
12/04/17 12:00;DEZ0082;Eurdep;air;54.18;10.2;0;Germany;0;0;0;NETTELSEE;7.1739999999999995;7.459999999999999
12/04/17 12:00;DEZ0083;Eurdep;air;54.16;10.45;0;Germany;0;0;0;PLÖN;8.042;8.51
12/04/17 12:00;DEZ0086;Eurdep;air;54.29;10.42;0;Germany;0;0;0;SELENT;8.209;8.459999999999999
12/04/17 12:00;DEZ0087;Eurdep;air;54.44;9.7;0;Germany;0;0;0;ASCHEFFEL;7.937;8.18
12/04/17 12:00;DEZ0091;Eurdep;air;54.47;9.87;0;Germany;0;0;0;ECKERNFÖRDE;7.05;7.279999999999999
12/04/17 12:00;DEZ0092;Eurdep;air;54.4;9.97;0;Germany;0;0;0;GETTORF;7.726999999999999;8.09
11/04/17 21:00;DEZ0095;Eurdep;air;54.21;9.71;0;Germany;0;0;0;JEVENSTEDT-OT NIENKATTBEK;5;5
12/04/17 12:00;DEZ0097;Eurdep;air;54.27;10.08;0;Germany;0;0;0;MOLFSEE;8.769;8.98
12/04/17 12:00;DEZ0102;Eurdep;air;54.08;9.9;0;Germany;0;0;0;WASBEK;6.4030000000000005;6.67
12/04/17 12:00;DEZ0104;Eurdep;air;54.31;9.3;0;Germany;0;0;0;ERFDE;7.409000000000001;7.69
12/04/17 12:00;DEZ0107;Eurdep;air;54.65;9.94;0;Germany;0;0;0;KAPPELN;7.536;7.720000000000001
12/04/17 13:00;DEZ0111;Eurdep;air;54.53;9.55;0;Germany;0;0;0;SCHLESWIG;8.248000000000001;8.58
12/04/17 12:00;DEZ0112;Eurdep;air;54.64;9.76;0;Germany;0;0;0;SÜDERBRARUP;8.329;8.66
12/04/17 12:00;DEZ0116;Eurdep;air;54.83;9.55;0;Germany;0;0;0;GLÜCKSBURG;7.926;8.14
12/04/17 12:00;DEZ0119;Eurdep;air;54.73;9.74;0;Germany;0;0;0;STERUP;8.501999999999999;8.76
12/04/17 12:00;DEZ0123;Eurdep;air;53.91;10.17;0;Germany;0;0;0;BARK;8.137;8.36
12/04/17 12:00;DEZ0128;Eurdep;air;53.88;9.98;0;Germany;0;0;0;SCHMALFELD;5.827;6.09
12/04/17 06:00;DEZ0131;Eurdep;air;53.79;10.08;0;Germany;0;0;0;WAKENDORF II;7.26;7
12/04/17 12:00;DEZ0136;Eurdep;air;53.78;9.61;0;Germany;0;0;0;KIEBITZREIHE;5.763;6.16
12/04/17 13:00;DEZ0137;Eurdep;air;53.84;9.49;0;Germany;0;0;0;KREMPE;8.231;8.64
12/04/17 12:00;DEZ0139;Eurdep;air;53.94;9.4;0;Germany;0;0;0;MOORHUSEN;7.641;7.87
12/04/17 13:00;DEZ0140;Eurdep;air;53.92;9.58;0;Germany;0;0;0;OELIXDORF;7.0040000000000004;7
12/04/17 12:00;DEZ0141;Eurdep;air;53.88;9.26;0;Germany;0;0;0;ST. MARGARETHEN;7.840999999999999;8
12/04/17 12:00;DEZ0145;Eurdep;air;53.61;10.24;0;Germany;0;0;0;BRAAK;8.217;8.55
12/04/17 12:00;DEZ0147;Eurdep;air;53.81;10.44;0;Germany;0;0;0;MEDDEWADE;8.719;9.040000000000001
12/04/17 12:00;DEZ0151;Eurdep;air;53.53;10.14;0;Germany;0;0;0;HAMBURG-BILLSTEDT;7.197;7.459999999999999
12/04/17 13:00;DEZ0156;Eurdep;air;53.58;10.11;0;Germany;0;0;0;HAMBURG-JENFELD;8.227;8.83
12/04/17 13:00;DEZ0157;Eurdep;air;53.65;10.11;0;Germany;0;0;0;HAMBURG-SASEL;6.9719999999999995;7.209999999999999
12/04/17 12:00;DEZ0158;Eurdep;air;53.47;10.19;0;Germany;0;0;0;HAMBURG-NETTELNBURG;8.402;8.709999999999999
12/04/17 12:00;DEZ0167;Eurdep;air;52.13;10.29;0;Germany;0;0;0;SALZGITTER-LICHTENBERG;8.827;9.26
12/04/17 12:00;DEZ0169;Eurdep;air;52.47;10.53;0;Germany;0;0;0;GIFHORN;6.865;7.19
11/04/17 21:00;DEZ0170;Eurdep;air;52.65;10.46;0;Germany;0;0;0;GROß OESINGEN;5.58;5.58
12/04/17 08:00;DEZ0172;Eurdep;air;52.38;10.53;0;Germany;0;0;0;MEINE;7.715999999999999;7.93
12/04/17 12:00;DEZ0173;Eurdep;air;52.48;10.36;0;Germany;0;0;0;MEINERSEN;7.289;7.65
12/04/17 12:00;DEZ0175;Eurdep;air;52.77;10.45;0;Germany;0;0;0;SPRAKENSEHL OT HAGEN;6.233;6.44
12/04/17 04:00;DEZ0176;Eurdep;air;52.62;10.59;0;Germany;0;0;0;WAHRENHOLZ;6.7989999999999995;6.85
12/04/17 11:00;DEZ0177;Eurdep;air;52.73;10.73;0;Germany;0;0;0;WITTINGEN;7.286;7.470000000000001
11/04/17 21:00;DEZ0178;Eurdep;air;52.62;10.81;0;Germany;0;0;0;WITTINGEN-BOITZENHAGEN;6.14;6.14
12/04/17 12:00;DEZ0180;Eurdep;air;51.5;9.76;0;Germany;0;0;0;DRANSFELD;10.859;11
12/04/17 12:00;DEZ0182;Eurdep;air;51.44;9.93;0;Germany;0;0;0;FRIEDLAND-GROß SCHNEEN;10.933;11
12/04/17 12:00;DEZ0183;Eurdep;air;51.61;10.21;0;Germany;0;0;0;GIEBOLDEHAUSEN;11.562999999999999;11
12/04/17 12:00;DEZ0185;Eurdep;air;51.48;10.11;0;Germany;0;0;0;RITTMARSHAUSEN;9.993;10
12/04/17 12:00;DEZ0186;Eurdep;air;51.52;9.93;0;Germany;0;0;0;GÖTTINGEN;9.157;9.45
12/04/17 12:00;DEZ0188;Eurdep;air;51.56;10.06;0;Germany;0;0;0;WAAKE;12.615;13
11/04/17 21:00;DEZ0189;Eurdep;air;51.81;10.54;0;Germany;0;0;0;TORFHAUS;9.690000000000001;9.690000000000001
12/04/17 13:00;DEZ0191;Eurdep;air;51.72;10.6;0;Germany;0;0;0;BRAUNLAGE;10.183;10
12/04/17 12:00;DEZ0195;Eurdep;air;52.02;10.44;0;Germany;0;0;0;LIEBENBURG;9.366;9.690000000000001
11/04/17 21:00;DEZ0197;Eurdep;air;51.95;10.54;0;Germany;0;0;0;VIENENBURG;9.68;9.68
12/04/17 12:00;DEZ0201;Eurdep;air;52.25;10.81;0;Germany;0;0;0;KÖNIGSLUTTER;6.63;6.83
12/04/17 12:00;DEZ0205;Eurdep;air;51.88;10;0;Germany;0;0;0;BAD GANDERSHEIM;10.370000000000001;10
12/04/17 12:00;DEZ0208;Eurdep;air;51.79;10.06;0;Germany;0;0;0;ECHTE;9.949;10
12/04/17 12:00;DEZ0209;Eurdep;air;51.68;10.1;0;Germany;0;0;0;KATLENBURG-LINDAU;10.053;10
11/04/17 21:00;DEZ0210;Eurdep;air;51.73;9.79;0;Germany;0;0;0;FREDELSLOH;10;10
11/04/17 21:00;DEZ0212;Eurdep;air;51.62;9.66;0;Germany;0;0;0;USLAR OT SCHONINGEN;9.49;9.49
12/04/17 12:00;DEZ0213;Eurdep;air;51.63;10.47;0;Germany;0;0;0;BAD LAUTERBERG IM HARZ;10.922;11
12/04/17 12:00;DEZ0215;Eurdep;air;51.75;10.21;0;Germany;0;0;0;OSTERODE AM HARZ;9.497;10
12/04/17 12:00;DEZ0216;Eurdep;air;51.58;10.61;0;Germany;0;0;0;WALKENRIED;9.765;10
12/04/17 12:00;DEZ0218;Eurdep;air;52.27;10.23;0;Germany;0;0;0;GROSS ILSEDE;10.463;10
12/04/17 12:00;DEZ0220;Eurdep;air;52.32;10.24;0;Germany;0;0;0;PEINE;7.781000000000001;8.059999999999999
11/04/17 21:00;DEZ0222;Eurdep;air;52.32;10.39;0;Germany;0;0;0;WENDEBURG;7.75;7.75
12/04/17 12:00;DEZ0225;Eurdep;air;52.04;10.6;0;Germany;0;0;0;HORNBURG;10.663;11
11/04/17 21:00;DEZ0227;Eurdep;air;52.04;10.26;0;Germany;0;0;0;SEHLDE;9.129999999999999;9.129999999999999
12/04/17 12:00;DEZ0235;Eurdep;air;52.72;8.53;0;Germany;0;0;0;BARNSTORF;6.256;6.529999999999999
12/04/17 12:00;DEZ0236;Eurdep;air;52.85;8.73;0;Germany;0;0;0;BASSUM;7.019;7.49
12/04/17 12:00;DEZ0238;Eurdep;air;52.74;8.7;0;Germany;0;0;0;EHRENBURG;7.539;7.840000000000001
12/04/17 12:00;DEZ0239;Eurdep;air;52.62;8.65;0;Germany;0;0;0;FREISTATT;6.668000000000001;6.840000000000001
12/04/17 12:00;DEZ0240;Eurdep;air;52.59;8.84;0;Germany;0;0;0;KIRCHDORF;6.884;7
12/04/17 12:00;DEZ0242;Eurdep;air;52.88;9.06;0;Germany;0;0;0;MARTFELD;6.479000000000001;6
12/04/17 12:00;DEZ0244;Eurdep;air;52.79;8.84;0;Germany;0;0;0;SCHWAFÖRDEN-SUDWALDE;8.273;8.440000000000001
12/04/17 12:00;DEZ0245;Eurdep;air;52.69;8.82;0;Germany;0;0;0;SULINGEN;6.183;6.529999999999999
12/04/17 12:00;DEZ0246;Eurdep;air;52.93;8.82;0;Germany;0;0;0;SYKE-BARRIEN;7.2170000000000005;7.4799999999999995
12/04/17 00:00;DEZ0248;Eurdep;air;52.06;9.33;0;Germany;0;0;0;AERZEN/GR.BERKEL;9.206999999999999;9.440000000000001
12/04/17 12:00;DEZ0250;Eurdep;air;51.97;9.3;0;Germany;0;0;0;BAD PYRMONT;8.951;9.15
12/04/17 12:00;DEZ0251;Eurdep;air;52.11;9.55;0;Germany;0;0;0;COPPENBRÜGGE;9.125;9.559999999999999
12/04/17 12:00;DEZ0253;Eurdep;air;52.15;9.39;0;Germany;0;0;0;UNSEN - HAMELN;8.716;9.18
12/04/17 12:00;DEZ0254;Eurdep;air;52.17;9.24;0;Germany;0;0;0;HESSISCH-OLDENDORF;8.826;9.18
12/04/17 12:00;DEZ0255;Eurdep;air;52.07;9.58;0;Germany;0;0;0;SALZHEMMENDORF;8.857;9.17
12/04/17 12:00;DEZ0256;Eurdep;air;52.45;10;0;Germany;0;0;0;BURGDORF;7.686;7.970000000000001
12/04/17 12:00;DEZ0258;Eurdep;air;52.46;9.6;0;Germany;0;0;0;OSTERWALD/STADT GARBSEN;6.7219999999999995;7.07
12/04/17 12:00;DEZ0259;Eurdep;air;52.3;9.6;0;Germany;0;0;0;GEHRDEN;8.508;8.709999999999999
11/04/17 21:00;DEZ0262;Eurdep;air;52.37;9.97;0;Germany;0;0;0;LEHRTE;7;7
11/04/17 21:00;DEZ0271;Eurdep;air;52.42;9.43;0;Germany;0;0;0;WUNSTORF;7.63;7.63
11/04/17 21:00;DEZ0272;Eurdep;air;51.95;9.84;0;Germany;0;0;0;ALFELD-WISPENSTEIN;8.620000000000001;8.620000000000001
12/04/17 12:00;DEZ0274;Eurdep;air;52.13;9.73;0;Germany;0;0;0;ELZE;9.748999999999999;10
12/04/17 12:00;DEZ0278;Eurdep;air;52.15;10.09;0;Germany;0;0;0;OTTBERGEN;8.498999999999999;9.01
11/04/17 21:00;DEZ0279;Eurdep;air;52.05;9.9;0;Germany;0;0;0;SIBBESSE;10;10
12/04/17 12:00;DEZ0281;Eurdep;air;52.01;9.7;0;Germany;0;0;0;DUINGEN;8.975;9.28
12/04/17 12:00;DEZ0284;Eurdep;air;51.84;9.44;0;Germany;0;0;0;HOLZMINDEN;9.587;9.809999999999999
12/04/17 12:00;DEZ0285;Eurdep;air;51.75;9.52;0;Germany;0;0;0;NEUHAUS - HOLZMINDEN;9.427;9.690000000000001
12/04/17 08:00;DEZ0286;Eurdep;air;51.95;9.41;0;Germany;0;0;0;OTTENSTEIN;9.498999999999999;9.77
12/04/17 12:00;DEZ0287;Eurdep;air;51.89;9.63;0;Germany;0;0;0;STADTOLDENDORF;8.715;8.95
12/04/17 12:00;DEZ0290;Eurdep;air;52.6;9.09;0;Germany;0;0;0;LIEBENAU;6.634;6.76
12/04/17 12:00;DEZ0292;Eurdep;air;52.47;9.23;0;Germany;0;0;0;REHBURG-LOCCUM;7.624;7.959999999999999
12/04/17 12:00;DEZ0297;Eurdep;air;52.23;9.24;0;Germany;0;0;0;REHREN-AUETAL;8.578;8.86
11/04/17 21:00;DEZ0298;Eurdep;air;52.26;9.03;0;Germany;0;0;0;BÜCKEBURG;7;7
12/04/17 12:00;DEZ0302;Eurdep;air;52.61;10.29;0;Germany;0;0;0;AHNSBECK;7.862;8.03
12/04/17 12:00;DEZ0303;Eurdep;air;52.82;9.97;0;Germany;0;0;0;BERGEN;7.419;7.62
12/04/17 12:00;DEZ0305;Eurdep;air;52.74;10.24;0;Germany;0;0;0;ESCHEDE;6.7379999999999995;6.9799999999999995
12/04/17 12:00;DEZ0309;Eurdep;air;52.65;9.86;0;Germany;0;0;0;WIETZE;6.316;6.55
12/04/17 12:00;DEZ0310;Eurdep;air;52.73;9.85;0;Germany;0;0;0;MEIßENDORF;6.191;6.38
12/04/17 12:00;DEZ0317;Eurdep;air;53.69;8.56;0;Germany;0;0;0;DORUM;8.277;8.55
12/04/17 12:00;DEZ0320;Eurdep;air;53.63;9.1;0;Germany;0;0;0;LAMSTEDT;7.006;7.37
12/04/17 12:00;DEZ0321;Eurdep;air;53.45;8.63;0;Germany;0;0;0;LOXSTEDT-NESSE;6.7219999999999995;7
12/04/17 12:00;DEZ0324;Eurdep;air;53.81;8.9;0;Germany;0;0;0;OTTERNDORF;8.017;8.28
12/04/17 12:00;DEZ0325;Eurdep;air;53.51;8.81;0;Germany;0;0;0;WEHDEL;6.726999999999999;7.18
14/03/17 23:00;DEZ0326;Eurdep;air;53.74;8.8;0;Germany;0;0;0;WANNA;0;0
12/04/17 12:00;DEZ0327;Eurdep;air;53.64;8.57;0;Germany;0;0;0;WREMEN;8.239;8.51
12/04/17 12:00;DEZ0328;Eurdep;air;53.3;10.05;0;Germany;0;0;0;HANSTEDT/BRACKEL;7.304;7.779999999999999
12/04/17 12:00;DEZ0330;Eurdep;air;53.43;10.31;0;Germany;0;0;0;DRAGE;7.454000000000001;7.859999999999999
12/04/17 12:00;DEZ0331;Eurdep;air;53.25;9.83;0;Germany;0;0;0;HANDELOH;7.304;7.88
12/04/17 12:00;DEZ0332;Eurdep;air;53.2;10.05;0;Germany;0;0;0;EGESTORF-SG HANSTEDT;6.357;6.65
12/04/17 12:00;DEZ0335;Eurdep;air;53.4;10.41;0;Germany;0;0;0;TESPE;7.142;7.35
12/04/17 12:00;DEZ0336;Eurdep;air;53.36;10.2;0;Germany;0;0;0;WINSEN (LUHE);7.321;7
12/04/17 12:00;DEZ0341;Eurdep;air;53.14;11.04;0;Germany;0;0;0;HITZACKER;8.59;8.809999999999999
12/04/17 06:00;DEZ0342;Eurdep;air;53.07;11.44;0;Germany;0;0;0;HÖHBECK;6.1899999999999995;6.409999999999999
12/04/17 12:00;DEZ0343;Eurdep;air;52.98;11.07;0;Germany;0;0;0;KÜSTEN;7.143000000000001;7.659999999999999
12/04/17 12:00;DEZ0344;Eurdep;air;52.92;11.28;0;Germany;0;0;0;SCHWESKAU;6.959999999999999;7.26
