date;id_station;id_network;type;latitude;longitude;altitude;country;area_adm_1;area_adm_2;area_adm_3;name;value;value_max
29/05/17 00:00;DEZ0001;Eurdep;air;54.78;9.38;0;Germany;0;0;0;FLENSBURG;7.401999999999999;7.859999999999999
29/05/17 00:00;DEZ0005;Eurdep;air;54.02;9.05;0;Germany;0;0;0;BARLT;8.178;8.440000000000001
26/05/17 22:00;DEZ0008;Eurdep;air;54.17;9.33;0;Germany;0;0;0;BUNSOH;0;0
29/05/17 00:00;DEZ0012;Eurdep;air;54.19;9.15;0;Germany;0;0;0;HEIDE;6.656000000000001;7
29/05/17 00:00;DEZ0013;Eurdep;air;54.35;9.02;0;Germany;0;0;0;LEHE;7.161;7.55
29/05/17 00:00;DEZ0017;Eurdep;air;54.21;8.92;0;Germany;0;0;0;WESSELBUREN;7.43;7.68
29/05/17 00:00;DEZ0032;Eurdep;air;53.39;10.49;0;Germany;0;0;0;SCHNAKENBEK;7.308;7.51
29/05/17 00:00;DEZ0034;Eurdep;air;53.44;10.45;0;Germany;0;0;0;WIERSHOP;8.623000000000001;8.98
29/05/17 00:00;DEZ0038;Eurdep;air;54.77;8.29;0;Germany;0;0;0;HÖRNUM / SYLT;4.993;5.26
29/05/17 00:00;DEZ0044;Eurdep;air;54.65;8.35;0;Germany;0;0;0;NEBEL / AMRUM;6.267;6.4799999999999995
29/05/17 00:00;DEZ0048;Eurdep;air;54.52;8.67;0;Germany;0;0;0;PELLWORM;8.454;8.68
28/05/17 23:00;DEZ0055;Eurdep;air;54.86;9.01;0;Germany;0;0;0;WESTRE;6.273;6
29/05/17 00:00;DEZ0057;Eurdep;air;54.5;11.24;0;Germany;0;0;0;MARIENLEUCHTE / FEHMARN;8.795;9.08
29/05/17 00:00;DEZ0059;Eurdep;air;54.2;11.09;0;Germany;0;0;0;DAHME;7.804;8.120000000000001
29/05/17 00:00;DEZ0060;Eurdep;air;54.15;10.6;0;Germany;0;0;0;EUTIN;7.955;8.27
29/05/17 00:00;DEZ0062;Eurdep;air;54.38;10.95;0;Germany;0;0;0;HEILIGENHAFEN;8.395999999999999;8.629999999999999
29/05/17 00:00;DEZ0068;Eurdep;air;53.9;10.66;0;Germany;0;0;0;STOCKELSDORF;7.011;7.2700000000000005
29/05/17 00:00;DEZ0072;Eurdep;air;53.86;9.74;0;Germany;0;0;0;BOKEL;6.3950000000000005;6.959999999999999
29/05/17 00:00;DEZ0074;Eurdep;air;54.17;7.89;0;Germany;0;0;0;HELGOLAND / UNTERLAND;7.890000000000001;8.25
29/05/17 00:00;DEZ0080;Eurdep;air;54.3;10.23;0;Germany;0;0;0;KLAUSDORF;7.573;7
29/05/17 00:00;DEZ0082;Eurdep;air;54.18;10.2;0;Germany;0;0;0;NETTELSEE;7.093999999999999;7.529999999999999
29/05/17 00:00;DEZ0083;Eurdep;air;54.16;10.45;0;Germany;0;0;0;PLÖN;7.941;8.22
29/05/17 00:00;DEZ0086;Eurdep;air;54.29;10.42;0;Germany;0;0;0;SELENT;8.195;8.42
29/05/17 00:00;DEZ0087;Eurdep;air;54.44;9.7;0;Germany;0;0;0;ASCHEFFEL;7.933;8.34
29/05/17 00:00;DEZ0091;Eurdep;air;54.47;9.87;0;Germany;0;0;0;ECKERNFÖRDE;7.133;7.33
29/05/17 00:00;DEZ0092;Eurdep;air;54.4;9.97;0;Germany;0;0;0;GETTORF;7.933;8
26/05/17 22:00;DEZ0095;Eurdep;air;54.21;9.71;0;Germany;0;0;0;JEVENSTEDT-OT NIENKATTBEK;0;0
29/05/17 00:00;DEZ0097;Eurdep;air;54.27;10.08;0;Germany;0;0;0;MOLFSEE;8.804;8.95
29/05/17 00:00;DEZ0102;Eurdep;air;54.08;9.9;0;Germany;0;0;0;WASBEK;6.264;6.63
29/05/17 00:00;DEZ0104;Eurdep;air;54.31;9.3;0;Germany;0;0;0;ERFDE;7.393000000000001;8.58
29/05/17 00:00;DEZ0107;Eurdep;air;54.65;9.94;0;Germany;0;0;0;KAPPELN;7.4319999999999995;7.87
29/05/17 00:00;DEZ0111;Eurdep;air;54.53;9.55;0;Germany;0;0;0;SCHLESWIG;8.379999999999999;8.61
29/05/17 00:00;DEZ0112;Eurdep;air;54.64;9.76;0;Germany;0;0;0;SÜDERBRARUP;8.334999999999999;8.629999999999999
29/05/17 00:00;DEZ0116;Eurdep;air;54.83;9.55;0;Germany;0;0;0;GLÜCKSBURG;8.036;8.68
29/05/17 00:00;DEZ0119;Eurdep;air;54.73;9.74;0;Germany;0;0;0;STERUP;8.401;8.620000000000001
29/05/17 00:00;DEZ0123;Eurdep;air;53.91;10.17;0;Germany;0;0;0;BARK;8.051;8.32
29/05/17 00:00;DEZ0128;Eurdep;air;53.88;9.98;0;Germany;0;0;0;SCHMALFELD;5.672;5.95
29/05/17 00:00;DEZ0131;Eurdep;air;53.79;10.08;0;Germany;0;0;0;WAKENDORF II;7.188;7.38
29/05/17 00:00;DEZ0136;Eurdep;air;53.78;9.61;0;Germany;0;0;0;KIEBITZREIHE;5.639;6.4799999999999995
29/05/17 00:00;DEZ0137;Eurdep;air;53.84;9.49;0;Germany;0;0;0;KREMPE;8.315000000000001;9
29/05/17 00:00;DEZ0139;Eurdep;air;53.94;9.4;0;Germany;0;0;0;MOORHUSEN;8.184999999999999;8.84
29/05/17 00:00;DEZ0140;Eurdep;air;53.92;9.58;0;Germany;0;0;0;OELIXDORF;6.9799999999999995;7.57
29/05/17 00:00;DEZ0141;Eurdep;air;53.88;9.26;0;Germany;0;0;0;ST. MARGARETHEN;8.465;9.09
29/05/17 00:00;DEZ0143;Eurdep;air;53.73;9.48;0;Germany;0;0;0;KOLLMAR;8.456;9
29/05/17 00:00;DEZ0145;Eurdep;air;53.61;10.24;0;Germany;0;0;0;BRAAK;8.107;8.42
29/05/17 00:00;DEZ0147;Eurdep;air;53.81;10.44;0;Germany;0;0;0;MEDDEWADE;8.591;9.01
29/05/17 00:00;DEZ0151;Eurdep;air;53.53;10.14;0;Germany;0;0;0;HAMBURG-BILLSTEDT;7.111;7.390000000000001
29/05/17 00:00;DEZ0156;Eurdep;air;53.58;10.11;0;Germany;0;0;0;HAMBURG-JENFELD;7.938;8.15
29/05/17 00:00;DEZ0157;Eurdep;air;53.65;10.11;0;Germany;0;0;0;HAMBURG-SASEL;7.569;8.34
29/05/17 00:00;DEZ0158;Eurdep;air;53.47;10.19;0;Germany;0;0;0;HAMBURG-NETTELNBURG;8.345;9.01
29/05/17 00:00;DEZ0167;Eurdep;air;52.13;10.29;0;Germany;0;0;0;SALZGITTER-LICHTENBERG;8.986;9.28
29/05/17 00:00;DEZ0169;Eurdep;air;52.47;10.53;0;Germany;0;0;0;GIFHORN;6.984;7.19
26/05/17 22:00;DEZ0170;Eurdep;air;52.65;10.46;0;Germany;0;0;0;GROß OESINGEN;0;0
29/05/17 00:00;DEZ0172;Eurdep;air;52.38;10.53;0;Germany;0;0;0;MEINE;8.044;8.27
29/05/17 00:00;DEZ0173;Eurdep;air;52.48;10.36;0;Germany;0;0;0;MEINERSEN;7.290000000000001;7.69
29/05/17 00:00;DEZ0175;Eurdep;air;52.77;10.45;0;Germany;0;0;0;SPRAKENSEHL OT HAGEN;6.292;6.470000000000001
29/05/17 00:00;DEZ0176;Eurdep;air;52.62;10.59;0;Germany;0;0;0;WAHRENHOLZ;6.912999999999999;7.24
28/05/17 23:00;DEZ0177;Eurdep;air;52.73;10.73;0;Germany;0;0;0;WITTINGEN;7.2620000000000005;7.33
26/05/17 22:00;DEZ0178;Eurdep;air;52.62;10.81;0;Germany;0;0;0;WITTINGEN-BOITZENHAGEN;0;0
29/05/17 00:00;DEZ0180;Eurdep;air;51.5;9.76;0;Germany;0;0;0;DRANSFELD;11;11
29/05/17 00:00;DEZ0182;Eurdep;air;51.44;9.93;0;Germany;0;0;0;FRIEDLAND-GROß SCHNEEN;11.586;11
29/05/17 00:00;DEZ0183;Eurdep;air;51.61;10.21;0;Germany;0;0;0;GIEBOLDEHAUSEN;12.286;13
29/05/17 00:00;DEZ0185;Eurdep;air;51.48;10.11;0;Germany;0;0;0;RITTMARSHAUSEN;10.686;11
29/05/17 00:00;DEZ0186;Eurdep;air;51.52;9.93;0;Germany;0;0;0;GÖTTINGEN;10.277;10
29/05/17 00:00;DEZ0188;Eurdep;air;51.56;10.06;0;Germany;0;0;0;WAAKE;12.863999999999999;13
29/05/17 00:00;DEZ0189;Eurdep;air;51.81;10.54;0;Germany;0;0;0;TORFHAUS;10.368;11
29/05/17 00:00;DEZ0191;Eurdep;air;51.72;10.6;0;Germany;0;0;0;BRAUNLAGE;10.286;10
29/05/17 00:00;DEZ0195;Eurdep;air;52.02;10.44;0;Germany;0;0;0;LIEBENBURG;9.449;9.72
26/05/17 22:00;DEZ0197;Eurdep;air;51.95;10.54;0;Germany;0;0;0;VIENENBURG;0;0
29/05/17 00:00;DEZ0201;Eurdep;air;52.25;10.81;0;Germany;0;0;0;KÖNIGSLUTTER;7.162999999999999;7.529999999999999
29/05/17 00:00;DEZ0205;Eurdep;air;51.88;10;0;Germany;0;0;0;BAD GANDERSHEIM;11.440999999999999;13
29/05/17 00:00;DEZ0208;Eurdep;air;51.79;10.06;0;Germany;0;0;0;ECHTE;10.381;11
29/05/17 00:00;DEZ0209;Eurdep;air;51.68;10.1;0;Germany;0;0;0;KATLENBURG-LINDAU;10.690999999999999;11
26/05/17 22:00;DEZ0210;Eurdep;air;51.73;9.79;0;Germany;0;0;0;FREDELSLOH;0;0
26/05/17 22:00;DEZ0212;Eurdep;air;51.62;9.66;0;Germany;0;0;0;USLAR OT SCHONINGEN;0;0
29/05/17 00:00;DEZ0213;Eurdep;air;51.63;10.47;0;Germany;0;0;0;BAD LAUTERBERG IM HARZ;11.259;11
29/05/17 00:00;DEZ0215;Eurdep;air;51.75;10.21;0;Germany;0;0;0;OSTERODE AM HARZ;10.414;11
29/05/17 00:00;DEZ0216;Eurdep;air;51.58;10.61;0;Germany;0;0;0;WALKENRIED;10.264;10
29/05/17 00:00;DEZ0218;Eurdep;air;52.27;10.23;0;Germany;0;0;0;GROSS ILSEDE;10.791;11
29/05/17 00:00;DEZ0220;Eurdep;air;52.32;10.24;0;Germany;0;0;0;PEINE;8.133;8.45
26/05/17 22:00;DEZ0222;Eurdep;air;52.32;10.39;0;Germany;0;0;0;WENDEBURG;0;0
29/05/17 00:00;DEZ0225;Eurdep;air;52.04;10.6;0;Germany;0;0;0;HORNBURG;11.431999999999999;11
26/05/17 22:00;DEZ0227;Eurdep;air;52.04;10.26;0;Germany;0;0;0;SEHLDE;0;0
29/05/17 00:00;DEZ0235;Eurdep;air;52.72;8.53;0;Germany;0;0;0;BARNSTORF;6.245;6.87
29/05/17 00:00;DEZ0236;Eurdep;air;52.85;8.73;0;Germany;0;0;0;BASSUM;7.295;8.18
29/05/17 00:00;DEZ0238;Eurdep;air;52.74;8.7;0;Germany;0;0;0;EHRENBURG;7.638;8
29/05/17 00:00;DEZ0239;Eurdep;air;52.62;8.65;0;Germany;0;0;0;FREISTATT;6.669;7
29/05/17 00:00;DEZ0240;Eurdep;air;52.59;8.84;0;Germany;0;0;0;KIRCHDORF;6.901999999999999;7.15
29/05/17 00:00;DEZ0242;Eurdep;air;52.88;9.06;0;Germany;0;0;0;MARTFELD;6.795999999999999;7
29/05/17 00:00;DEZ0244;Eurdep;air;52.79;8.84;0;Germany;0;0;0;SCHWAFÖRDEN-SUDWALDE;8.419;9.23
29/05/17 00:00;DEZ0245;Eurdep;air;52.69;8.82;0;Germany;0;0;0;SULINGEN;6.5840000000000005;7.640000000000001
29/05/17 00:00;DEZ0246;Eurdep;air;52.93;8.82;0;Germany;0;0;0;SYKE-BARRIEN;7.406000000000001;8.25
29/05/17 00:00;DEZ0248;Eurdep;air;52.06;9.33;0;Germany;0;0;0;AERZEN/GR.BERKEL;10.175;11
29/05/17 00:00;DEZ0250;Eurdep;air;51.97;9.3;0;Germany;0;0;0;BAD PYRMONT;9;10
29/05/17 00:00;DEZ0251;Eurdep;air;52.11;9.55;0;Germany;0;0;0;COPPENBRÜGGE;9.515;10
29/05/17 00:00;DEZ0253;Eurdep;air;52.15;9.39;0;Germany;0;0;0;UNSEN - HAMELN;9.434000000000001;9.83
29/05/17 00:00;DEZ0254;Eurdep;air;52.17;9.24;0;Germany;0;0;0;HESSISCH-OLDENDORF;9.013;9.34
29/05/17 00:00;DEZ0255;Eurdep;air;52.07;9.58;0;Germany;0;0;0;SALZHEMMENDORF;9.669;11
29/05/17 00:00;DEZ0256;Eurdep;air;52.45;10;0;Germany;0;0;0;BURGDORF;7.8469999999999995;8.07
29/05/17 00:00;DEZ0258;Eurdep;air;52.46;9.6;0;Germany;0;0;0;OSTERWALD/STADT GARBSEN;6.877;7.959999999999999
29/05/17 00:00;DEZ0259;Eurdep;air;52.3;9.6;0;Germany;0;0;0;GEHRDEN;9.205;9
26/05/17 22:00;DEZ0262;Eurdep;air;52.37;9.97;0;Germany;0;0;0;LEHRTE;0;0
26/05/17 22:00;DEZ0271;Eurdep;air;52.42;9.43;0;Germany;0;0;0;WUNSTORF;0;0
26/05/17 22:00;DEZ0272;Eurdep;air;51.95;9.84;0;Germany;0;0;0;ALFELD-WISPENSTEIN;0;0
29/05/17 00:00;DEZ0274;Eurdep;air;52.13;9.73;0;Germany;0;0;0;ELZE;10.306000000000001;11
29/05/17 00:00;DEZ0278;Eurdep;air;52.15;10.09;0;Germany;0;0;0;OTTBERGEN;8;9.05
26/05/17 22:00;DEZ0279;Eurdep;air;52.05;9.9;0;Germany;0;0;0;SIBBESSE;0;0
29/05/17 00:00;DEZ0281;Eurdep;air;52.01;9.7;0;Germany;0;0;0;DUINGEN;10.045;10
29/05/17 00:00;DEZ0284;Eurdep;air;51.84;9.44;0;Germany;0;0;0;HOLZMINDEN;11.027;11
29/05/17 00:00;DEZ0285;Eurdep;air;51.75;9.52;0;Germany;0;0;0;NEUHAUS - HOLZMINDEN;9.728;10
29/05/17 00:00;DEZ0286;Eurdep;air;51.95;9.41;0;Germany;0;0;0;OTTENSTEIN;9.809999999999999;10
29/05/17 00:00;DEZ0287;Eurdep;air;51.89;9.63;0;Germany;0;0;0;STADTOLDENDORF;8.913;9
29/05/17 00:00;DEZ0290;Eurdep;air;52.6;9.09;0;Germany;0;0;0;LIEBENAU;7.029000000000001;7.82
29/05/17 00:00;DEZ0292;Eurdep;air;52.47;9.23;0;Germany;0;0;0;REHBURG-LOCCUM;7.962000000000001;8.33
29/05/17 00:00;DEZ0297;Eurdep;air;52.23;9.24;0;Germany;0;0;0;REHREN-AUETAL;9.297;10
26/05/17 22:00;DEZ0298;Eurdep;air;52.26;9.03;0;Germany;0;0;0;BÜCKEBURG;0;0
29/05/17 00:00;DEZ0302;Eurdep;air;52.61;10.29;0;Germany;0;0;0;AHNSBECK;7.936;8.25
29/05/17 00:00;DEZ0303;Eurdep;air;52.82;9.97;0;Germany;0;0;0;BERGEN;7.49;8
21/05/17 22:00;DEZ0305;Eurdep;air;52.74;10.24;0;Germany;0;0;0;ESCHEDE;0;0
29/05/17 00:00;DEZ0309;Eurdep;air;52.65;9.86;0;Germany;0;0;0;WIETZE;6.285;6.68
29/05/17 00:00;DEZ0310;Eurdep;air;52.73;9.85;0;Germany;0;0;0;MEIßENDORF;6.232;6.540000000000001
29/05/17 00:00;DEZ0317;Eurdep;air;53.69;8.56;0;Germany;0;0;0;DORUM;8.291;8.559999999999999
29/05/17 00:00;DEZ0320;Eurdep;air;53.63;9.1;0;Germany;0;0;0;LAMSTEDT;6.970999999999999;7.779999999999999
29/05/17 00:00;DEZ0321;Eurdep;air;53.45;8.63;0;Germany;0;0;0;LOXSTEDT-NESSE;6.733;8.03
29/05/17 00:00;DEZ0324;Eurdep;air;53.81;8.9;0;Germany;0;0;0;OTTERNDORF;7.915000000000001;8.440000000000001
29/05/17 00:00;DEZ0325;Eurdep;air;53.51;8.81;0;Germany;0;0;0;WEHDEL;6.773999999999999;7.95
29/05/17 00:00;DEZ0326;Eurdep;air;53.74;8.8;0;Germany;0;0;0;WANNA;6.662999999999999;7
29/05/17 00:00;DEZ0327;Eurdep;air;53.64;8.57;0;Germany;0;0;0;WREMEN;8.445;8.93
29/05/17 00:00;DEZ0328;Eurdep;air;53.3;10.05;0;Germany;0;0;0;HANSTEDT/BRACKEL;7.275;7
29/05/17 00:00;DEZ0330;Eurdep;air;53.43;10.31;0;Germany;0;0;0;DRAGE;7.302;7
29/05/17 00:00;DEZ0331;Eurdep;air;53.25;9.83;0;Germany;0;0;0;HANDELOH;7.2909999999999995;7.640000000000001
29/05/17 00:00;DEZ0332;Eurdep;air;53.2;10.05;0;Germany;0;0;0;EGESTORF-SG HANSTEDT;6.42;6.76
29/05/17 00:00;DEZ0335;Eurdep;air;53.4;10.41;0;Germany;0;0;0;TESPE;7.073;7.37
29/05/17 00:00;DEZ0336;Eurdep;air;53.36;10.2;0;Germany;0;0;0;WINSEN (LUHE);7.24;7.56
29/05/17 00:00;DEZ0341;Eurdep;air;53.14;11.04;0;Germany;0;0;0;HITZACKER;8.437000000000001;8.72
29/05/17 00:00;DEZ0342;Eurdep;air;53.07;11.44;0;Germany;0;0;0;HÖHBECK;6.293;6.58
29/05/17 00:00;DEZ0343;Eurdep;air;52.98;11.07;0;Germany;0;0;0;KÜSTEN;7.3180000000000005;7.51
29/05/17 00:00;DEZ0344;Eurdep;air;52.92;11.28;0;Germany;0;0;0;SCHWESKAU;7.002;7.290000000000001
29/05/17 00:00;DEZ0346;Eurdep;air;53.24;10.87;0;Germany;0;0;0;KATEMIN;6.765000000000001;7.08
29/05/17 00:00;DEZ0347;Eurdep;air;52.88;10.89;0;Germany;0;0;0;SCHNEGA;7.071;7.290000000000001
29/05/17 00:00;DEZ0348;Eurdep;air;53;11.32;0;Germany;0;0;0;TREBEL;6.554;6.790000000000001
29/05/17 00:00;DEZ0349;Eurdep;air;53.07;10.88;0;Germany;0;0;0;ZERNIEN;6.665000000000001;7.01
26/05/17 22:00;DEZ0352;Eurdep;air;53.18;10.75;0;Germany;0;0;0;DAHLENBURG;0;0
29/05/17 00:00;DEZ0357;Eurdep;air;53.1;10.22;0;Germany;0;0;0;REHLINGEN;6.501;6.65
29/05/17 00:00;DEZ0362;Eurdep;air;53.5;9.17;0;Germany;0;0;0;BREMERVÖRDE;5.923;6.640000000000001
29/05/17 00:00;DEZ0363;Eurdep;air;53.17;9.67;0;Germany;0;0;0;FINTEL;6.995;7.32
29/05/17 00:00;DEZ0365;Eurdep;air;53.5;8.97;0;Germany;0;0;0;HIPSTEDT;6.15;6.99
29/05/17 00:00;DEZ0366;Eurdep;air;53.02;9.39;0;Germany;0;0;0;KIRCHWALSEDE;7.384;7.68
29/05/17 00:00;DEZ0367;Eurdep;air;53.11;9.4;0;Germany;0;0;0;ROTENBURG;6.192;6.85
26/05/17 22:00;DEZ0372;Eurdep;air;52.99;9.58;0;Germany;0;0;0;VISSELHÖVEDE;0;0
28/05/17 18:00;DEZ0374;Eurdep;air;53.11;10.08;0;Germany;0;0;0;STEINBECK;5.929;6.15
29/05/17 00:00;DEZ0381;Eurdep;air;53.12;9.8;0;Germany;0;0;0;SCHNEVERDINGEN;7.670999999999999;7.909999999999999
26/05/17 22:00;DEZ0383;Eurdep;air;52.9;9.46;0;Germany;0;0;0;WALSRODE OT HAMWIEDE;0;0
29/05/17 00:00;DEZ0384;Eurdep;air;52.92;9.97;0;Germany;0;0;0;WIETZENDORF;5.975;6.2299999999999995
29/05/17 00:00;DEZ0385;Eurdep;air;53.83;9.13;0;Germany;0;0;0;BALJE / STADE;7.685;8.64
29/05/17 00:00;DEZ0387;Eurdep;air;53.69;9.43;0;Germany;0;0;0;DROCHTERSEN-ASSEL;7.776999999999999;8.51
29/05/17 00:00;DEZ0388;Eurdep;air;53.52;9.4;0;Germany;0;0;0;FREDENBECK;7.37;7.909999999999999
29/05/17 00:00;DEZ0390;Eurdep;air;53.63;9.32;0;Germany;0;0;0;HIMMELPFORTEN;7.06;7.82
29/05/17 00:00;DEZ0391;Eurdep;air;53.59;9.55;0;Germany;0;0;0;HOLLERN-TWIELENFLETH;7.9159999999999995;8
29/05/17 00:00;DEZ0392;Eurdep;air;53.45;9.51;0;Germany;0;0;0;HARSEFELD;7.598999999999999;8
29/05/17 00:00;DEZ0394;Eurdep;air;53.62;9.53;0;Germany;0;0;0;STADE KKW;7.734;8.370000000000001
29/05/17 00:00;DEZ0396;Eurdep;air;53.77;9.32;0;Germany;0;0;0;WISCHHAFEN;7.343999999999999;7.85
29/05/17 00:00;DEZ0397;Eurdep;air;53.09;10.57;0;Germany;0;0;0;BAD BEVENSEN OT MEDINGEN;6.962000000000001;7.13
29/05/17 00:00;DEZ0398;Eurdep;air;53.15;10.49;0;Germany;0;0;0;BIENENBÜTTEL;7.228;7.470000000000001
29/05/17 00:00;DEZ0401;Eurdep;air;53.05;10.38;0;Germany;0;0;0;HANSTEDT 1;6.113;6.39
29/05/17 00:00;DEZ0402;Eurdep;air;52.8;10.76;0;Germany;0;0;0;LÜDER/LANGENBRÜGGE;6.718000000000001;6.94
29/05/17 00:00;DEZ0407;Eurdep;air;53.05;9.04;0;Germany;0;0;0;OYTEN;7.514;8.26
29/05/17 00:00;DEZ0410;Eurdep;air;53.04;8.59;0;Germany;0;0;0;DELMENHORST;7.040000000000001;8.059999999999999
29/05/17 00:00;DEZ0411;Eurdep;air;53.36;7.16;0;Germany;0;0;0;EMDEN / LARRELT;7.953;8.33
29/05/17 00:00;DEZ0413;Eurdep;air;53.14;8.24;0;Germany;0;0;0;OLDENBURG;6.356;8.17
26/05/17 22:00;DEZ0414;Eurdep;air;52.26;8.11;0;Germany;0;0;0;OSNABRÜCK-DÜSTRUP;0;0
29/05/17 00:00;DEZ0416;Eurdep;air;53.6;8.05;0;Germany;0;0;0;WILHELMSHAVEN-SENGWARDEN;7.708;7.92
29/05/17 00:00;DEZ0418;Eurdep;air;53.25;7.94;0;Germany;0;0;0;WESTERSTEDE;6.531999999999999;7.7700000000000005
29/05/17 00:00;DEZ0420;Eurdep;air;53.47;7.5;0;Germany;0;0;0;AURICH;6.81;7.08
29/05/17 00:00;DEZ0421;Eurdep;air;53.54;7.62;0;Germany;0;0;0;AURICH-MIDDELS;6.1450000000000005;7.05
29/05/17 00:00;DEZ0422;Eurdep;air;53.73;7.37;0;Germany;0;0;0;BALTRUM;7.534999999999999;7.709999999999999
11/05/17 22:00;DEZ0424;Eurdep;air;53.35;7.61;0;Germany;0;0;0;GROßEFEHN-BAGBAND;0;0
29/05/17 00:00;DEZ0425;Eurdep;air;53.67;7.28;0;Germany;0;0;0;HAGERMARSCH AS HILGENRIEDERSIEL;7.734999999999999;8.03
29/05/17 00:00;DEZ0427;Eurdep;air;53.5;7.1;0;Germany;0;0;0;KRUMMHÖRN-GREETSIEL;7.066;7.409999999999999
29/05/17 00:00;DEZ0428;Eurdep;air;53.41;7.02;0;Germany;0;0;0;KRUMMHÖRN-CAMPEN;8.242;8
29/05/17 00:00;DEZ0429;Eurdep;air;53.5;7.3;0;Germany;0;0;0;MARIENHAFE/SIEGELSUM;6.44;6.63
29/05/17 00:00;DEZ0433;Eurdep;air;53.71;7.15;0;Germany;0;0;0;NORDERNEY;6.206;6.51
29/05/17 00:00;DEZ0434;Eurdep;air;53.17;7.74;0;Germany;0;0;0;BARßEL-BARßELERMOOR;6.952;7.68
29/05/17 00:00;DEZ0435;Eurdep;air;52.84;8.01;0;Germany;0;0;0;CLOPPENBURG;6.723999999999999;7.359999999999999
29/05/17 00:00;DEZ0438;Eurdep;air;52.92;7.89;0;Germany;0;0;0;Friesoythe-Augustendorf;6.391;8.629999999999999
26/05/17 22:00;DEZ0439;Eurdep;air;52.96;8.03;0;Germany;0;0;0;GARREL;0;0
29/05/17 00:00;DEZ0441;Eurdep;air;52.6;7.4;0;Germany;0;0;0;BAWINKEL;5.87;7.7700000000000005
29/05/17 00:00;DEZ0442;Eurdep;air;52.43;7.51;0;Germany;0;0;0;BEESTEN;6.35;8.05
28/05/17 18:00;DEZ0446;Eurdep;air;52.45;7.31;0;Germany;0;0;0;ELBERGEN-EMSBÜREN;6.789;8.620000000000001
29/05/17 00:00;DEZ0448;Eurdep;air;52.84;7.1;0;Germany;0;0;0;HAREN/EMS OT RÜTENBROCK;6.154999999999999;8.120000000000001
29/05/17 00:00;DEZ0449;Eurdep;air;52.68;7.6;0;Germany;0;0;0;HERZLAKE;6.612;8.15
29/05/17 00:00;DEZ0450;Eurdep;air;52.77;7.46;0;Germany;0;0;0;KLEIN BERßEN;7.662000000000001;8
29/05/17 00:00;DEZ0451;Eurdep;air;52.87;7.33;0;Germany;0;0;0;LATHEN;6.38;7.2700000000000005
26/05/17 22:00;DEZ0453;Eurdep;air;52.56;7.53;0;Germany;0;0;0;LENGERICH;0;0
29/05/17 00:00;DEZ0455;Eurdep;air;52.46;7.37;0;Germany;0;0;0;LINGEN-BRAMSCHE;7.726999999999999;9.01
29/05/17 00:00;DEZ0456;Eurdep;air;52.51;7.29;0;Germany;0;0;0;LINGEN-SCHEPSDORF;5.978;7.159999999999999
29/05/17 00:00;DEZ0458;Eurdep;air;53;7.4;0;Germany;0;0;0;NEULEHE;6.65;7.470000000000001
29/05/17 00:00;DEZ0467;Eurdep;air;53.79;7.91;0;Germany;0;0;0;WANGEROOGE;6.16;6.44
29/05/17 00:00;DEZ0469;Eurdep;air;53.38;7.96;0;Germany;0;0;0;ZETEL-NEUENBURG;7.56;8.22
26/05/17 22:00;DEZ0470;Eurdep;air;52.32;7.17;0;Germany;0;0;0;BAD BENTHEIM;0;0
29/05/17 00:00;DEZ0474;Eurdep;air;52.57;7.08;0;Germany;0;0;0;GEORGSDORF;6.174;7.279999999999999
29/05/17 00:00;DEZ0478;Eurdep;air;52.46;7.18;0;Germany;0;0;0;NORDHORN-KLAUSHEIDE;6.763;8
29/05/17 00:00;DEZ0479;Eurdep;air;52.47;7.02;0;Germany;0;0;0;NORDHORN-FRENSWEGEN;5.955;7
26/05/17 22:00;DEZ0482;Eurdep;air;53.6;6.7;0;Germany;0;0;0;BORKUM;0;0
29/05/17 00:00;DEZ0487;Eurdep;air;53.33;7.34;0;Germany;0;0;0;MOORMERLAND-OLDERSUM;7.412000000000001;7.859999999999999
29/05/17 00:00;DEZ0490;Eurdep;air;53.13;7.23;0;Germany;0;0;0;WYMEER;5.3950000000000005;7.07
29/05/17 00:00;DEZ0491;Eurdep;air;52.96;8.63;0;Germany;0;0;0;GROß IPPENER;6.906000000000001;7.529999999999999
26/05/17 22:00;DEZ0492;Eurdep;air;52.94;8.26;0;Germany;0;0;0;GROßENKNETEN;0;0
29/05/17 00:00;DEZ0493;Eurdep;air;53.02;8.35;0;Germany;0;0;0;KIRCHHATTEN;6.258;7
26/05/17 22:00;DEZ0494;Eurdep;air;53.11;8.46;0;Germany;0;0;0;HUDE;0;0
29/05/17 00:00;DEZ0495;Eurdep;air;53.06;8.21;0;Germany;0;0;0;WARDENBURG;6.8549999999999995;8.16
16/05/17 22:00;DEZ0496;Eurdep;air;52.9;8.43;0;Germany;0;0;0;WILDESHAUSEN;0;0
28/05/17 23:00;DEZ0498;Eurdep;air;52.32;8.34;0;Germany;0;0;0;BAD ESSEN;9.184999999999999;9.42
26/05/17 22:00;DEZ0501;Eurdep;air;52.45;7.96;0;Germany;0;0;0;BRAMSCHE-HESEPE;0;0
29/05/17 00:00;DEZ0503;Eurdep;air;52.62;7.74;0;Germany;0;0;0;BERGE;7.705;9.51
29/05/17 00:00;DEZ0505;Eurdep;air;52.38;8.2;0;Germany;0;0;0;OSTERCAPPELN-SCHWAGSTORF;7.7010000000000005;9
29/05/17 00:00;DEZ0506;Eurdep;air;52.67;7.94;0;Germany;0;0;0;QUAKENBRÜCK;7.045;8.51
29/05/17 00:00;DEZ0510;Eurdep;air;52.71;8.29;0;Germany;0;0;0;VECHTA;7.695;8.77
29/05/17 00:00;DEZ0511;Eurdep;air;53.33;8.48;0;Germany;0;0;0;BRAKE-UNTERWESER;8.153;9.42
29/05/17 00:00;DEZ0512;Eurdep;air;53.57;8.36;0;Germany;0;0;0;BUTJADINGEN-BURHAVE;8.53;9.11
29/05/17 00:00;DEZ0514;Eurdep;air;53.25;8.47;0;Germany;0;0;0;ELSFLETH-LIENEN;8.859;9.92
29/05/17 00:00;DEZ0515;Eurdep;air;53.34;8.19;0;Germany;0;0;0;JADE-JADERBERG;6.564;7.67
29/05/17 00:00;DEZ0516;Eurdep;air;53.48;8.47;0;Germany;0;0;0;NORDENHAM;7.051;7.720000000000001
29/05/17 00:00;DEZ0518;Eurdep;air;53.27;8.32;0;Germany;0;0;0;OVELGÖNNE-GROßENMEER;7.583;9.35
29/05/17 00:00;DEZ0519;Eurdep;air;53.46;8.36;0;Germany;0;0;0;STADLAND-SEEFELD;8.329;8
29/05/17 00:00;DEZ0521;Eurdep;air;53.65;7.61;0;Germany;0;0;0;ESENS;5.9799999999999995;6.09
29/05/17 00:00;DEZ0525;Eurdep;air;53.77;7.69;0;Germany;0;0;0;SPIEKEROOG;6.3020000000000005;6.49
29/05/17 00:00;DEZ0531;Eurdep;air;53.6;8.53;0;Germany;0;0;0;BREMERHAVEN-WEDDEWARDEN;8.097;8.459999999999999
29/05/17 00:00;DEZ0532;Eurdep;air;53.5;8.57;0;Germany;0;0;0;BREMERHAVEN-LUNEPLATE;6.18;6
28/05/17 18:00;DEZ0533;Eurdep;air;53.55;8.6;0;Germany;0;0;0;BREMERHAVEN-GEESTEMÜNDE;6.729000000000001;7.44
29/05/17 00:00;DEZ0540;Eurdep;air;51.3;6.54;0;Germany;0;0;0;KREFELD-FISCHELN;8.92;10
29/05/17 00:00;DEZ0541;Eurdep;air;51.18;6.4;0;Germany;0;0;0;MÖNCHENGLADBACH;8.526;9.309999999999999
29/05/17 00:00;DEZ0543;Eurdep;air;51.19;7.27;0;Germany;0;0;0;REMSCHEID-LENNEP;10.768;11
29/05/17 00:00;DEZ0545;Eurdep;air;51.3;7.2;0;Germany;0;0;0;WUPPERTAL-BARMEN;9.911;10
29/05/17 00:00;DEZ0553;Eurdep;air;51.59;6.21;0;Germany;0;0;0;KEVELAER;7.57;8.32
26/05/17 22:00;DEZ0560;Eurdep;air;51.28;7.03;0;Germany;0;0;0;WÜLFRATH;0;0
29/05/17 00:00;DEZ0562;Eurdep;air;51.1;6.5600000000000005;0;Germany;0;0;0;GREVENBROICH-FÜRTH;10.545;10
29/05/17 00:00;DEZ0566;Eurdep;air;51.24;6.18;0;Germany;0;0;0;BRÜGGEN;7.111;7.970000000000001
26/05/17 22:00;DEZ0567;Eurdep;air;51.34;6.33;0;Germany;0;0;0;GREFRATH;0;0
29/05/17 00:00;DEZ0572;Eurdep;air;51.73;6.73;0;Germany;0;0;0;HAMMINKELN-MARIENTHAL;7.503;8.05
29/05/17 00:00;DEZ0582;Eurdep;air;50.99;6.95;0;Germany;0;0;0;KÖLN-WEIDENPESCH;9.453;9
29/05/17 00:00;DEZ0585;Eurdep;air;50.6;6.29;0;Germany;0;0;0;SIMMERATH;9.748000000000001;10
29/05/17 00:00;DEZ0588;Eurdep;air;50.92;6.33;0;Germany;0;0;0;JÜLICH-KOSLAR;10.205;10
29/05/17 00:00;DEZ0589;Eurdep;air;50.96;6.43;0;Germany;0;0;0;JÜLICH-GÜSTEN;9.918000000000001;10
29/05/17 00:00;DEZ0594;Eurdep;air;51.01;6.43;0;Germany;0;0;0;TITZ;10.577;10
29/05/17 00:00;DEZ0599;Eurdep;air;51.01;6.82;0;Germany;0;0;0;PULHEIM-SINNERSDORF;8.501999999999999;8.76
29/05/17 00:00;DEZ0606;Eurdep;air;51.01;6.04;0;Germany;0;0;0;GANGELT-BIRGDEN;8.815999999999999;10
29/05/17 00:00;DEZ0607;Eurdep;air;51.04;6.13;0;Germany;0;0;0;HEINSBERG-HÜLHOVEN;9.769;10
29/05/17 00:00;DEZ0613;Eurdep;air;51.05;7.26;0;Germany;0;0;0;KÜRTEN;9.908;10
29/05/17 00:00;DEZ0615;Eurdep;air;50.63;7.22;0;Germany;0;0;0;BAD HONNEF;8.78;10
29/05/17 00:00;DEZ0616;Eurdep;air;50.78;7.01;0;Germany;0;0;0;BORNHEIM;8.715;9
29/05/17 00:00;DEZ0618;Eurdep;air;50.79;7.28;0;Germany;0;0;0;HENNEF/SIEG;8.664;8.98
26/05/17 22:00;DEZ0623;Eurdep;air;51.56;7.07;0;Germany;0;0;0;GELSENKIRCHEN;0;0
29/05/17 00:00;DEZ0624;Eurdep;air;52;7.59;0;Germany;0;0;0;MÜNSTER-KINDERHAUS;8.325;8.64
29/05/17 00:00;DEZ0627;Eurdep;air;52.13;6.91;0;Germany;0;0;0;AHAUS-ALSTÄTTE;6.645999999999999;7.94
29/05/17 00:00;DEZ0628;Eurdep;air;52.04;6.93;0;Germany;0;0;0;AHAUS-OTTENSTEIN;6.861;8.14
29/05/17 00:00;DEZ0632;Eurdep;air;51.83;6.79;0;Germany;0;0;0;BORKEN-RHEDEBRÜGGE;6.845000000000001;8.05
29/05/17 00:00;DEZ0633;Eurdep;air;51.95;6.99;0;Germany;0;0;0;GESCHER;7.3870000000000005;8.17
29/05/17 00:00;DEZ0634;Eurdep;air;52.2;7.03;0;Germany;0;0;0;GRONAU;7.08;8.82
28/05/17 23:00;DEZ0635;Eurdep;air;52.22;7.01;0;Germany;0;0;0;GRONAU-SPECHTHOLTSHOOK;7.647;9.16
29/05/17 00:00;DEZ0636;Eurdep;air;52.17;7.06;0;Germany;0;0;0;GRONAU-EPE;6.29;7.9799999999999995
29/05/17 00:00;DEZ0637;Eurdep;air;52.13;7.1;0;Germany;0;0;0;HEEK;6.787999999999999;8.15
29/05/17 00:00;DEZ0638;Eurdep;air;52.12;7.05;0;Germany;0;0;0;HEEK-AHLE;5.825;7.159999999999999
29/05/17 00:00;DEZ0640;Eurdep;air;52.05;7.15;0;Germany;0;0;0;LEGDEN-ASBECK;7.515000000000001;8.16
29/05/17 00:00;DEZ0644;Eurdep;air;51.94;6.8100000000000005;0;Germany;0;0;0;SÜDLOHN-OEDING;8.326;9.59
29/05/17 00:00;DEZ0646;Eurdep;air;52.1;6.85;0;Germany;0;0;0;VREDEN-LÜNTEN;8.165000000000001;9.83
29/05/17 00:00;DEZ0647;Eurdep;air;51.79;7.62;0;Germany;0;0;0;ASCHEBERG;7.1290000000000004;8.040000000000001
29/05/17 00:00;DEZ0651;Eurdep;air;52.03;7.27;0;Germany;0;0;0;ROSENDAHL-DARFELD;6.9319999999999995;7.5200000000000005
29/05/17 00:00;DEZ0652;Eurdep;air;51.85;7.48;0;Germany;0;0;0;SENDEN;7.540000000000001;8.35
29/05/17 00:00;DEZ0653;Eurdep;air;51.54;7.33;0;Germany;0;0;0;CASTROP-RAUXEL;9.595;11
29/05/17 00:00;DEZ0654;Eurdep;air;51.67;7.36;0;Germany;0;0;0;DATTELN;7.084999999999999;8.51
29/05/17 00:00;DEZ0655;Eurdep;air;51.66;7;0;Germany;0;0;0;DORSTEN;7.2829999999999995;9.25
26/05/17 22:00;DEZ0656;Eurdep;air;51.73;7.2;0;Germany;0;0;0;HALTERN;0;0
29/05/17 00:00;DEZ0657;Eurdep;air;51.65;7.16;0;Germany;0;0;0;MARL;7.662999999999999;9.17
29/05/17 00:00;DEZ0660;Eurdep;air;52.13;7.7;0;Germany;0;0;0;GREVEN FLUGHAFEN MS OS;9.001999999999999;9.72
29/05/17 00:00;DEZ0661;Eurdep;air;52.33;7.5;0;Germany;0;0;0;HÖRSTEL-DREIERWALDE;7.388;8.559999999999999
29/05/17 00:00;DEZ0664;Eurdep;air;52.11;7.88;0;Germany;0;0;0;LIENEN-KATTENVENNE;8.687999999999999;8.98
29/05/17 00:00;DEZ0666;Eurdep;air;52.21;7.19;0;Germany;0;0;0;OCHTRUP;7.381;9.209999999999999
29/05/17 00:00;DEZ0668;Eurdep;air;52.16;7.33;0;Germany;0;0;0;STEINFURT-BURGSTEINFURT;7.983;9.24
29/05/17 00:00;DEZ0672;Eurdep;air;51.89;8.04;0;Germany;0;0;0;ENNIGERLOH-WESTKIRCHEN;8.056000000000001;9.440000000000001
29/05/17 00:00;DEZ0673;Eurdep;air;51.91;7.8100000000000005;0;Germany;0;0;0;EVERSWINKEL-ALVERSKIRCHEN;6.6930000000000005;8.040000000000001
29/05/17 00:00;DEZ0674;Eurdep;air;51.8;8.2;0;Germany;0;0;0;OELDE-STROMBERG;8.138;10
29/05/17 00:00;DEZ0675;Eurdep;air;52.05;8.03;0;Germany;0;0;0;SASSENBERG-FÜCHTORF;6.776000000000001;7.56
29/05/17 00:00;DEZ0679;Eurdep;air;52.05;8.3;0;Germany;0;0;0;HALLE-HÖRSTE;7.225;8.309999999999999
26/05/17 22:00;DEZ0680;Eurdep;air;51.97;8.22;0;Germany;0;0;0;HARSEWINKEL;0;0
29/05/17 00:00;DEZ0682;Eurdep;air;51.92;8.66;0;Germany;0;0;0;SCHLOß HOLTE-STUKENBROCK;6.915000000000001;8.84
29/05/17 00:00;DEZ0685;Eurdep;air;52.23;8.47;0;Germany;0;0;0;RÖDINGHAUSEN;8.919;9.370000000000001
29/05/17 00:00;DEZ0686;Eurdep;air;52.12;8.49;0;Germany;0;0;0;SPENGE-LENZINGHAUSEN;8.945;10
29/05/17 00:00;DEZ0687;Eurdep;air;52.17;8.86;0;Germany;0;0;0;VLOTHO;10.003;11
29/05/17 00:00;DEZ0688;Eurdep;air;51.74;9.01;0;Germany;0;0;0;BAD DRIBURG;10.618;12
29/05/17 00:00;DEZ0692;Eurdep;air;51.79;9.4;0;Germany;0;0;0;HÖXTER;10.459;11
29/05/17 00:00;DEZ0693;Eurdep;air;51.82;9.24;0;Germany;0;0;0;MARIENMÜNSTER-VÖRDEN;11.864;14
29/05/17 00:00;DEZ0694;Eurdep;air;51.88;9.08;0;Germany;0;0;0;STEINHEIM;10.054;11
29/05/17 00:00;DEZ0698;Eurdep;air;51.93;8.89;0;Germany;0;0;0;DETMOLD;10.288;12
29/05/17 00:00;DEZ0702;Eurdep;air;52.02;8.91;0;Germany;0;0;0;LEMGO;7.622;9.11
26/05/17 22:00;DEZ0705;Eurdep;air;52.26;8.75;0;Germany;0;0;0;BAD OEYNHAUSEN-WULFERD.;0;0
29/05/17 00:00;DEZ0707;Eurdep;air;52.31;8.61;0;Germany;0;0;0;LÜBBECKE;9.113;9.36
29/05/17 00:00;DEZ0708;Eurdep;air;52.38;8.99;0;Germany;0;0;0;PETERSHAGEN-LAHDE;8.798;9.690000000000001
29/05/17 00:00;DEZ0709;Eurdep;air;52.43;8.6;0;Germany;0;0;0;RAHDEN;6.634;7.970000000000001
29/05/17 00:00;DEZ0710;Eurdep;air;52.37;8.46;0;Germany;0;0;0;STEMWEDE-LEVERN;7.369;8.58
29/05/17 00:00;DEZ0711;Eurdep;air;51.55;8.55;0;Germany;0;0;0;BÜREN;8.176;9.89
26/05/17 22:00;DEZ0712;Eurdep;air;51.76;8.56;0;Germany;0;0;0;DELBRÜCK;0;0
29/05/17 00:00;DEZ0714;Eurdep;air;51.62;8.89;0;Germany;0;0;0;LICHTENAU;8.667;9.72
29/05/17 00:00;DEZ0719;Eurdep;air;51.43;7.19;0;Germany;0;0;0;BOCHUM;10.306999999999999;11
29/05/17 00:00;DEZ0721;Eurdep;air;51.47;7.6;0;Germany;0;0;0;DORTMUND-LICHTENDORF;10.013;10
29/05/17 00:00;DEZ0726;Eurdep;air;51.36;7.3;0;Germany;0;0;0;SPROCKHÖVEL-HIDDINGHAUSEN;9.075;9.84
29/05/17 00:00;DEZ0730;Eurdep;air;51.39;8.58;0;Germany;0;0;0;BRILON;9.522;9.99
29/05/17 00:00;DEZ0733;Eurdep;air;51.47;8.85;0;Germany;0;0;0;MARSBERG;11.041;12
29/05/17 00:00;DEZ0737;Eurdep;air;51.16;8.29;0;Germany;0;0;0;SCHMALLENBERG;12.291;12
29/05/17 00:00;DEZ0739;Eurdep;air;51.32;8;0;Germany;0;0;0;SUNDERN;8.876000000000001;10
29/05/17 00:00;DEZ0748;Eurdep;air;51.12;7.88;0;Germany;0;0;0;ATTENDORN-NEULISTERNOHL;10.139;10
29/05/17 00:00;DEZ0750;Eurdep;air;51.08;8.1;0;Germany;0;0;0;KIRCHHUNDEM;11.864;12
26/05/17 22:00;DEZ0752;Eurdep;air;50.98;7.85;0;Germany;0;0;0;WENDEN-GERLINGEN;0;0
29/05/17 00:00;DEZ0753;Eurdep;air;51.08;8.42;0;Germany;0;0;0;BAD BERLEBURG-WEMLIGHAUSEN;10.736;11
26/05/17 22:00;DEZ0761;Eurdep;air;51.66;8.05;0;Germany;0;0;0;LIPPETAL-LIPPBORG;0;0
29/05/17 00:00;DEZ0763;Eurdep;air;51.69;8.44;0;Germany;0;0;0;LIPPSTADT-HÖRSTE;6.37;7.51
29/05/17 00:00;DEZ0766;Eurdep;air;51.5;8.44;0;Germany;0;0;0;RÜTHEN;8.484;10
29/05/17 00:00;DEZ0767;Eurdep;air;51.43;8.34;0;Germany;0;0;0;WARSTEIN;9.604000000000001;11
29/05/17 00:00;DEZ0771;Eurdep;air;51.62;7.52;0;Germany;0;0;0;LÜNEN;8.03;9.05
29/05/17 00:00;DEZ0772;Eurdep;air;51.54;7.73;0;Germany;0;0;0;UNNA-MÜHLHAUSEN;9.414;10
28/05/17 23:00;DEZ0775;Eurdep;air;50.16;8.65;0;Germany;0;0;0;FRANKFURT A.M. ST ESCHERSHEIM;9.692;10
29/05/17 00:00;DEZ0778;Eurdep;air;50.02;8.53;0;Germany;0;0;0;FRANKFURT A.M.;7.656000000000001;9.41
29/05/17 00:00;DEZ0781;Eurdep;air;50.09;8.22;0;Germany;0;0;0;WIESBADEN;10.464;11
29/05/17 00:00;DEZ0786;Eurdep;air;49.67;8.53;0;Germany;0;0;0;EINHAUSEN;8.853;11
29/05/17 00:00;DEZ0790;Eurdep;air;49.59;8.81;0;Germany;0;0;0;WALDMICHELBACH ST GADERN;11.659;12
29/05/17 00:00;DEZ0791;Eurdep;air;49.74;8.62;0;Germany;0;0;0;ALSBACH-HÄHNLEIN;9.668000000000001;11
29/05/17 00:00;DEZ0794;Eurdep;air;49.8;8.64;0;Germany;0;0;0;PFUNGSTADT;9.308;10
29/05/17 00:00;DEZ0796;Eurdep;air;49.77;8.48;0;Germany;0;0;0;BIEBESHEIM;9.731;11
29/05/17 00:00;DEZ0797;Eurdep;air;49.91;8.48;0;Germany;0;0;0;GROß-GERAU;9.783;11
29/05/17 00:00;DEZ0798;Eurdep;air;49.97;8.58;0;Germany;0;0;0;MÖRFELDEN-WALLDORF;8.022;9.26
29/05/17 00:00;DEZ0799;Eurdep;air;49.84;8.45;0;Germany;0;0;0;RIEDSTADT;8.947;10
29/05/17 00:00;DEZ0803;Eurdep;air;50.31;8.56;0;Germany;0;0;0;WEHRHEIM;9.809000000000001;10
29/05/17 00:00;DEZ0805;Eurdep;air;50.12;9.47;0;Germany;0;0;0;FLÖRSBACHTAL OT LOHRHAUPTEN;10.071;10
29/05/17 00:00;DEZ0807;Eurdep;air;50.2;9.18;0;Germany;0;0;0;GELNHAUSEN;9.91;10
29/05/17 00:00;DEZ0811;Eurdep;air;50.35;9.53;0;Germany;0;0;0;SCHLÜCHTERN;11.109;11
29/05/17 00:00;DEZ0812;Eurdep;air;50.26;9.52;0;Germany;0;0;0;STEINAU A.D.STR. OT MARJOß;9.244;9.690000000000001
29/05/17 00:00;DEZ0813;Eurdep;air;50.27;9.32;0;Germany;0;0;0;WÄCHTERSBACH;10.190999999999999;10
29/05/17 00:00;DEZ0814;Eurdep;air;50.06;8.37;0;Germany;0;0;0;HOFHEIM A.T. /WALLAU;10.126999999999999;11
29/05/17 00:00;DEZ0816;Eurdep;air;49.81;9.05;0;Germany;0;0;0;BREUBERG OT RAI-BREITENBACH;10.061;10
29/05/17 00:00;DEZ0818;Eurdep;air;49.72;8.84;0;Germany;0;0;0;REICHELSHEIM (ODW);11.827;12
29/05/17 00:00;DEZ0819;Eurdep;air;49.5;8.92;0;Germany;0;0;0;ROTHENBERG;8.858;9
29/05/17 00:00;DEZ0820;Eurdep;air;50.02;8.8;0;Germany;0;0;0;DIETZENBACH;8;8.83
29/05/17 00:00;DEZ0821;Eurdep;air;49.96;8.66;0;Germany;0;0;0;EGELSBACH;9.318000000000001;10
29/05/17 00:00;DEZ0823;Eurdep;air;50.05;8.97;0;Germany;0;0;0;SELIGENSTADT;9.503;9.92
29/05/17 00:00;DEZ0824;Eurdep;air;50.16;8.06;0;Germany;0;0;0;BAD SCHWALBACH;10.714;11
29/05/17 00:00;DEZ0828;Eurdep;air;50.05;7.8;0;Germany;0;0;0;LORCH;11.841;13
29/05/17 00:00;DEZ0830;Eurdep;air;50.29;8.95;0;Germany;0;0;0;ALTENSTADT;10.486;11
29/05/17 00:00;DEZ0832;Eurdep;air;50.29;9.11;0;Germany;0;0;0;BÜDINGEN;9.917;10
29/05/17 00:00;DEZ0835;Eurdep;air;50.32;8.75;0;Germany;0;0;0;FRIEDBERG (HESSEN);9.442;10
29/05/17 00:00;DEZ0836;Eurdep;air;50.39;9.14;0;Germany;0;0;0;HIRZENHAIN;9.956999999999999;10
29/05/17 00:00;DEZ0840;Eurdep;air;50.47;8.89;0;Germany;0;0;0;HUNGEN;9.937999999999999;10
29/05/17 00:00;DEZ0847;Eurdep;air;50.58;8.29;0;Germany;0;0;0;GREIFENSTEIN;10.15;10
26/05/17 22:00;DEZ0850;Eurdep;air;50.3;8.27;0;Germany;0;0;0;BAD CAMBERG;0;0
26/05/17 22:00;DEZ0851;Eurdep;air;50.44;8.03;0;Germany;0;0;0;HADAMAR;0;0
29/05/17 00:00;DEZ0853;Eurdep;air;50.48;8.24;0;Germany;0;0;0;WEILBURG;10.456;10
29/05/17 00:00;DEZ0854;Eurdep;air;50.43;8.38;0;Germany;0;0;0;WEILMÜNSTER;10.14;10
29/05/17 00:00;DEZ0858;Eurdep;air;50.69;8.61;0;Germany;0;0;0;LOHRA OT KIRCHVERS;10.086;10
26/05/17 22:00;DEZ0859;Eurdep;air;50.79;8.77;0;Germany;0;0;0;MARBURG;0;0
29/05/17 00:00;DEZ0860;Eurdep;air;50.82;8.99;0;Germany;0;0;0;STADTALLENDORF;9;9.370000000000001
29/05/17 00:00;DEZ0862;Eurdep;air;50.72;9.25;0;Germany;0;0;0;ALSFELD;12.318000000000001;12
29/05/17 00:00;DEZ0864;Eurdep;air;50.69;9.05;0;Germany;0;0;0;GEMÜNDEN (FELDA);8.568999999999999;8.82
29/05/17 00:00;DEZ0865;Eurdep;air;50.63;9.39;0;Germany;0;0;0;LAUTERBACH;8.486;8.92
29/05/17 00:00;DEZ0866;Eurdep;air;50.67;9.57;0;Germany;0;0;0;SCHLITZ;10.618;11
29/05/17 00:00;DEZ0874;Eurdep;air;50.5;9.94;0;Germany;0;0;0;GERSFELD/RHÖN;9.597;9.92
26/05/17 22:00;DEZ0882;Eurdep;air;50.65;10.02;0;Germany;0;0;0;TANN (RHÖN);0;0
29/05/17 00:00;DEZ0893;Eurdep;air;51.25;9.37;0;Germany;0;0;0;BAUNATAL OT GROßENRITTE;10;10
29/05/17 00:00;DEZ0899;Eurdep;air;51.49;9.59;0;Germany;0;0;0;REINHARDSHAGEN OT VECKERHAGEN;9.861;10
29/05/17 00:00;DEZ0903;Eurdep;air;51.37;9.3;0;Germany;0;0;0;ZIERENBERG;10.641;11
29/05/17 00:00;DEZ0905;Eurdep;air;51.02;9.41;0;Germany;0;0;0;HOMBERG (EFZE);11.409;11
29/05/17 00:00;DEZ0911;Eurdep;air;51.38;9;0;Germany;0;0;0;BAD AROLSEN;10.459;10
29/05/17 00:00;DEZ0913;Eurdep;air;51.01;8.63;0;Germany;0;0;0;BATTENBERG (EDER);11.023;12
29/05/17 00:00;DEZ0914;Eurdep;air;51.36;8.81;0;Germany;0;0;0;DIEMELSEE OT ADORF;10.159;10
29/05/17 00:00;DEZ0918;Eurdep;air;50.97;8.98;0;Germany;0;0;0;GEMÜNDEN (WOHRA);10.914;11
29/05/17 00:00;DEZ0920;Eurdep;air;51.2;8.8;0;Germany;0;0;0;LICHTENFELS ST GODDELSHEIM;10.35;10
29/05/17 00:00;DEZ0921;Eurdep;air;51.23;9.09;0;Germany;0;0;0;WALDECK OT NETZE;10.723;11
29/05/17 00:00;DEZ0922;Eurdep;air;51.28;8.66;0;Germany;0;0;0;WILLINGEN OT USSELN;11.25;11
29/05/17 00:00;DEZ0926;Eurdep;air;51.04;10.15;0;Germany;0;0;0;HERLESHAUSEN;10;11
29/05/17 00:00;DEZ0927;Eurdep;air;51.2;9.65;0;Germany;0;0;0;HESSISCH LICHTENAU OT QUENTEL;11.323;11
29/05/17 00:00;DEZ0928;Eurdep;air;51.24;10.06;0;Germany;0;0;0;MEINHARD OT HITZELRODE;10.741;11
26/05/17 22:00;DEZ0931;Eurdep;air;51.19;10.18;0;Germany;0;0;0;WANFRIED;0;0
29/05/17 00:00;DEZ0932;Eurdep;air;51.35;9.86;0;Germany;0;0;0;WITZENHAUSEN;11.791;12
29/05/17 00:00;DEZ0933;Eurdep;air;50.51;6.99;0;Germany;0;0;0;ALTENAHR-ALTENBURG;11.414;13
29/05/17 00:00;DEZ0935;Eurdep;air;50.46;7.21;0;Germany;0;0;0;NIEDERZISSEN;11.754999999999999;12
29/05/17 00:00;DEZ0942;Eurdep;air;49.79;7.49;0;Germany;0;0;0;KIRN/NAHE;10.529;11
29/05/17 00:00;DEZ0943;Eurdep;air;49.95;7.79;0;Germany;0;0;0;STROMBERG;10.379000000000001;12
29/05/17 00:00;DEZ0945;Eurdep;air;49.88;7.63;0;Germany;0;0;0;WINTERBACH;11.338;12
29/05/17 00:00;DEZ0949;Eurdep;air;49.7;7.35;0;Germany;0;0;0;IDAR-OBERSTEIN;10.823;11
29/05/17 00:00;DEZ0950;Eurdep;air;49.86;7.34;0;Germany;0;0;0;RHAUNEN/HUNSRÜCK;12.177;14
29/05/17 00:00;DEZ0954;Eurdep;air;50.22;6.98;0;Germany;0;0;0;ULMEN;11.004999999999999;12
29/05/17 00:00;DEZ0957;Eurdep;air;50.32;7.22;0;Germany;0;0;0;MAYEN;12.164;13
29/05/17 00:00;DEZ0959;Eurdep;air;50.41;7.55;0;Germany;0;0;0;KALTENENGERS;10.945;11
29/05/17 00:00;DEZ0960;Eurdep;air;50.39;7.5;0;Germany;0;0;0;MÜLHEIM-KÄRLICH;13.105;14
29/05/17 00:00;DEZ0961;Eurdep;air;50.34;7.46;0;Germany;0;0;0;WOLKEN;12.409;14
29/05/17 00:00;DEZ0962;Eurdep;air;50.24;7.36;0;Germany;0;0;0;MÜNSTERMAIFELD;12.164;13
29/05/17 00:00;DEZ0965;Eurdep;air;50.56;7.29;0;Germany;0;0;0;LINZ AM RHEIN;9.648;10
29/05/17 00:00;DEZ0966;Eurdep;air;50.43;7.48;0;Germany;0;0;0;NEUWIED;11.632;12
29/05/17 00:00;DEZ0967;Eurdep;air;50.17;7.5600000000000005;0;Germany;0;0;0;HALSENBACH;12;14
29/05/17 00:00;DEZ0968;Eurdep;air;50.07;7.45;0;Germany;0;0;0;KASTELLAUN;11.91;13
29/05/17 00:00;DEZ0969;Eurdep;air;49.91;7.51;0;Germany;0;0;0;MENGERSCHIED;11.732;14
26/05/17 22:00;DEZ0970;Eurdep;air;49.98;7.52;0;Germany;0;0;0;SIMMERN;0;0
29/05/17 00:00;DEZ0973;Eurdep;air;50.35;7.89;0;Germany;0;0;0;HOLZAPPEL;11.391;11
29/05/17 00:00;DEZ0974;Eurdep;air;50.27;7.98;0;Germany;0;0;0;KATZENELNBOGEN;13.113999999999999;14
29/05/17 00:00;DEZ0975;Eurdep;air;50.32;7.59;0;Germany;0;0;0;LAHNSTEIN;11.173;12
29/05/17 00:00;DEZ0976;Eurdep;air;50.2;7.86;0;Germany;0;0;0;NASTÄTTEN;10.673;12
29/05/17 00:00;DEZ0977;Eurdep;air;50.15;7.73;0;Germany;0;0;0;ST. GOARSHAUSEN;12.241;13
29/05/17 00:00;DEZ0978;Eurdep;air;50.27;7.83;0;Germany;0;0;0;SINGHOFEN;10.605;11
29/05/17 00:00;DEZ0983;Eurdep;air;50.6;8.07;0;Germany;0;0;0;RENNEROD;10.959;11
26/05/17 22:00;DEZ0984;Eurdep;air;50.65;7.72;0;Germany;0;0;0;WAHLROD;0;0
29/05/17 00:00;DEZ0985;Eurdep;air;49.75;6.66;0;Germany;0;0;0;TRIER;11.277;11
29/05/17 00:00;DEZ0988;Eurdep;air;50.09;6.8100000000000005;0;Germany;0;0;0;MANDERSCHEID;10.664;11
29/05/17 00:00;DEZ0989;Eurdep;air;49.86;6.9;0;Germany;0;0;0;NEUMAGEN-DHRON;11.545;12
29/05/17 00:00;DEZ0994;Eurdep;air;50.02;6.23;0;Germany;0;0;0;KARLSHAUSEN;11.273;11
29/05/17 00:00;DEZ0997;Eurdep;air;49.94;6.64;0;Germany;0;0;0;SPEICHER;11.714;12
29/05/17 00:00;DEZ0998;Eurdep;air;49.97;6.19;0;Germany;0;0;0;WALDHOF-FALKENSTEIN;11.036;11
28/05/17 12:00;DEZ1000;Eurdep;air;50.3;6.34;0;Germany;0;0;0;AUW BEI PRÜM;10.068000000000001;10
29/05/17 00:00;DEZ1003;Eurdep;air;50.1;6.45;0;Germany;0;0;0;FEUERSCHEID;9.65;9.91
29/05/17 00:00;DEZ1004;Eurdep;air;50.16;6.22;0;Germany;0;0;0;GROßKAMPENBERG;10.595;11
29/05/17 00:00;DEZ1006;Eurdep;air;50.21;6.42;0;Germany;0;0;0;PRÜM;10.964;12
29/05/17 00:00;DEZ1008;Eurdep;air;50.29;6.67;0;Germany;0;0;0;HILLESHEIM;10.759;12
29/05/17 00:00;DEZ1009;Eurdep;air;50.35;6.57;0;Germany;0;0;0;JÜNKERATH;11;12
29/05/17 00:00;DEZ1011;Eurdep;air;50.33;6.45;0;Germany;0;0;0;ORMONT;9.690000000000001;11
22/05/17 22:00;DEZ1013;Eurdep;air;49.72;6.79;0;Germany;0;0;0;OSBURG;0;0
29/05/17 00:00;DEZ1016;Eurdep;air;49.6;6.5600000000000005;0;Germany;0;0;0;SAARBURG;10.886;11
29/05/17 00:00;DEZ1019;Eurdep;air;49.67;6.52;0;Germany;0;0;0;TAWERN;10.773;11
29/05/17 00:00;DEZ1021;Eurdep;air;49.6;6.42;0;Germany;0;0;0;WINCHERINGEN;11.745000000000001;12
29/05/17 00:00;DEZ1022;Eurdep;air;49.6;6.69;0;Germany;0;0;0;ZERF;10.45;11
29/05/17 00:00;DEZ1028;Eurdep;air;49.2;7.62;0;Germany;0;0;0;PIRMASENS;11.818000000000001;12
29/05/17 00:00;DEZ1030;Eurdep;air;49.67;8.35;0;Germany;0;0;0;WORMS;9.197;10
29/05/17 00:00;DEZ1032;Eurdep;air;49.74;8.12;0;Germany;0;0;0;ALZEY;13.172999999999998;14
29/05/17 00:00;DEZ1034;Eurdep;air;49.77;7.95;0;Germany;0;0;0;STEIN-BOCKENHEIM;10;12
29/05/17 00:00;DEZ1036;Eurdep;air;49.47;8.19;0;Germany;0;0;0;BAD DÜRKHEIM;9.467;9.879999999999999
29/05/17 00:00;DEZ1037;Eurdep;air;49.35;7.94;0;Germany;0;0;0;ELMSTEIN;10.095;10
29/05/17 00:00;DEZ1038;Eurdep;air;49.57;8.18;0;Germany;0;0;0;GRÜNSTADT;9.729000000000001;10
29/05/17 00:00;DEZ1039;Eurdep;air;49.41;8.01;0;Germany;0;0;0;WEIDENTHAL;9.451;9.870000000000001
29/05/17 00:00;DEZ1041;Eurdep;air;49.66;8.01;0;Germany;0;0;0;KIRCHHEIMBOLANDEN;12.45;13
26/05/17 22:00;DEZ1042;Eurdep;air;49.73;7.78;0;Germany;0;0;0;OBERMOSCHEL;0;0
29/05/17 00:00;DEZ1043;Eurdep;air;49.6;7.78;0;Germany;0;0;0;GUNDERSWEILER;12.373000000000001;12
29/05/17 00:00;DEZ1045;Eurdep;air;49.21;8.36;0;Germany;0;0;0;GERMERSHEIM;8.95;9.209999999999999
29/05/17 00:00;DEZ1046;Eurdep;air;48.99;8.24;0;Germany;0;0;0;NEUBURG AM RHEIN;8.104000000000001;8.440000000000001
29/05/17 00:00;DEZ1049;Eurdep;air;49.05;8.25;0;Germany;0;0;0;WÖRTH AM RHEIN;8.068999999999999;8.36
29/05/17 00:00;DEZ1051;Eurdep;air;49.49;7.89;0;Germany;0;0;0;ENKENBACH-ALSENBORN;9.448;9.709999999999999
29/05/17 00:00;DEZ1058;Eurdep;air;49.28;8.23;0;Germany;0;0;0;BÖBINGEN;9.484;9.83
29/05/17 00:00;DEZ1059;Eurdep;air;49.05;8.03;0;Germany;0;0;0;STEINFELD;8.477;8.85
29/05/17 00:00;DEZ1060;Eurdep;air;49.26;8.4;0;Germany;0;0;0;RÖMERBERG-MECHTERSHEIM;8.962;9.15
29/05/17 00:00;DEZ1061;Eurdep;air;49.4;8.39;0;Germany;0;0;0;SCHIFFERSTADT;9.216;9.41
29/05/17 00:00;DEZ1065;Eurdep;air;49.97;8.26;0;Germany;0;0;0;MAINZ-HECHTSHEIM;11.732;14
29/05/17 00:00;DEZ1071;Eurdep;air;49.32;7.7;0;Germany;0;0;0;HELTERSBERG;8.882;9.17
29/05/17 00:00;DEZ1072;Eurdep;air;49.26;7.5600000000000005;0;Germany;0;0;0;THALEISCHWEILER-FRÖSCHEN;10.495000000000001;11
29/05/17 00:00;DEZ1073;Eurdep;air;49.22;7.9;0;Germany;0;0;0;WILGARTSWIESEN;9.609;9.959999999999999
29/05/17 00:00;DEZ1075;Eurdep;air;49.19;7.44;0;Germany;0;0;0;DIETRICHINGEN;12.518;13
29/05/17 00:00;DEZ1078;Eurdep;air;48.78;9.18;0;Germany;0;0;0;STUTTGART;11.732;12
29/05/17 00:00;DEZ1079;Eurdep;air;48.69;9.04;0;Germany;0;0;0;BÖBLINGEN;10.431999999999999;10
29/05/17 00:00;DEZ1080;Eurdep;air;48.6;8.86;0;Germany;0;0;0;HERRENBERG;10.868;11
28/05/17 23:00;DEZ1081;Eurdep;air;48.8;9;0;Germany;0;0;0;LEONBERG;12.033;12
17/05/17 22:00;DEZ1082;Eurdep;air;48.72;8.98;0;Germany;0;0;0;SINDELFINGEN;0;0
26/05/17 22:00;DEZ1084;Eurdep;air;48.75;9.32;0;Germany;0;0;0;ESSLINGEN;0;0
29/05/17 00:00;DEZ1086;Eurdep;air;48.74;9.48;0;Germany;0;0;0;LICHTENWALD;8.908;9.22
26/05/17 22:00;DEZ1087;Eurdep;air;48.55;9.37;0;Germany;0;0;0;NEUFFEN;0;0
29/05/17 00:00;DEZ1090;Eurdep;air;48.72;9.26;0;Germany;0;0;0;OSTFILDERN ST RUIT;9.251000000000001;9
29/05/17 00:00;DEZ1091;Eurdep;air;48.68;9.93;0;Germany;0;0;0;BÖHMENKIRCH;9.327;9.61
29/05/17 00:00;DEZ1092;Eurdep;air;48.74;9.72;0;Germany;0;0;0;GÖPPINGEN ST HOHENSTAUF.;10.586;11
29/05/17 00:00;DEZ1104;Eurdep;air;48.99;9.55;0;Germany;0;0;0;MURRHARDT;10.991;11
29/05/17 00:00;DEZ1109;Eurdep;air;49.18;8.83;0;Germany;0;0;0;EPPINGEN ST ELSENZ;11.295;11
29/05/17 00:00;DEZ1117;Eurdep;air;49.28;9.8;0;Germany;0;0;0;KÜNZELSAU ST NITZENHAUSEN;11.686;12
29/05/17 00:00;DEZ1118;Eurdep;air;49.3;9.62;0;Germany;0;0;0;NIEDERNHALL;12.664;13
26/05/17 22:00;DEZ1121;Eurdep;air;49.29;10.04;0;Germany;0;0;0;BLAUFELDEN OT WIESENBACH;0;0
29/05/17 00:00;DEZ1126;Eurdep;air;49.08;9.55;0;Germany;0;0;0;MAINHARDT;9.526;9.709999999999999
29/05/17 00:00;DEZ1127;Eurdep;air;49.1;9.73;0;Germany;0;0;0;SCHWÄBISCH HALL;11.923;12
29/05/17 00:00;DEZ1129;Eurdep;air;49.08;9.98;0;Germany;0;0;0;FRANKENHARDT OT GRÜNDELH.;8.789;9.05
29/05/17 00:00;DEZ1130;Eurdep;air;49.41;9.83;0;Germany;0;0;0;BAD MERGENTHEIM ST HERBSTHAUSEN;10.314;10
29/05/17 00:00;DEZ1132;Eurdep;air;49.67;9.74;0;Germany;0;0;0;GROßRINDERFELD;10.065000000000001;10
26/05/17 22:00;DEZ1133;Eurdep;air;49.53;9.85;0;Germany;0;0;0;IGERSHEIM OT HARTHAUSEN;0;0
29/05/17 00:00;DEZ1140;Eurdep;air;48.86;9.79;0;Germany;0;0;0;DURLANGEN;10.809000000000001;11
29/05/17 00:00;DEZ1144;Eurdep;air;48.76;10.33;0;Germany;0;0;0;NERESHEIM;7.8469999999999995;8.27
29/05/17 00:00;DEZ1145;Eurdep;air;48.94;10.37;0;Germany;0;0;0;UNTERSCHNEIDHEIM;9.492;9.809999999999999
29/05/17 00:00;DEZ1146;Eurdep;air;48.83;10.12;0;Germany;0;0;0;AALEN ST UNTERKOCHEN;7.9670000000000005;8.43
29/05/17 00:00;DEZ1154;Eurdep;air;49.12;8.73;0;Germany;0;0;0;KRAICHTAL ST MÜNZESHEIM;11.486;12
29/05/17 00:00;DEZ1156;Eurdep;air;49.13;8.53;0;Germany;0;0;0;KARLSDORF-NEUTHARD OT K.;8.887;9.379999999999999
29/05/17 00:00;DEZ1160;Eurdep;air;49.09;8.48;0;Germany;0;0;0;STUTENSEE OT FRIEDRICHST.;8.615;8.959999999999999
29/05/17 00:00;DEZ1163;Eurdep;air;48.69;8.13;0;Germany;0;0;0;BÜHL;11.232;11
29/05/17 00:00;DEZ1164;Eurdep;air;48.69;8.36;0;Germany;0;0;0;FORBACH OT GAUSBACH;13.041;13
26/05/17 22:00;DEZ1165;Eurdep;air;48.61;8.28;0;Germany;0;0;0;FORBACH OT HUNDSBACH;0;0
28/05/17 23:00;DEZ1166;Eurdep;air;48.79;8.33;0;Germany;0;0;0;GAGGENAU ST OTTENAU;10.683;10
26/05/17 22:00;DEZ1170;Eurdep;air;48.75;8;0;Germany;0;0;0;RHEINMÜNSTER OT GREFFERN;0;0
29/05/17 00:00;DEZ1174;Eurdep;air;49.37;9.42;0;Germany;0;0;0;ADELSHEIM ST LEIBENSTADT;11.559000000000001;12
29/05/17 00:00;DEZ1176;Eurdep;air;49.52;9.33;0;Germany;0;0;0;BUCHEN;10.296;10
29/05/17 00:00;DEZ1177;Eurdep;air;49.61;9.47;0;Germany;0;0;0;HARDHEIM;11.364;11
29/05/17 00:00;DEZ1196;Eurdep;air;48.66;8.6;0;Germany;0;0;0;NEUWEILER;10.518;10
29/05/17 00:00;DEZ1197;Eurdep;air;48.57;8.69;0;Germany;0;0;0;ROHRDORF;11.695;12
29/05/17 00:00;DEZ1199;Eurdep;air;48.7;8.53;0;Germany;0;0;0;BAD WILDBAD;8.45;8
29/05/17 00:00;DEZ1200;Eurdep;air;48.71;8.76;0;Germany;0;0;0;CALW ST HEUMADEN;11.068000000000001;11
29/05/17 00:00;DEZ1203;Eurdep;air;48.85;8.58;0;Germany;0;0;0;NEUENBÜRG;12.132;12
29/05/17 00:00;DEZ1206;Eurdep;air;48.35;8.39;0;Germany;0;0;0;ALPIRSBACH;14.805000000000001;17
29/05/17 00:00;DEZ1210;Eurdep;air;48.52;8.56;0;Germany;0;0;0;PFALZGRAFENWEILER;12.141;13
29/05/17 00:00;DEZ1211;Eurdep;air;48.59;8.42;0;Germany;0;0;0;SEEWALD OT BESENFELD;11.036;11
29/05/17 00:00;DEZ1213;Eurdep;air;47.92;7.91;0;Germany;0;0;0;SCHAUINSLAND FREIBURG;11.591;11
29/05/17 00:00;DEZ1218;Eurdep;air;47.98;7.91;0;Germany;0;0;0;FREIBURG ST EBNET;11.205;11
29/05/17 00:00;DEZ1223;Eurdep;air;47.86;8.11;0;Germany;0;0;0;FELDBERG OT ALTGLASHÜTTEN;12;13
29/05/17 00:00;DEZ1229;Eurdep;air;48.17;8.06;0;Germany;0;0;0;ELZACH;12.068000000000001;12
29/05/17 00:00;DEZ1232;Eurdep;air;48.16;7.64;0;Germany;0;0;0;WYHL;10.895;11
29/05/17 00:00;DEZ1235;Eurdep;air;48.66;8.02;0;Germany;0;0;0;ACHERN OT GAMSHURST;10.514;10
29/05/17 00:00;DEZ1236;Eurdep;air;48.43;8.21;0;Germany;0;0;0;BAD PETERSTAL-GRIEßBACH;12.559000000000001;12
29/05/17 00:00;DEZ1241;Eurdep;air;48.53;8.07;0;Germany;0;0;0;OBERKIRCH;11.514;11
29/05/17 00:00;DEZ1244;Eurdep;air;48.27;7.95;0;Germany;0;0;0;SCHUTTERTAL;11.009;11
29/05/17 00:00;DEZ1245;Eurdep;air;48.45;7.89;0;Germany;0;0;0;SCHUTTERWALD;12.345;12
29/05/17 00:00;DEZ1248;Eurdep;air;48.35;7.76;0;Germany;0;0;0;SCHWANAU OT NONNENWEIER;9.164;9.59
29/05/17 00:00;DEZ1249;Eurdep;air;48.47;7.8;0;Germany;0;0;0;NEURIED OT ALTENHEIM;8.834;9
29/05/17 00:00;DEZ1252;Eurdep;air;48.29;8.56;0;Germany;0;0;0;OBERNDORF/N. ST LINDENHOF;13.572999999999999;14
29/05/17 00:00;DEZ1253;Eurdep;air;48.25;8.44;0;Germany;0;0;0;SCHRAMBERG ST BRAMBACH;11.995000000000001;13
26/05/17 22:00;DEZ1258;Eurdep;air;48.12;8.39;0;Germany;0;0;0;ST. GEORGEN;0;0
29/05/17 00:00;DEZ1260;Eurdep;air;48;8.32;0;Germany;0;0;0;VÖHRENBACH ST HAMMEREIS.;15.086000000000002;15
29/05/17 00:00;DEZ1263;Eurdep;air;48.01;8.66;0;Germany;0;0;0;TALHEIM;10.95;11
29/05/17 00:00;DEZ1264;Eurdep;air;47.99;8.81;0;Germany;0;0;0;TUTTLINGEN;10.645;11
29/05/17 00:00;DEZ1265;Eurdep;air;47.86;8.78;0;Germany;0;0;0;ENGEN;8.986;9.290000000000001
29/05/17 00:00;DEZ1268;Eurdep;air;47.68;9.19;0;Germany;0;0;0;KONSTANZ;9.584999999999999;9.76
29/05/17 00:00;DEZ1269;Eurdep;air;47.66;8.89;0;Germany;0;0;0;ÖHNINGEN;9.206;9
29/05/17 00:00;DEZ1270;Eurdep;air;47.74;8.98;0;Germany;0;0;0;RADOLFZELL;8.494;8.790000000000001
29/05/17 00:00;DEZ1273;Eurdep;air;47.86;9.01;0;Germany;0;0;0;STOCKACH;10.041;10
29/05/17 00:00;DEZ1274;Eurdep;air;47.82;8.66;0;Germany;0;0;0;TENGEN;10.009;10
28/05/17 23:00;DEZ1275;Eurdep;air;47.74;7.55;0;Germany;0;0;0;BAD BELLINGEN;8.793000000000001;9.18
29/05/17 00:00;DEZ1276;Eurdep;air;47.66;7.54;0;Germany;0;0;0;EFRINGEN-KIRCHEN OT ISTEIN;9.095;9.51
29/05/17 00:00;DEZ1277;Eurdep;air;47.74;7.8100000000000005;0;Germany;0;0;0;ELBENSCHWAND OT LANGENSEE;14.141;14
29/05/17 00:00;DEZ1278;Eurdep;air;47.71;7.61;0;Germany;0;0;0;KANDERN ST TANNENKIRCH;11.595;12
29/05/17 00:00;DEZ1279;Eurdep;air;47.56;7.78;0;Germany;0;0;0;RHEINFELDEN;9.587;10
29/05/17 00:00;DEZ1280;Eurdep;air;47.65;7.83;0;Germany;0;0;0;SCHOPFHEIM;12.495000000000001;12
29/05/17 00:00;DEZ1283;Eurdep;air;47.84;7.88;0;Germany;0;0;0;WIEDEN;12.836000000000002;13
29/05/17 00:00;DEZ1284;Eurdep;air;47.54;7.67;0;Germany;0;0;0;GRENZACH-WYHLEN OT GRENZ.;8.486;8.84
29/05/17 00:00;DEZ1286;Eurdep;air;47.82;8.34;0;Germany;0;0;0;BONNDORF;10.673;10
29/05/17 00:00;DEZ1293;Eurdep;air;47.74;8.44;0;Germany;0;0;0;STÜHLINGEN;9.462;10
29/05/17 00:00;DEZ1298;Eurdep;air;48.28;9.48;0;Germany;0;0;0;HAYINGEN;9.764;10
29/05/17 00:00;DEZ1300;Eurdep;air;48.41;9.53;0;Germany;0;0;0;MÜNSINGEN ST AUINGEN;9.248999999999999;9.629999999999999
29/05/17 00:00;DEZ1301;Eurdep;air;48.48;9.23;0;Germany;0;0;0;PFULLINGEN;7.816;8.15
29/05/17 00:00;DEZ1302;Eurdep;air;48.48;9.4;0;Germany;0;0;0;BAD URACH;6.848999999999999;7.06
29/05/17 00:00;DEZ1303;Eurdep;air;48.35;9.33;0;Germany;0;0;0;HOHENSTEIN;10.85;11
29/05/17 00:00;DEZ1305;Eurdep;air;48.4;9.05;0;Germany;0;0;0;MÖSSINGEN;10.108;10
29/05/17 00:00;DEZ1309;Eurdep;air;48.27;8.85;0;Germany;0;0;0;BALINGEN;11.573;12
26/05/17 22:00;DEZ1310;Eurdep;air;48.29;9.14;0;Germany;0;0;0;BURLADINGEN;0;0
26/05/17 22:00;DEZ1311;Eurdep;air;48.35;8.78;0;Germany;0;0;0;HAIGERLOCH ST GRUOL;0;0
29/05/17 00:00;DEZ1313;Eurdep;air;48.21;8.77;0;Germany;0;0;0;SCHÖMBERG;11.045;11
29/05/17 00:00;DEZ1314;Eurdep;air;48.21;9;0;Germany;0;0;0;ALBSTADT ST EBINGEN;8.854000000000001;9.17
29/05/17 00:00;DEZ1317;Eurdep;air;48.47;9.94;0;Germany;0;0;0;DORNSTADT;10.609;11
29/05/17 00:00;DEZ1318;Eurdep;air;48.27;9.73;0;Germany;0;0;0;EHINGEN;9.184999999999999;9.58
29/05/17 00:00;DEZ1323;Eurdep;air;48.37;9.74;0;Germany;0;0;0;SCHELKLINGEN;7.202;7.390000000000001
29/05/17 00:00;DEZ1327;Eurdep;air;48.11;9.42;0;Germany;0;0;0;ERTINGEN OT BINZWANGEN;9.113;9.51
29/05/17 00:00;DEZ1328;Eurdep;air;48.18;9.97;0;Germany;0;0;0;SCHWENDI;8.85;9
29/05/17 00:00;DEZ1331;Eurdep;air;48.2;9.78;0;Germany;0;0;0;SCHEMMERHOFEN OT INGERK.;11.254999999999999;11
29/05/17 00:00;DEZ1335;Eurdep;air;47.59;9.6;0;Germany;0;0;0;KRESSBRONN;8.487;8.809999999999999
29/05/17 00:00;DEZ1337;Eurdep;air;47.78;9.15;0;Germany;0;0;0;ÜBERLINGEN;9.802;9.97
29/05/17 00:00;DEZ1338;Eurdep;air;47.8;9.43;0;Germany;0;0;0;DEGGENHAUSERTAL OT LIMP.;9.302;9.74
29/05/17 00:00;DEZ1339;Eurdep;air;47.94;10.09;0;Germany;0;0;0;AITRACH;8.516;8.85
29/05/17 00:00;DEZ1345;Eurdep;air;47.82;10.02;0;Germany;0;0;0;LEUTKIRCH;8.968;9
26/05/17 22:00;DEZ1346;Eurdep;air;47.8;9.63;0;Germany;0;0;0;RAVENSBURG;0;0
29/05/17 00:00;DEZ1348;Eurdep;air;47.82;9.79;0;Germany;0;0;0;WOLFEGG;9.728;10
29/05/17 00:00;DEZ1349;Eurdep;air;48.05;8.97;0;Germany;0;0;0;BEURON;9.671;11
29/05/17 00:00;DEZ1351;Eurdep;air;48.02;9.23;0;Germany;0;0;0;KRAUCHENWIES OT ABLACH;8.834999999999999;9.47
29/05/17 00:00;DEZ1352;Eurdep;air;47.95;9.37;0;Germany;0;0;0;OSTRACH;9.382;9.790000000000001
26/05/17 22:00;DEZ1354;Eurdep;air;48.09;9.22;0;Germany;0;0;0;SIGMARINGEN;0;0
29/05/17 00:00;DEZ1355;Eurdep;air;48.12;9.08;0;Germany;0;0;0;STETTEN A.K.M.;9.217;9.540000000000001
29/05/17 00:00;DEZ1356;Eurdep;air;47.95;9.03;0;Germany;0;0;0;SAULDORF OT BOLL;9.666;10
29/05/17 00:00;DEZ1357;Eurdep;air;47.86;9.24;0;Germany;0;0;0;HERDWANGEN-SCHÖNACH;8.734;9
29/05/17 00:00;DEZ1360;Eurdep;air;48.15;11.45;0;Germany;0;0;0;MÜNCHEN-PASING;8.808;9.209999999999999
29/05/17 00:00;DEZ1361;Eurdep;air;48.09;11.66;0;Germany;0;0;0;München-Neuperlach;8.193000000000001;8
26/05/17 22:00;DEZ1365;Eurdep;air;48.21;12.88;0;Germany;0;0;0;HAIMING;0;0
29/05/17 00:00;DEZ1374;Eurdep;air;47.61;12.91;0;Germany;0;0;0;RAMSAU;10.564;11
29/05/17 00:00;DEZ1381;Eurdep;air;47.56;11.44;0;Germany;0;0;0;VORDERRIß II;9.067;9.89
29/05/17 00:00;DEZ1384;Eurdep;air;48.36;11.39;0;Germany;0;0;0;MARKT INDERSDORF;9.758;10
29/05/17 00:00;DEZ1386;Eurdep;air;48.08;11.96;0;Germany;0;0;0;EBERSBERG;9.625;9.99
29/05/17 00:00;DEZ1394;Eurdep;air;48.82;11.09;0;Germany;0;0;0;WELLHEIM;9.178;9.52
29/05/17 00:00;DEZ1399;Eurdep;air;48.3;11.84;0;Germany;0;0;0;NOTZING;8.15;8.41
29/05/17 00:00;DEZ1405;Eurdep;air;48.3;11.66;0;Germany;0;0;0;NEUFAHRN BEI FREISING;8.234;8.86
29/05/17 00:00;DEZ1409;Eurdep;air;47.48;11.06;0;Germany;0;0;0;GARMISCH-PARTENKIRCHEN;8.408;9.11
29/05/17 00:00;DEZ1419;Eurdep;air;48.07;11.03;0;Germany;0;0;0;WINDACH;10.197;10
29/05/17 00:00;DEZ1422;Eurdep;air;47.72;11.96;0;Germany;0;0;0;FISCHBACHAU;9.518;9.76
29/05/17 00:00;DEZ1426;Eurdep;air;48.28;12.35;0;Germany;0;0;0;STEFANSKIRCHEN;9.075;9.57
29/05/17 00:00;DEZ1430;Eurdep;air;48.36;12.51;0;Germany;0;0;0;NEUMARKT-ST.VEIT;9.45;9.879999999999999
29/05/17 00:00;DEZ1432;Eurdep;air;47.97;11.63;0;Germany;0;0;0;SAUERLACH;8.89;9.309999999999999
29/05/17 00:00;DEZ1438;Eurdep;air;48.5;11.36;0;Germany;0;0;0;GEROLSBACH;10.495000000000001;10
26/05/17 22:00;DEZ1445;Eurdep;air;47.74;12.12;0;Germany;0;0;0;BRANNENBURG;0;0
29/05/17 00:00;DEZ1447;Eurdep;air;47.8;12.29;0;Germany;0;0;0;FRASDORF;10.052;10
29/05/17 00:00;DEZ1450;Eurdep;air;47.98;12.05;0;Germany;0;0;0;KRONAU;9.838;10
29/05/17 00:00;DEZ1451;Eurdep;air;48.06;12.22;0;Germany;0;0;0;WASSERBURG AM INN;9.109;9.64
26/05/17 22:00;DEZ1453;Eurdep;air;48.07;11.25;0;Germany;0;0;0;WEßLING;0;0
26/05/17 22:00;DEZ1455;Eurdep;air;47.78;12.45;0;Germany;0;0;0;GRASSAU;0;0
29/05/17 00:00;DEZ1460;Eurdep;air;47.67;12.47;0;Germany;0;0;0;REIT IM WINKL;9.504999999999999;10
29/05/17 00:00;DEZ1461;Eurdep;air;47.73;12.66;0;Germany;0;0;0;RUHPOLDING OT LAUBAU;8;9.34
29/05/17 00:00;DEZ1462;Eurdep;air;47.7;12.4;0;Germany;0;0;0;SCHLECHING;10.418000000000001;10
29/05/17 00:00;DEZ1469;Eurdep;air;47.82;11.3;0;Germany;0;0;0;SEESHAUPT;9.317;9.66
26/05/17 22:00;DEZ1470;Eurdep;air;47.83;11.17;0;Germany;0;0;0;WEILHEIM OT DEUTENHAUSEN;0;0
29/05/17 00:00;DEZ1488;Eurdep;air;48.95;11.68;0;Germany;0;0;0;RIEDENBURG;9.497;9.95
29/05/17 00:00;DEZ1490;Eurdep;air;48.55;12.26;0;Germany;0;0;0;ADLKOFEN;11.254999999999999;11
29/05/17 00:00;DEZ1492;Eurdep;air;48.57;12.17;0;Germany;0;0;0;ERGOLDING;9.309999999999999;9.809999999999999
29/05/17 00:00;DEZ1495;Eurdep;air;48.59;12.23;0;Germany;0;0;0;OHU;10.541;11
29/05/17 00:00;DEZ1496;Eurdep;air;48.64;12.27;0;Germany;0;0;0;METTENBACH;9.395;9.940000000000001
29/05/17 00:00;DEZ1497;Eurdep;air;48.47;12.27;0;Germany;0;0;0;GEISENHAUSEN;10.532;10
29/05/17 00:00;DEZ1498;Eurdep;air;48.51;12.42;0;Germany;0;0;0;GERZEN;11.895;12
29/05/17 00:00;DEZ1502;Eurdep;air;48.65;12.33;0;Germany;0;0;0;POSTAU;9.572;10
29/05/17 00:00;DEZ1507;Eurdep;air;48.52;12;0;Germany;0;0;0;BRUCKBERG;9.782;10
29/05/17 00:00;DEZ1511;Eurdep;air;48.72;13.33;0;Germany;0;0;0;FÜRSTENSTEIN;16.05;16
29/05/17 00:00;DEZ1523;Eurdep;air;49.04;12.99;0;Germany;0;0;0;TEISNACH;15.127;15
29/05/17 00:00;DEZ1530;Eurdep;air;48.44;12.57;0;Germany;0;0;0;GANGKOFEN;10.232;10
29/05/17 00:00;DEZ1531;Eurdep;air;48.24;12.98;0;Germany;0;0;0;KIRCHDORF AM INN;7.813;8.15
29/05/17 00:00;DEZ1532;Eurdep;air;48.48;12.84;0;Germany;0;0;0;SCHÖNAU 1;12.277;13
28/05/17 21:00;DEZ1534;Eurdep;air;48.38;12.96;0;Germany;0;0;0;NEUKIRCHEN BEI PFARRKIRCHEN;11.620000000000001;11
26/05/17 22:00;DEZ1537;Eurdep;air;48.94;12.72;0;Germany;0;0;0;HUNDERDORF;0;0
29/05/17 00:00;DEZ1544;Eurdep;air;48.63;12.86;0;Germany;0;0;0;EICHENDORF;9.123000000000001;9.620000000000001
29/05/17 00:00;DEZ1550;Eurdep;air;48.74;12.75;0;Germany;0;0;0;WALLERSDORF;11.032;11
29/05/17 00:00;DEZ1553;Eurdep;air;49.04;12.1;0;Germany;0;0;0;REGENSBURG;9.167;9.53
29/05/17 00:00;DEZ1559;Eurdep;air;49.26;11.93;0;Germany;0;0;0;SCHMIDMÜHLEN;10.247;10
29/05/17 00:00;DEZ1560;Eurdep;air;49.5;11.74;0;Germany;0;0;0;SULZBACH-ROSENBERG;9.861;10
29/05/17 00:00;DEZ1565;Eurdep;air;49.1;12.48;0;Germany;0;0;0;FALKENSTEIN;12.395;12
29/05/17 00:00;DEZ1568;Eurdep;air;49.2;13.05;0;Germany;0;0;0;LAM;14.177000000000001;14
29/05/17 00:00;DEZ1572;Eurdep;air;49.36;12.61;0;Germany;0;0;0;SCHÖNTHAL;13.732;14
29/05/17 00:00;DEZ1583;Eurdep;air;49.16;11.73;0;Germany;0;0;0;PARSBERG;9.568000000000001;9.940000000000001
29/05/17 00:00;DEZ1586;Eurdep;air;49.29;11.62;0;Germany;0;0;0;VELBURG OT UNTERWIESENACKER;8.709;9.040000000000001
29/05/17 00:00;DEZ1604;Eurdep;air;48.84;12.19;0;Germany;0;0;0;SCHIERLING-EGGMÜHL;8.916;9.34
29/05/17 00:00;DEZ1607;Eurdep;air;49.25;12.3;0;Germany;0;0;0;BRUCK IN DER OBERPFALZ;11.068000000000001;11
29/05/17 00:00;DEZ1608;Eurdep;air;49.2;12.06;0;Germany;0;0;0;BURGLENGENFELD;11.155;11
29/05/17 00:00;DEZ1615;Eurdep;air;49.51;12.54;0;Germany;0;0;0;SCHÖNSEE;10.581999999999999;11
29/05/17 00:00;DEZ1617;Eurdep;air;49.4;12.14;0;Germany;0;0;0;SCHWARZENFELD;11.791;12
29/05/17 00:00;DEZ1620;Eurdep;air;49.81;12.44;0;Germany;0;0;0;BÄRNAU;12.695;13
29/05/17 00:00;DEZ1626;Eurdep;air;49.88;12.34;0;Germany;0;0;0;TIRSCHENREUTH;12.918000000000001;13
29/05/17 00:00;DEZ1627;Eurdep;air;50;12.3;0;Germany;0;0;0;WALDSASSEN;12.245000000000001;12
29/05/17 00:00;DEZ1632;Eurdep;air;49.99;10.85;0;Germany;0;0;0;BAUNACH;10.009;10
29/05/17 00:00;DEZ1635;Eurdep;air;49.89;11.11;0;Germany;0;0;0;HEILIGENSTADT I. OFR.;8.305;8.53
29/05/17 00:00;DEZ1637;Eurdep;air;49.97;11.03;0;Germany;0;0;0;SCHEßLITZ;10.695;10
29/05/17 00:00;DEZ1638;Eurdep;air;50;11.2;0;Germany;0;0;0;STADELHOFEN;9.433;9.82
29/05/17 00:00;DEZ1640;Eurdep;air;49.85;11.62;0;Germany;0;0;0;CREUßEN;8.61;9.36
29/05/17 00:00;DEZ1646;Eurdep;air;49.77;11.41;0;Germany;0;0;0;POTTENSTEIN;9.244;9.65
29/05/17 00:00;DEZ1648;Eurdep;air;49.87;11.33;0;Germany;0;0;0;WAISCHENFELD OT NANKENDORF;9.012;9.379999999999999
29/05/17 00:00;DEZ1650;Eurdep;air;50.32;10.9;0;Germany;0;0;0;MEEDER;12.251999999999999;12
26/05/17 22:00;DEZ1651;Eurdep;air;50.33;11.1;0;Germany;0;0;0;NEUSTADT BEI COBURG;0;0
29/05/17 00:00;DEZ1656;Eurdep;air;49.78;11.19;0;Germany;0;0;0;EBERMANNSTADT;8.945;9.290000000000001
29/05/17 00:00;DEZ1657;Eurdep;air;49.65;11.24;0;Germany;0;0;0;GRÄFENBERG;10.462;10
29/05/17 00:00;DEZ1661;Eurdep;air;50.34;11.6;0;Germany;0;0;0;GEROLDSGRÜN;8.154;8.370000000000001
29/05/17 00:00;DEZ1675;Eurdep;air;50.4;11.38;0;Germany;0;0;0;TEUSCHNITZ;11.619;12
26/05/17 22:00;DEZ1683;Eurdep;air;50.07;11.09;0;Germany;0;0;0;BAD STAFFELSTEIN;0;0
28/05/17 23:00;DEZ1685;Eurdep;air;50;12.07;0;Germany;0;0;0;MARKTREDWITZ;11;12
29/05/17 00:00;DEZ1689;Eurdep;air;49.32;10.57;0;Germany;0;0;0;ANSBACH;11.171;11
29/05/17 00:00;DEZ1694;Eurdep;air;49.44;10.17;0;Germany;0;0;0;ADELSHOFEN;10.638;11
29/05/17 00:00;DEZ1698;Eurdep;air;49.07;10.32;0;Germany;0;0;0;DINKELSBÜHL;10.962;11
29/05/17 00:00;DEZ1699;Eurdep;air;49.2;10.31;0;Germany;0;0;0;FEUCHTWANGEN OT BANZENWEILER;13.318000000000001;13
29/05/17 00:00;DEZ1700;Eurdep;air;49.06;10.5;0;Germany;0;0;0;GEROLFINGEN;10.437999999999999;10
29/05/17 00:00;DEZ1701;Eurdep;air;49.34;10.79;0;Germany;0;0;0;HEILSBRONN;10.781;11
29/05/17 00:00;DEZ1709;Eurdep;air;49.62;10.83;0;Germany;0;0;0;WEISENDORF;11.824;12
26/05/17 22:00;DEZ1719;Eurdep;air;49.44;10.33;0;Germany;0;0;0;BURGBERNHEIM;0;0
29/05/17 00:00;DEZ1720;Eurdep;air;49.73;10.6;0;Germany;0;0;0;BURGHASLACH;11.524;11
29/05/17 00:00;DEZ1721;Eurdep;air;49.58;10.62;0;Germany;0;0;0;NEUSTADT AN DER AISCH;11.405;11
29/05/17 00:00;DEZ1723;Eurdep;air;49.67;10.46;0;Germany;0;0;0;SCHEINFELD;11.633;12
26/05/17 22:00;DEZ1724;Eurdep;air;49.6;10.44;0;Germany;0;0;0;SUGENHEIM;0;0
29/05/17 00:00;DEZ1728;Eurdep;air;49.13;11.11;0;Germany;0;0;0;HEIDECK;10.106;10
29/05/17 00:00;DEZ1734;Eurdep;air;49.02;10.74;0;Germany;0;0;0;HEIDENHEIM AM HAHNE;9.39;9
29/05/17 00:00;DEZ1736;Eurdep;air;49.01;11.13;0;Germany;0;0;0;RAITENBUCH;11.495000000000001;11
29/05/17 00:00;DEZ1740;Eurdep;air;50.04;10.21;0;Germany;0;0;0;SCHWEINFURT;11.790000000000001;12
29/05/17 00:00;DEZ1741;Eurdep;air;49.77;9.96;0;Germany;0;0;0;WÜRZBURG;9.101;9.33
26/05/17 22:00;DEZ1743;Eurdep;air;50;9.17;0;Germany;0;0;0;GOLDBACH;0;0
29/05/17 00:00;DEZ1755;Eurdep;air;50.2;9.96;0;Germany;0;0;0;OBERTHULBA;12.633;13
29/05/17 00:00;DEZ1760;Eurdep;air;50.36;10.46;0;Germany;0;0;0;HÖCHHEIM OT IRMELSHAUSEN;11.729000000000001;12
29/05/17 00:00;DEZ1766;Eurdep;air;50.36;10.23;0;Germany;0;0;0;WOLLBACH;9.76;10
29/05/17 00:00;DEZ1772;Eurdep;air;50.2;10.66;0;Germany;0;0;0;MAROLDSWEISACH;11.281;11
29/05/17 00:00;DEZ1773;Eurdep;air;49.89;10.55;0;Germany;0;0;0;RAUHENEBRACH OT UNTERSTEINBACH;11.495000000000001;11
29/05/17 00:00;DEZ1775;Eurdep;air;49.64;10.22;0;Germany;0;0;0;SEINSHEIM;10.471;11
29/05/17 00:00;DEZ1778;Eurdep;air;49.78;9.38;0;Germany;0;0;0;DORFPROZELTEN;9.673;10
26/05/17 22:00;DEZ1780;Eurdep;air;49.72;9.21;0;Germany;0;0;0;KLEINHEUBACH;0;0
29/05/17 00:00;DEZ1783;Eurdep;air;49.98;9.96;0;Germany;0;0;0;ARNSTEIN;9.943999999999999;10
20/05/17 22:00;DEZ1785;Eurdep;air;50.06;9.69;0;Germany;0;0;0;GEMÜNDEN AM MAIN;0;0
29/05/17 00:00;DEZ1788;Eurdep;air;49.85;9.63;0;Germany;0;0;0;MARKTHEIDENFELD;9.068999999999999;9.45
29/05/17 00:00;DEZ1789;Eurdep;air;49.95;9.67;0;Germany;0;0;0;STEINFELD;10.270999999999999;10
29/05/17 00:00;DEZ1793;Eurdep;air;49.99;10.31;0;Germany;0;0;0;GRETTSTADT;8.743;9.34
29/05/17 00:00;DEZ1794;Eurdep;air;49.92;10.23;0;Germany;0;0;0;KOLITZHEIM;10.51;11
29/05/17 00:00;DEZ1797;Eurdep;air;50.04;10;0;Germany;0;0;0;WASSERLOSEN / BURGHAUSEN;10.852;11
26/05/17 22:00;DEZ1799;Eurdep;air;49.61;9.91;0;Germany;0;0;0;BÜTTHARD OT HÖTTINGEN;0;0
29/05/17 00:00;DEZ1801;Eurdep;air;49.76;9.71;0;Germany;0;0;0;HELMSTADT;9.477;10
29/05/17 00:00;DEZ1804;Eurdep;air;49.85;10.04;0;Germany;0;0;0;KÜRNACH;10.486;11
29/05/17 00:00;DEZ1807;Eurdep;air;49.51;9.97;0;Germany;0;0;0;RÖTTINGEN;10.226;10
29/05/17 00:00;DEZ1808;Eurdep;air;49.88;9.84;0;Germany;0;0;0;THÜNGERSHEIM;9.137;9.620000000000001
29/05/17 00:00;DEZ1812;Eurdep;air;47.72;10.34;0;Germany;0;0;0;KEMPTEN;11.427;11
29/05/17 00:00;DEZ1824;Eurdep;air;48.17;10.6;0;Germany;0;0;0;MITTELNEUFNACH;10.705;11
29/05/17 00:00;DEZ1825;Eurdep;air;48.4;10.61;0;Germany;0;0;0;ZUSMARSHAUSEN;8.894;9.16
29/05/17 00:00;DEZ1827;Eurdep;air;48.49;10.44;0;Germany;0;0;0;BAUMGARTEN;9.535;10
29/05/17 00:00;DEZ1828;Eurdep;air;48.57;10.5;0;Germany;0;0;0;DILLINGEN A. D. DONAU;9.387;9.959999999999999
29/05/17 00:00;DEZ1833;Eurdep;air;48.46;10.26;0;Germany;0;0;0;GÜNZBURG;9.114;9.879999999999999
29/05/17 00:00;DEZ1834;Eurdep;air;48.37;10.3;0;Germany;0;0;0;ICHENHAUSEN;8.413;8.870000000000001
29/05/17 00:00;DEZ1835;Eurdep;air;48.38;10.44;0;Germany;0;0;0;JETTINGEN-SCHEPPACH;9.157;9.709999999999999
29/05/17 00:00;DEZ1838;Eurdep;air;48.27;10.47;0;Germany;0;0;0;THANNHAUSEN;7.961;8.49
29/05/17 00:00;DEZ1840;Eurdep;air;48.43;10.15;0;Germany;0;0;0;OBERFAHLHEIM;10.339;10
29/05/17 00:00;DEZ1841;Eurdep;air;48.34;10.04;0;Germany;0;0;0;GERLENHOFEN;9.603;10
29/05/17 00:00;DEZ1842;Eurdep;air;48.3;10.17;0;Germany;0;0;0;WEIßENHORN;9.411;9.74
26/05/17 22:00;DEZ1844;Eurdep;air;47.6;9.88;0;Germany;0;0;0;LINDENBERG IM ALLGÄU;0;0
29/05/17 00:00;DEZ1846;Eurdep;air;48.03;10.72;0;Germany;0;0;0;BUCHLOE;10.190999999999999;10
29/05/17 00:00;DEZ1847;Eurdep;air;47.7;10.52;0;Germany;0;0;0;GÖRISRIED;9.686;10
29/05/17 00:00;DEZ1851;Eurdep;air;47.85;10.41;0;Germany;0;0;0;OBERGÜNZBURG;10.267;10
29/05/17 00:00;DEZ1854;Eurdep;air;48.03;10.34;0;Germany;0;0;0;ERKHEIM;9.213;9.78
29/05/17 00:00;DEZ1858;Eurdep;air;47.99;10.21;0;Germany;0;0;0;MEMMINGERBERG;10.543000000000001;11
29/05/17 00:00;DEZ1859;Eurdep;air;48.04;10.49;0;Germany;0;0;0;MINDELHEIM;9.913;10
29/05/17 00:00;DEZ1864;Eurdep;air;48.96;10.61;0;Germany;0;0;0;HAINSFARTH;10.48;11
29/05/17 00:00;DEZ1865;Eurdep;air;48.78;10.7;0;Germany;0;0;0;HARBURG;7.6530000000000005;8.03
29/05/17 00:00;DEZ1866;Eurdep;air;48.84;10.85;0;Germany;0;0;0;MONHEIM;10.286;10
29/05/17 00:00;DEZ1867;Eurdep;air;48.85;10.51;0;Germany;0;0;0;NÖRDLINGEN;11.671;12
29/05/17 00:00;DEZ1869;Eurdep;air;48.87;10.73;0;Germany;0;0;0;WEMDING;9.448;9.709999999999999
29/05/17 00:00;DEZ1870;Eurdep;air;47.49;10.39;0;Germany;0;0;0;BAD HINDELANG OT BAD OBERDORF;9.023;9.55
29/05/17 00:00;DEZ1873;Eurdep;air;47.4;10.28;0;Germany;0;0;0;OBERSTDORF;9.281;9.92
29/05/17 00:00;DEZ1874;Eurdep;air;47.64;10.13;0;Germany;0;0;0;WEITNAU;9.652;10
29/05/17 00:00;DEZ1877;Eurdep;air;49.23;6.92;0;Germany;0;0;0;SAARBRÜCKEN-GERSWEILER;11.281;11
29/05/17 00:00;DEZ1883;Eurdep;air;49.42;6.76;0;Germany;0;0;0;BECKINGEN-DÜPPENWEILER;11.238;11
29/05/17 00:00;DEZ1884;Eurdep;air;49.55;6.73;0;Germany;0;0;0;LOSHEIM-SCHEIDEN;9;10
29/05/17 00:00;DEZ1885;Eurdep;air;49.43;6.58;0;Germany;0;0;0;MERZIG-SILWINGEN;11;11
29/05/17 00:00;DEZ1886;Eurdep;air;49.49;6.62;0;Germany;0;0;0;METTLACH;9.397;9.73
29/05/17 00:00;DEZ1887;Eurdep;air;49.5;6.5;0;Germany;0;0;0;METTLACH-ORSCHOLZ;10.333;11
29/05/17 00:00;DEZ1888;Eurdep;air;49.5;6.44;0;Germany;0;0;0;PERL-BORG;8.686;9
29/05/17 00:00;DEZ1892;Eurdep;air;49.4;7.17;0;Germany;0;0;0;OTTWEILER;11.062000000000001;11
29/05/17 00:00;DEZ1894;Eurdep;air;49.39;6.9;0;Germany;0;0;0;LEBACH-EIDENBORN;10.971;11
29/05/17 00:00;DEZ1895;Eurdep;air;49.36;6.62;0;Germany;0;0;0;REHLINGEN-SIERSBURG-HEMMERSDORF;10.743;11
29/05/17 00:00;DEZ1897;Eurdep;air;49.26;6.69;0;Germany;0;0;0;ÜBERHERRN-BERUS;9.677;9.99
29/05/17 00:00;DEZ1898;Eurdep;air;49.32;6.66;0;Germany;0;0;0;WALLERFANGEN-KERLINGEN;10.471;10
29/05/17 00:00;DEZ1899;Eurdep;air;49.28;6.79;0;Germany;0;0;0;BOUS;10.471;10
29/05/17 00:00;DEZ1900;Eurdep;air;49.24;7.27;0;Germany;0;0;0;BLIESKASTEL-WEBENHEIM;11.543000000000001;12
29/05/17 00:00;DEZ1901;Eurdep;air;49.15;7.22;0;Germany;0;0;0;GERSHEIM;11;12
29/05/17 00:00;DEZ1903;Eurdep;air;49.31;7.34;0;Germany;0;0;0;HOMBURG/SAAR;9.726;10
29/05/17 00:00;DEZ1906;Eurdep;air;49.55;7.25;0;Germany;0;0;0;FREISEN;12.99;13
29/05/17 00:00;DEZ1913;Eurdep;air;47.57;10.96;0;Germany;0;0;0;LINDERHOF;8.136;8.379999999999999
29/05/17 00:00;DEZ1914;Eurdep;air;47.46;11.18;0;Germany;0;0;0;KLAIS OT ELMAU;12;13
29/05/17 00:00;DEZ1915;Eurdep;air;47.64;11.75;0;Germany;0;0;0;KREUTH;9.581999999999999;10
29/05/17 00:00;DEZ1917;Eurdep;air;48.24;11.55;0;Germany;0;0;0;OBERSCHLEIßHEIM;8.159;8.809999999999999
29/05/17 00:00;DEZ1918;Eurdep;air;48.08;11.37;0;Germany;0;0;0;GAUTING;8.702;8.97
29/05/17 00:00;DEZ1919;Eurdep;air;48.83;13.78;0;Germany;0;0;0;HAIDMÜHLE;17.957;18
29/05/17 00:00;DEZ1921;Eurdep;air;48.93;13.46;0;Germany;0;0;0;WALDHÄUSER;12.709999999999999;13
29/05/17 00:00;DEZ1930;Eurdep;air;48.47;10.49;0;Germany;0;0;0;WINTERBACH;9.186;9.51
29/05/17 00:00;DEZ1934;Eurdep;air;47.56;10.74;0;Germany;0;0;0;HOHENSCHWANGAU;8.587;8.86
29/05/17 00:00;DEZ1939;Eurdep;air;52.45;10.94;0;Germany;0;0;0;GRAFHORST;8.174;8.47
29/05/17 00:00;DEZ1940;Eurdep;air;52.1;10.87;0;Germany;0;0;0;INGELEBEN;9.434999999999999;9.67
29/05/17 00:00;DEZ1945;Eurdep;air;53.44;9.91;0;Germany;0;0;0;VAHRENDORF;7.478;7.890000000000001
29/05/17 00:00;DEZ1946;Eurdep;air;53.38;10.11;0;Germany;0;0;0;STELLE/HARBURG;6.869;7.25
29/05/17 00:00;DEZ1947;Eurdep;air;53.03;11.3;0;Germany;0;0;0;GEDELITZ;6.244;6.45
29/05/17 00:00;DEZ1949;Eurdep;air;51.83;6.54;0;Germany;0;0;0;BOCHOLT-LIEDERN;7.058;7.840000000000001
29/05/17 00:00;DEZ1950;Eurdep;air;51.82;6.93;0;Germany;0;0;0;HEIDEN;6.837000000000001;8.22
29/05/17 00:00;DEZ1953;Eurdep;air;52.02;8.59;0;Germany;0;0;0;BIELEFELD;7.334999999999999;9.02
29/05/17 00:00;DEZ1954;Eurdep;air;51.96;8.37;0;Germany;0;0;0;GÜTERSLOH-HOLLEN;6.311;7.33
29/05/17 00:00;DEZ1955;Eurdep;air;51.63;9.29;0;Germany;0;0;0;BEVERUNGEN-DAHLHAUSEN;10.202;10
29/05/17 00:00;DEZ1956;Eurdep;air;51.7;9.28;0;Germany;0;0;0;HÖXTER-BRUCHHAUSEN;10.206999999999999;11
29/05/17 00:00;DEZ1961;Eurdep;air;51.49;6.96;0;Germany;0;0;0;ESSEN-BERGEBORBECK;9.129000000000001;11
29/05/17 00:00;DEZ1964;Eurdep;air;51.27;6.37;0;Germany;0;0;0;VIERSEN;8.443999999999999;10
29/05/17 00:00;DEZ1967;Eurdep;air;50.91;6.41;0;Germany;0;0;0;JÜLICH;8.507;8.76
29/05/17 00:00;DEZ1968;Eurdep;air;50.98;6.68;0;Germany;0;0;0;BERGHEIM-NIEDERAUßEM;9.472;9.91
29/05/17 00:00;DEZ1971;Eurdep;air;50.59;6.66;0;Germany;0;0;0;MECHERNICH;10.145;12
29/05/17 00:00;DEZ1975;Eurdep;air;49.21;7.11;0;Germany;0;0;0;SAARBRÜCKEN-ENSHEIM;10.705;11
26/05/17 22:00;DEZ1977;Eurdep;air;49.2;12.79;0;Germany;0;0;0;CHAMERAU OT LEDERDORN;0;0
29/05/17 00:00;DEZ1987;Eurdep;air;48.02;11.48;0;Germany;0;0;0;BAIERBRUNN;10.41;10
29/05/17 00:00;DEZ1990;Eurdep;air;47.89;12.41;0;Germany;0;0;0;GSTADT AM CHIEMSEE;10.068000000000001;10
29/05/17 00:00;DEZ1994;Eurdep;air;48.91;13.09;0;Germany;0;0;0;BISCHOFSMAIS;14.49;14
29/05/17 00:00;DEZ1997;Eurdep;air;54.1;13.41;0;Germany;0;0;0;GREIFSWALD;7.88;8.190000000000001
29/05/17 00:00;DEZ1999;Eurdep;air;53.64;11.39;0;Germany;0;0;0;SCHWERIN;8.206;8.49
29/05/17 00:00;DEZ2000;Eurdep;air;53.9;11.42;0;Germany;0;0;0;WISMAR;8.969;9.440000000000001
29/05/17 00:00;DEZ2002;Eurdep;air;53.9;13.05;0;Germany;0;0;0;DEMMIN;8.091;8.85
29/05/17 00:00;DEZ2010;Eurdep;air;54.44;12.73;0;Germany;0;0;0;ZINGST;6.817;7.470000000000001
29/05/17 00:00;DEZ2013;Eurdep;air;54.68;13.43;0;Germany;0;0;0;PUTGARTEN OT ARKONA;8.138;8
29/05/17 00:00;DEZ2019;Eurdep;air;53.77;8.64;0;Germany;0;0;0;NORDHOLZ;7.069;7.470000000000001
29/05/17 00:00;DEZ2020;Eurdep;air;53.41;8.79;0;Germany;0;0;0;STUBBEN;6.928;7.83
26/05/17 22:00;DEZ2022;Eurdep;air;53.55;7.94;0;Germany;0;0;0;SCHORTENS-HEIDMÜHLE;0;0
29/05/17 00:00;DEZ2023;Eurdep;air;53.54;8.47;0;Germany;0;0;0;NORDENHAM-SCHWEEWARDEN;8.933;9.690000000000001
29/05/17 00:00;DEZ2028;Eurdep;air;53.19;8.58;0;Germany;0;0;0;BREMEN-BLUMENTHAL;6;7.65
29/05/17 00:00;DEZ2030;Eurdep;air;52.29;10.45;0;Germany;0;0;0;BRAUNSCHWEIG / WATENBÜTTEL;7.814;8
29/05/17 00:00;DEZ2032;Eurdep;air;51.83;9.87;0;Germany;0;0;0;EINBECK;11.129000000000001;11
29/05/17 00:00;DEZ2033;Eurdep;air;52.23;9.67;0;Germany;0;0;0;BENNIGSEN;10;10
29/05/17 00:00;DEZ2036;Eurdep;air;52.24;9.86;0;Germany;0;0;0;SARSTEDT;9.568999999999999;9.790000000000001
29/05/17 00:00;DEZ2039;Eurdep;air;52.6;10.04;0;Germany;0;0;0;CELLE-WIETZENBRUCH;6.648999999999999;6.93
29/05/17 00:00;DEZ2043;Eurdep;air;51.69;13.23;0;Germany;0;0;0;HERZBERG/ELSTER;7.867;8.26
29/05/17 00:00;DEZ2071;Eurdep;air;51.37;6.44;0;Germany;0;0;0;KEMPEN;8.559000000000001;9.92
29/05/17 00:00;DEZ2076;Eurdep;air;50.94;7.05;0;Germany;0;0;0;KÖLN-MERHEIM;9.406;9.809999999999999
29/05/17 00:00;DEZ2079;Eurdep;air;50.72;6.4;0;Germany;0;0;0;HÜRTGENWALD-KLEINHAU;9.806000000000001;10
29/05/17 00:00;DEZ2081;Eurdep;air;50.97;6.58;0;Germany;0;0;0;BERGHEIM-GLESCH;10;11
29/05/17 00:00;DEZ2082;Eurdep;air;50.89;6.87;0;Germany;0;0;0;HÜRTH;9.929;10
29/05/17 00:00;DEZ2084;Eurdep;air;50.67;6.76;0;Germany;0;0;0;EUSKIRCHEN;9.327;10
29/05/17 00:00;DEZ2086;Eurdep;air;49.55;8.59;0;Germany;0;0;0;VIERNHEIM;8.898;9.629999999999999
29/05/17 00:00;DEZ2088;Eurdep;air;50.6;8.84;0;Germany;0;0;0;REISKIRCHEN;10;10
29/05/17 00:00;DEZ2089;Eurdep;air;50.82;8.53;0;Germany;0;0;0;DAUTPHETAL;8.927;9.35
29/05/17 00:00;DEZ2096;Eurdep;air;50.86;9.48;0;Germany;0;0;0;OBERAULA;10.843;11
29/05/17 00:00;DEZ2098;Eurdep;air;51.11;9.12;0;Germany;0;0;0;BAD WILDUNGEN;11.652;12
26/05/17 22:00;DEZ2102;Eurdep;air;51.32;13.29;0;Germany;0;0;0;RIESA;0;0
29/05/17 00:00;DEZ2103;Eurdep;air;50.88;12.13;0;Germany;0;0;0;GERA OT LEUMNITZ;10.013;10
29/05/17 00:00;DEZ2108;Eurdep;air;49.6;7.06;0;Germany;0;0;0;NOHFELDEN-SÖTERN;12.352;12
29/05/17 00:00;DEZ2117;Eurdep;air;53.03;13.99;0;Germany;0;0;0;KERKOW;8.512;8.790000000000001
29/05/17 00:00;DEZ2118;Eurdep;air;52.87;14.15;0;Germany;0;0;0;HOHENSAATEN;7.2909999999999995;7.62
29/05/17 00:00;DEZ2120;Eurdep;air;52.21;14.12;0;Germany;0;0;0;LINDENBERG;7.779000000000001;8.14
29/05/17 00:00;DEZ2123;Eurdep;air;52.28;12.61;0;Germany;0;0;0;GOLZOW;6.983;7.2299999999999995
29/05/17 00:00;DEZ2124;Eurdep;air;52.92;13.73;0;Germany;0;0;0;ALTENHOF;7.571;7.890000000000001
29/05/17 00:00;DEZ2126;Eurdep;air;53.14;13.03;0;Germany;0;0;0;NEUGLOBSOW;6.768000000000001;6.99
29/05/17 00:00;DEZ2134;Eurdep;air;53.16;12.2;0;Germany;0;0;0;PRITZWALK;8.004000000000001;8.36
29/05/17 00:00;DEZ2135;Eurdep;air;52.53;14.37;0;Germany;0;0;0;SEELOW;7.909999999999999;8.209999999999999
29/05/17 00:00;DEZ2137;Eurdep;air;51.51;13.98;0;Germany;0;0;0;SENFTENBERG;7.648000000000001;7.87
29/05/17 00:00;DEZ2148;Eurdep;air;51.27;12.67;0;Germany;0;0;0;BEIERSDORF;11.186;11
29/05/17 00:00;DEZ2150;Eurdep;air;51.27;13.89;0;Germany;0;0;0;KÖNIGSBRÜCK;8.222;8
29/05/17 00:00;DEZ2153;Eurdep;air;51.29;14.85;0;Germany;0;0;0;NIESKY;8.34;8.77
29/05/17 00:00;DEZ2157;Eurdep;air;51.49;14.63;0;Germany;0;0;0;WEIßWASSER;7.0329999999999995;7.459999999999999
29/05/17 00:00;DEZ2161;Eurdep;air;50.98;12.52;0;Germany;0;0;0;NOBITZ;12.048;12
29/05/17 00:00;DEZ2163;Eurdep;air;50.8;10.25;0;Germany;0;0;0;BAD SALZUNGEN;12.504999999999999;13
29/05/17 00:00;DEZ2165;Eurdep;air;50.96;10.71;0;Germany;0;0;0;GOTHA;12.91;13
29/05/17 00:00;DEZ2166;Eurdep;air;51.2;10.44;0;Germany;0;0;0;MÜHLHAUSEN;11.881;12
29/05/17 00:00;DEZ2167;Eurdep;air;51.5;10.81;0;Germany;0;0;0;NORDHAUSEN;12.818999999999999;13
29/05/17 00:00;DEZ2174;Eurdep;air;53.29;9.5;0;Germany;0;0;0;SITTENSEN;7.055;7.35
29/05/17 00:00;DEZ2175;Eurdep;air;52.96;7.27;0;Germany;0;0;0;DERSUM;8.368;8.76
29/05/17 00:00;DEZ2176;Eurdep;air;52.52;7.31;0;Germany;0;0;0;LINGEN / DWD;5.775;6.65
29/05/17 00:00;DEZ2178;Eurdep;air;53.28;10.73;0;Germany;0;0;0;BLECKEDE;6.5280000000000005;6.790000000000001
29/05/17 00:00;DEZ2182;Eurdep;air;52.17;9;0;Germany;0;0;0;KALLETAL-STEMMEN;10.334999999999999;11
29/05/17 00:00;DEZ2183;Eurdep;air;51.47;8.71;0;Germany;0;0;0;WÜNNENBERG-BLEIWÄSCHE;9.190999999999999;10
29/05/17 00:00;DEZ2184;Eurdep;air;51.18;8.49;0;Germany;0;0;0;WINTERBERG-KAHLER ASTEN;10.248999999999999;10
29/05/17 00:00;DEZ2186;Eurdep;air;50.71;8.08;0;Germany;0;0;0;BURBACH;8.875;9.36
29/05/17 00:00;DEZ2188;Eurdep;air;50.84;8.02;0;Germany;0;0;0;SIEGEN;11.971;12
29/05/17 00:00;DEZ2190;Eurdep;air;50.55;6.25;0;Germany;0;0;0;MONSCHAU-HÖFEN;10.689;11
29/05/17 00:00;DEZ2192;Eurdep;air;51.08;7.53;0;Germany;0;0;0;MARIENHEIDE;10.064;10
29/05/17 00:00;DEZ2196;Eurdep;air;49.21;8.18;0;Germany;0;0;0;LANDAU/PF.-MÖRLHEIM;9.652;10
29/05/17 00:00;DEZ2197;Eurdep;air;49.46;8.44;0;Germany;0;0;0;LUDWIGSHAFEN/RHEIN;9.495999999999999;9.690000000000001
29/05/17 00:00;DEZ2198;Eurdep;air;49.36;8.14;0;Germany;0;0;0;NEUSTADT/WEINSTR. OT HAARDT.;8.827;9.120000000000001
29/05/17 00:00;DEZ2199;Eurdep;air;49.31;8.45;0;Germany;0;0;0;SPEYER;8.597;8.85
29/05/17 00:00;DEZ2200;Eurdep;air;48.98;8.14;0;Germany;0;0;0;SCHEIBENHARDT;9.006;9.15
29/05/17 00:00;DEZ2201;Eurdep;air;49.13;8.15;0;Germany;0;0;0;STEINWEILER;8.739;9.03
29/05/17 00:00;DEZ2203;Eurdep;air;48.9;9.13;0;Germany;0;0;0;ASPERG;11.071;11
29/05/17 00:00;DEZ2204;Eurdep;air;49.04;9.12;0;Germany;0;0;0;BÖNNIGHEIM ST HOHENSTEIN;11;12
26/05/17 22:00;DEZ2205;Eurdep;air;48.94;9.29;0;Germany;0;0;0;ERDMANNHAUSEN;0;0
29/05/17 00:00;DEZ2207;Eurdep;air;49;9.11;0;Germany;0;0;0;LÖCHGAU;11.209999999999999;11
29/05/17 00:00;DEZ2210;Eurdep;air;48.83;9.14;0;Germany;0;0;0;KORNTAL-MÜNCHINGEN;12.067;12
29/05/17 00:00;DEZ2211;Eurdep;air;48.95;9.45;0;Germany;0;0;0;BACKNANG;10.266;10
29/05/17 00:00;DEZ2213;Eurdep;air;49.24;9.11;0;Germany;0;0;0;BAD RAPPENAU;10.881;11
29/05/17 00:00;DEZ2214;Eurdep;air;49.16;8.99;0;Germany;0;0;0;GEMMINGEN;10.738;11
29/05/17 00:00;DEZ2215;Eurdep;air;49.06;9.29;0;Germany;0;0;0;ILSFELD OT AUENSTEIN;11.329;11
29/05/17 00:00;DEZ2216;Eurdep;air;49.1;9.39;0;Germany;0;0;0;LÖWENSTEIN;11.186;11
29/05/17 00:00;DEZ2220;Eurdep;air;48.6;10.25;0;Germany;0;0;0;HERMARINGEN;10.395;10
29/05/17 00:00;DEZ2223;Eurdep;air;48.95;8.39;0;Germany;0;0;0;ETTLINGEN;10.495000000000001;10
29/05/17 00:00;DEZ2224;Eurdep;air;49.24;8.46;0;Germany;0;0;0;PHILIPPSBURG;8.853;9.14
29/05/17 00:00;DEZ2229;Eurdep;air;49.23;8.51;0;Germany;0;0;0;WAGHÄUSEL OT WIESENTAL;9.089;9.620000000000001
29/05/17 00:00;DEZ2230;Eurdep;air;49.26;8.5;0;Germany;0;0;0;OBERHAUSEN-RHEINHAUSEN;9.556000000000001;9.790000000000001
29/05/17 00:00;DEZ2232;Eurdep;air;49.16;8.42;0;Germany;0;0;0;DETTENHEIM OT LIEDOLSHEIM;8.811;9
29/05/17 00:00;DEZ2233;Eurdep;air;48.95;8.23;0;Germany;0;0;0;AU AM RHEIN;8.827;9.25
29/05/17 00:00;DEZ2234;Eurdep;air;48.86;8.2;0;Germany;0;0;0;RASTATT;9.355;9.620000000000001
29/05/17 00:00;DEZ2235;Eurdep;air;48.9;8.2;0;Germany;0;0;0;STEINMAUERN;9.133;9.55
29/05/17 00:00;DEZ2238;Eurdep;air;49.43;8.54;0;Germany;0;0;0;MANNHEIM ST RHEINAU;9.837;10
29/05/17 00:00;DEZ2239;Eurdep;air;49.37;9.02;0;Germany;0;0;0;AGLASTERHAUSEN OT BREIT.;11.338;11
29/05/17 00:00;DEZ2240;Eurdep;air;49.45;9.18;0;Germany;0;0;0;LIMBACH OT KRUMBACH;12.157;12
29/05/17 00:00;DEZ2241;Eurdep;air;49.35;9.13;0;Germany;0;0;0;MOSBACH;11.381;11
29/05/17 00:00;DEZ2242;Eurdep;air;49.36;9.11;0;Germany;0;0;0;MOSBACH ST DIEDESHEIM;9.305;9.52
29/05/17 00:00;DEZ2243;Eurdep;air;49.39;9.09;0;Germany;0;0;0;MOSBACH ST REICHENBUCH;11.329;11
29/05/17 00:00;DEZ2244;Eurdep;air;49.54;9.16;0;Germany;0;0;0;MUDAU OT SCHLOSSAU;11.062000000000001;11
29/05/17 00:00;DEZ2246;Eurdep;air;49.4;9.27;0;Germany;0;0;0;UNTER-SCHEFFLENZ;10.924;11
29/05/17 00:00;DEZ2248;Eurdep;air;49.24;8.68;0;Germany;0;0;0;MALSCH;11.238;11
29/05/17 00:00;DEZ2249;Eurdep;air;49.34;8.8;0;Germany;0;0;0;MAUER;10.662;11
29/05/17 00:00;DEZ2250;Eurdep;air;49.46;8.81;0;Germany;0;0;0;SCHÖNAU ST ALTNEUDORF;10.586;10
26/05/17 22:00;DEZ2252;Eurdep;air;49.53;8.64;0;Germany;0;0;0;WEINHEIM;0;0
28/05/17 12:00;DEZ2253;Eurdep;air;49.33;8.98;0;Germany;0;0;0;HELMSTADT-BARGEN OT HELM.;11.011;11
29/05/17 00:00;DEZ2254;Eurdep;air;49.31;9.02;0;Germany;0;0;0;HELMSTADT-BARGEN OT BARG.;11.862;12
29/05/17 00:00;DEZ2255;Eurdep;air;49.05;8.85;0;Germany;0;0;0;STERNENFELS;11.971;12
29/05/17 00:00;DEZ2257;Eurdep;air;48.02;7.73;0;Germany;0;0;0;FREIBURG ST WALTERSHOFEN;11.529;12
29/05/17 00:00;DEZ2259;Eurdep;air;47.98;7.79;0;Germany;0;0;0;FREIBURG ST ST. GEORGEN;11.405;11
29/05/17 00:00;DEZ2261;Eurdep;air;48.03;7.6;0;Germany;0;0;0;BREISACH;9.693000000000001;10
29/05/17 00:00;DEZ2264;Eurdep;air;47.86;7.58;0;Germany;0;0;0;NEUENBURG ST GRIßHEIM;9.459999999999999;9.959999999999999
29/05/17 00:00;DEZ2267;Eurdep;air;47.59;7.86;0;Germany;0;0;0;SCHWÖRSTADT;9.14;9.73
29/05/17 00:00;DEZ2268;Eurdep;air;47.65;8.13;0;Germany;0;0;0;ALBBRUCK OT UNTERALPFEN;13.305000000000001;14
29/05/17 00:00;DEZ2269;Eurdep;air;47.64;8.08;0;Germany;0;0;0;GÖRWIHL OT GÖRWIHL;13;14
29/05/17 00:00;DEZ2270;Eurdep;air;47.68;8.01;0;Germany;0;0;0;HERRISCHRIED OT GROßHERRISCHWAND;19.714;20
29/05/17 00:00;DEZ2272;Eurdep;air;47.63;8.31;0;Germany;0;0;0;LAUCHRINGEN OT UNTERLAU.;12.052;12
29/05/17 00:00;DEZ2273;Eurdep;air;47.56;7.97;0;Germany;0;0;0;BAD SÄCKINGEN;8.498000000000001;8.879999999999999
29/05/17 00:00;DEZ2274;Eurdep;air;47.77;8.11;0;Germany;0;0;0;ST. BLASIEN;15.788999999999998;16
29/05/17 00:00;DEZ2277;Eurdep;air;47.72;8.32;0;Germany;0;0;0;ÜHLINGEN-BIRKENDORF;11.676;12
29/05/17 00:00;DEZ2288;Eurdep;air;54.18;12.08;0;Germany;0;0;0;ROSTOCK-WARNEMÜNDE;8.112;8
29/05/17 00:00;DEZ2291;Eurdep;air;53.95;13.42;0;Germany;0;0;0;GÜTZKOW;7.798;8.24
29/05/17 00:00;DEZ2293;Eurdep;air;53.32;11.11;0;Germany;0;0;0;LÜBTHEEN;7.4879999999999995;7.92
29/05/17 00:00;DEZ2298;Eurdep;air;54.37;13.67;0;Germany;0;0;0;SELLIN;7.983;8.28
29/05/17 00:00;DEZ2308;Eurdep;air;53.43;10.75;0;Germany;0;0;0;GRESSE;6.901000000000001;7.15
29/05/17 00:00;DEZ2309;Eurdep;air;53.38;11.24;0;Germany;0;0;0;KUHSTORF;6.484;6.74
29/05/17 00:00;DEZ2312;Eurdep;air;53.13;11.36;0;Germany;0;0;0;POLZ;6.239;6.4799999999999995
29/05/17 00:00;DEZ2313;Eurdep;air;53.23;11.2;0;Germany;0;0;0;TEWSWOOS;6.917;7.13
28/05/17 23:00;DEZ2314;Eurdep;air;53.5;11.09;0;Germany;0;0;0;WITTENBURG;7.38;7.540000000000001
29/05/17 00:00;DEZ2315;Eurdep;air;53.46;13.29;0;Germany;0;0;0;GODENSWEGE;8.290000000000001;8.57
29/05/17 00:00;DEZ2317;Eurdep;air;53.32;12.36;0;Germany;0;0;0;JAEBETZ;7.617;7.909999999999999
29/05/17 00:00;DEZ2320;Eurdep;air;54.03;12.88;0;Germany;0;0;0;GRAMMENDORF;8.349;8.68
29/05/17 00:00;DEZ2321;Eurdep;air;54.4;13.01;0;Germany;0;0;0;KLAUSDORF;8.485;8.709999999999999
29/05/17 00:00;DEZ2322;Eurdep;air;53.77;11.46;0;Germany;0;0;0;BAD KLEINEN;10.061;10
29/05/17 00:00;DEZ2327;Eurdep;air;53.95;13.85;0;Germany;0;0;0;LASSAN;7.824;8.43
29/05/17 00:00;DEZ2332;Eurdep;air;53.87;14.17;0;Germany;0;0;0;ZIRCHOW;7.473999999999999;8.879999999999999
29/05/17 00:00;DEZ2333;Eurdep;air;53.62;12.18;0;Germany;0;0;0;GOLDBERG;8.342;8
29/05/17 00:00;DEZ2334;Eurdep;air;53.55;11.92;0;Germany;0;0;0;LENSCHOW;8.639;9.07
29/05/17 00:00;DEZ2336;Eurdep;air;53.67;11.65;0;Germany;0;0;0;WENDORF;7.3870000000000005;7.74
29/05/17 00:00;DEZ2337;Eurdep;air;54.32;13.53;0;Germany;0;0;0;INSEL VILM;7.918000000000001;8.190000000000001
29/05/17 00:00;DEZ2338;Eurdep;air;54.54;13.55;0;Germany;0;0;0;SAGARD OT MARLOW;9.487;9.82
29/05/17 00:00;DEZ2349;Eurdep;air;51.78;14.32;0;Germany;0;0;0;COTTBUS;6.997;7.33
29/05/17 00:00;DEZ2350;Eurdep;air;52.16;14.66;0;Germany;0;0;0;EISENHÜTTENSTADT;6.601000000000001;6.99
29/05/17 00:00;DEZ2351;Eurdep;air;52.37;14.48;0;Germany;0;0;0;FRANKFURT/ODER;6.926;7.12
29/05/17 00:00;DEZ2353;Eurdep;air;53.07;14.2;0;Germany;0;0;0;SCHWEDT;8.018;8.28
26/05/17 22:00;DEZ2360;Eurdep;air;51.75;14.63;0;Germany;0;0;0;FORST;0;0
29/05/17 00:00;DEZ2364;Eurdep;air;52;13.07;0;Germany;0;0;0;JÜTERBOG;8.302;8.540000000000001
29/05/17 00:00;DEZ2367;Eurdep;air;52.94;12.41;0;Germany;0;0;0;KYRITZ;7.9670000000000005;8.39
29/05/17 00:00;DEZ2368;Eurdep;air;51.94;13.91;0;Germany;0;0;0;LÜBBEN;6.122999999999999;6.459999999999999
29/05/17 00:00;DEZ2371;Eurdep;air;52.9;12.81;0;Germany;0;0;0;NEURUPPIN;7.659000000000001;8.03
29/05/17 00:00;DEZ2372;Eurdep;air;52.64;13.25;0;Germany;0;0;0;STOLPE;7.44;7.75
29/05/17 00:00;DEZ2373;Eurdep;air;53.07;11.85;0;Germany;0;0;0;PERLEBERG;7.892;8.120000000000001
29/05/17 00:00;DEZ2374;Eurdep;air;53.31;13.87;0;Germany;0;0;0;PRENZLAU;7.8950000000000005;8.129999999999999
29/05/17 00:00;DEZ2375;Eurdep;air;52.55;14.55;0;Germany;0;0;0;MANSCHNOW;7.845000000000001;8
29/05/17 00:00;DEZ2377;Eurdep;air;52.6;13.58;0;Germany;0;0;0;AHRENSFELDE;8.738;9.129999999999999
29/05/17 00:00;DEZ2379;Eurdep;air;52.79;13.49;0;Germany;0;0;0;KLOSTERFELDE;8.517;8.74
29/05/17 00:00;DEZ2380;Eurdep;air;52.92;14.11;0;Germany;0;0;0;LUNOW;8.115;8.440000000000001
29/05/17 00:00;DEZ2381;Eurdep;air;52.77;13.7;0;Germany;0;0;0;MELCHOW;7.225;7
29/05/17 00:00;DEZ2382;Eurdep;air;52.85;13.94;0;Germany;0;0;0;NIEDERFINOW;7.5969999999999995;7.970000000000001
29/05/17 00:00;DEZ2383;Eurdep;air;51.92;13.58;0;Germany;0;0;0;DRAHNSDORF;7.059;7.279999999999999
29/05/17 00:00;DEZ2384;Eurdep;air;51.98;14.29;0;Germany;0;0;0;LIEBEROSE;5.965;6.220000000000001
29/05/17 00:00;DEZ2385;Eurdep;air;51.85;13.7;0;Germany;0;0;0;LUCKAU;7.314;7.57
29/05/17 00:00;DEZ2388;Eurdep;air;51.65;13.57;0;Germany;0;0;0;DOBERLUG-KIRCHHAIN;6.708;6.95
29/05/17 00:00;DEZ2391;Eurdep;air;52.59;12.63;0;Germany;0;0;0;BUSCHOW;6.2170000000000005;6.57
26/05/17 22:00;DEZ2396;Eurdep;air;53.14;13.24;0;Germany;0;0;0;BREDEREICHE;0;0
26/05/17 22:00;DEZ2397;Eurdep;air;52.9;13.16;0;Germany;0;0;0;LÖWENBERG;0;0
26/05/17 22:00;DEZ2399;Eurdep;air;51.37;13.76;0;Germany;0;0;0;ORTRAND;0;0
29/05/17 00:00;DEZ2401;Eurdep;air;52.35;14.28;0;Germany;0;0;0;BRIESEN;6.92;7.17
29/05/17 00:00;DEZ2402;Eurdep;air;52.09;14.64;0;Germany;0;0;0;NEUZELLE;7.284000000000001;7.57
29/05/17 00:00;DEZ2403;Eurdep;air;52.24;13.95;0;Germany;0;0;0;STORKOW;6.9030000000000005;7.159999999999999
28/05/17 22:00;DEZ2407;Eurdep;air;52.25;12.95;0;Germany;0;0;0;BEELITZ;6.8260000000000005;7.029999999999999
26/05/17 22:00;DEZ2408;Eurdep;air;52.21;12.8;0;Germany;0;0;0;BRÜCK;0;0
29/05/17 00:00;DEZ2410;Eurdep;air;52.02;12.53;0;Germany;0;0;0;KLEPZIG;7.3950000000000005;7.640000000000001
29/05/17 00:00;DEZ2411;Eurdep;air;52.12;12.46;0;Germany;0;0;0;WIESENBURG;7.947;8.26
26/05/17 22:00;DEZ2412;Eurdep;air;52.25;12.26;0;Germany;0;0;0;ZIESAR;0;0
29/05/17 00:00;DEZ2414;Eurdep;air;53.25;12.04;0;Germany;0;0;0;PUTLITZ;8.013;8.25
29/05/17 00:00;DEZ2416;Eurdep;air;51.65;14.23;0;Germany;0;0;0;DREBKAU;7.484999999999999;7.82
29/05/17 00:00;DEZ2417;Eurdep;air;51.67;14.75;0;Germany;0;0;0;KLEIN BADEMEUSEL;9.262;9.559999999999999
29/05/17 00:00;DEZ2423;Eurdep;air;52.21;13.16;0;Germany;0;0;0;SCHÖNHAGEN;7.081999999999999;7.37
26/05/17 22:00;DEZ2424;Eurdep;air;51.88;13.25;0;Germany;0;0;0;WIEPERSDORF;0;0
29/05/17 00:00;DEZ2426;Eurdep;air;53.27;13.62;0;Germany;0;0;0;BOITZENBURG;8.547;8
29/05/17 00:00;DEZ2428;Eurdep;air;53.24;13.98;0;Germany;0;0;0;HOHENGÜSTOW;8.494;8
29/05/17 00:00;DEZ2429;Eurdep;air;53.22;13.32;0;Germany;0;0;0;LYCHEN;7.920999999999999;8.120000000000001
29/05/17 00:00;DEZ2431;Eurdep;air;53.39;14;0;Germany;0;0;0;KLOCKOW;8.449;9.290000000000001
29/05/17 00:00;DEZ2432;Eurdep;air;53.27;14.35;0;Germany;0;0;0;TANTOW;8.568000000000001;8.97
29/05/17 00:00;DEZ2433;Eurdep;air;53.09;14.29;0;Germany;0;0;0;VIERRADEN;8.64;8.91
26/05/17 22:00;DEZ2434;Eurdep;air;51.52;11.97;0;Germany;0;0;0;HALLE;0;0
29/05/17 00:00;DEZ2436;Eurdep;air;51.76;11.49;0;Germany;0;0;0;ASCHERSLEBEN;10.948;11
26/05/17 22:00;DEZ2437;Eurdep;air;51.81;11.73;0;Germany;0;0;0;BERNBURG;0;0
29/05/17 00:00;DEZ2438;Eurdep;air;51.63;12.29;0;Germany;0;0;0;BITTERFELD;8.908;9.309999999999999
28/05/17 22:00;DEZ2440;Eurdep;air;51.53;11.55;0;Germany;0;0;0;EISLEBEN;12.675;12
29/05/17 00:00;DEZ2443;Eurdep;air;52.27;11.42;0;Germany;0;0;0;HALDENSLEBEN;8.549;8
29/05/17 00:00;DEZ2444;Eurdep;air;52.84;12.08;0;Germany;0;0;0;HAVELBERG;7.481999999999999;7
29/05/17 00:00;DEZ2446;Eurdep;air;51.8;12.96;0;Germany;0;0;0;JESSEN;8.523;8.83
29/05/17 00:00;DEZ2447;Eurdep;air;52.63;11.14;0;Germany;0;0;0;KLÖTZE;6.314;6.51
26/05/17 22:00;DEZ2448;Eurdep;air;51.73;11.95;0;Germany;0;0;0;KÖTHEN;0;0
29/05/17 00:00;DEZ2450;Eurdep;air;52.89;11.73;0;Germany;0;0;0;SEEHAUSEN;6.9719999999999995;7.2299999999999995
29/05/17 00:00;DEZ2451;Eurdep;air;52.88;11.57;0;Germany;0;0;0;LEPPIN;7.225;7
29/05/17 00:00;DEZ2454;Eurdep;air;52.83;11.19;0;Germany;0;0;0;SALZWEDEL;7.138;7.31
29/05/17 00:00;DEZ2456;Eurdep;air;52.01;11.75;0;Germany;0;0;0;SCHÖNEBECK/ELBE;11.881;12
29/05/17 00:00;DEZ2459;Eurdep;air;51.89;12.65;0;Germany;0;0;0;WITTENBERG;7.446;7.720000000000001
29/05/17 00:00;DEZ2460;Eurdep;air;52.24;11.64;0;Germany;0;0;0;WOLMIRSTEDT;10.232;10
29/05/17 00:00;DEZ2464;Eurdep;air;52;12.28;0;Germany;0;0;0;POLENZKO OT BÄRENTHOREN;7.824;8.05
26/05/17 22:00;DEZ2466;Eurdep;air;51.62;12.12;0;Germany;0;0;0;ZÖRBIG;0;0
29/05/17 00:00;DEZ2467;Eurdep;air;51.73;12.48;0;Germany;0;0;0;GRÄFENHAINICHEN;7.862;8.129999999999999
29/05/17 00:00;DEZ2468;Eurdep;air;51.15;11.79;0;Germany;0;0;0;NAUMBURG;12.295;12
29/05/17 00:00;DEZ2471;Eurdep;air;51.65;11.68;0;Germany;0;0;0;IHLEWITZ;11.214;11
29/05/17 00:00;DEZ2473;Eurdep;air;51.39;11.66;0;Germany;0;0;0;OBHAUSEN;10.233;10
29/05/17 00:00;DEZ2477;Eurdep;air;51.94;11.45;0;Germany;0;0;0;EGELN;9.612;10
