date;id_station;id_network;type;latitude;longitude;altitude;country;area_adm_1;area_adm_2;area_adm_3;name;value;value_max
10/04/17 12:00;DEZ0001;Eurdep;air;54.78;9.38;0;Germany;0;0;0;FLENSBURG;7.475;7.68
10/04/17 12:00;DEZ0005;Eurdep;air;54.02;9.05;0;Germany;0;0;0;BARLT;7.970999999999999;8.16
10/04/17 12:00;DEZ0008;Eurdep;air;54.17;9.33;0;Germany;0;0;0;BUNSOH;6.776999999999999;6.94
10/04/17 12:00;DEZ0012;Eurdep;air;54.19;9.15;0;Germany;0;0;0;HEIDE;6.6450000000000005;7
10/04/17 12:00;DEZ0013;Eurdep;air;54.35;9.02;0;Germany;0;0;0;LEHE;7.083;7.32
10/04/17 12:00;DEZ0017;Eurdep;air;54.21;8.92;0;Germany;0;0;0;WESSELBUREN;7.204000000000001;7.49
10/04/17 12:00;DEZ0032;Eurdep;air;53.39;10.49;0;Germany;0;0;0;SCHNAKENBEK;7.045;7.540000000000001
10/04/17 12:00;DEZ0034;Eurdep;air;53.44;10.45;0;Germany;0;0;0;WIERSHOP;8.481;8.74
10/04/17 12:00;DEZ0038;Eurdep;air;54.77;8.29;0;Germany;0;0;0;HÖRNUM / SYLT;4.8950000000000005;5.05
10/04/17 12:00;DEZ0044;Eurdep;air;54.65;8.35;0;Germany;0;0;0;NEBEL / AMRUM;6.304;6.51
10/04/17 06:00;DEZ0048;Eurdep;air;54.52;8.67;0;Germany;0;0;0;PELLWORM;8.235;8.41
10/04/17 11:00;DEZ0055;Eurdep;air;54.86;9.01;0;Germany;0;0;0;WESTRE;6.128;6
10/04/17 12:00;DEZ0057;Eurdep;air;54.5;11.24;0;Germany;0;0;0;MARIENLEUCHTE / FEHMARN;8.709;9.11
10/04/17 12:00;DEZ0059;Eurdep;air;54.2;11.09;0;Germany;0;0;0;DAHME;7.877;8.27
10/04/17 12:00;DEZ0060;Eurdep;air;54.15;10.6;0;Germany;0;0;0;EUTIN;7.837999999999999;8.14
10/04/17 12:00;DEZ0062;Eurdep;air;54.38;10.95;0;Germany;0;0;0;HEILIGENHAFEN;8.351;8.58
10/04/17 12:00;DEZ0068;Eurdep;air;53.9;10.66;0;Germany;0;0;0;STOCKELSDORF;7.1129999999999995;7.51
10/04/17 12:00;DEZ0072;Eurdep;air;53.86;9.74;0;Germany;0;0;0;BOKEL;6.242;6.43
10/04/17 13:00;DEZ0074;Eurdep;air;54.17;7.89;0;Germany;0;0;0;HELGOLAND / UNTERLAND;7.647;8.01
02/04/17 22:00;DEZ0077;Eurdep;air;54.37;10.21;0;Germany;0;0;0;HEIKENDORF;0;0
10/04/17 12:00;DEZ0080;Eurdep;air;54.3;10.23;0;Germany;0;0;0;KLAUSDORF;7.573;7.88
10/04/17 12:00;DEZ0082;Eurdep;air;54.18;10.2;0;Germany;0;0;0;NETTELSEE;7.074;7.359999999999999
10/04/17 12:00;DEZ0083;Eurdep;air;54.16;10.45;0;Germany;0;0;0;PLÖN;7.981;8.129999999999999
10/04/17 12:00;DEZ0086;Eurdep;air;54.29;10.42;0;Germany;0;0;0;SELENT;8.114;8.45
10/04/17 12:00;DEZ0087;Eurdep;air;54.44;9.7;0;Germany;0;0;0;ASCHEFFEL;7.917;8.25
10/04/17 12:00;DEZ0091;Eurdep;air;54.47;9.87;0;Germany;0;0;0;ECKERNFÖRDE;7.045999999999999;7.359999999999999
10/04/17 12:00;DEZ0092;Eurdep;air;54.4;9.97;0;Germany;0;0;0;GETTORF;7.641;7.83
09/04/17 21:00;DEZ0095;Eurdep;air;54.21;9.71;0;Germany;0;0;0;JEVENSTEDT-OT NIENKATTBEK;5.33;5.33
10/04/17 12:00;DEZ0097;Eurdep;air;54.27;10.08;0;Germany;0;0;0;MOLFSEE;8.754999999999999;9.18
10/04/17 12:00;DEZ0102;Eurdep;air;54.08;9.9;0;Germany;0;0;0;WASBEK;6.246;6.7299999999999995
10/04/17 12:00;DEZ0104;Eurdep;air;54.31;9.3;0;Germany;0;0;0;ERFDE;7.303;7.529999999999999
10/04/17 12:00;DEZ0107;Eurdep;air;54.65;9.94;0;Germany;0;0;0;KAPPELN;7.439;7
10/04/17 13:00;DEZ0111;Eurdep;air;54.53;9.55;0;Germany;0;0;0;SCHLESWIG;8.193999999999999;8.48
10/04/17 12:00;DEZ0112;Eurdep;air;54.64;9.76;0;Germany;0;0;0;SÜDERBRARUP;8.219;8.53
10/04/17 12:00;DEZ0116;Eurdep;air;54.83;9.55;0;Germany;0;0;0;GLÜCKSBURG;7.851000000000001;8.18
10/04/17 12:00;DEZ0119;Eurdep;air;54.73;9.74;0;Germany;0;0;0;STERUP;8.405;8
10/04/17 12:00;DEZ0123;Eurdep;air;53.91;10.17;0;Germany;0;0;0;BARK;8.071;8.290000000000001
10/04/17 12:00;DEZ0128;Eurdep;air;53.88;9.98;0;Germany;0;0;0;SCHMALFELD;5.776;6.09
10/04/17 12:00;DEZ0131;Eurdep;air;53.79;10.08;0;Germany;0;0;0;WAKENDORF II;7.225;7.55
10/04/17 12:00;DEZ0136;Eurdep;air;53.78;9.61;0;Germany;0;0;0;KIEBITZREIHE;5.684;6
10/04/17 13:00;DEZ0137;Eurdep;air;53.84;9.49;0;Germany;0;0;0;KREMPE;8.183;8.39
10/04/17 12:00;DEZ0139;Eurdep;air;53.94;9.4;0;Germany;0;0;0;MOORHUSEN;7.689;7.93
10/04/17 13:00;DEZ0140;Eurdep;air;53.92;9.58;0;Germany;0;0;0;OELIXDORF;7.039;7.33
10/04/17 12:00;DEZ0141;Eurdep;air;53.88;9.26;0;Germany;0;0;0;ST. MARGARETHEN;7.895999999999999;8.22
10/04/17 12:00;DEZ0145;Eurdep;air;53.61;10.24;0;Germany;0;0;0;BRAAK;8.189;8.51
10/04/17 12:00;DEZ0147;Eurdep;air;53.81;10.44;0;Germany;0;0;0;MEDDEWADE;8.526;8.95
10/04/17 12:00;DEZ0151;Eurdep;air;53.53;10.14;0;Germany;0;0;0;HAMBURG-BILLSTEDT;7.1819999999999995;7.42
10/04/17 13:00;DEZ0156;Eurdep;air;53.58;10.11;0;Germany;0;0;0;HAMBURG-JENFELD;8.141;8.379999999999999
10/04/17 13:00;DEZ0157;Eurdep;air;53.65;10.11;0;Germany;0;0;0;HAMBURG-SASEL;7.168000000000001;7.459999999999999
10/04/17 12:00;DEZ0158;Eurdep;air;53.47;10.19;0;Germany;0;0;0;HAMBURG-NETTELNBURG;8.43;8.85
10/04/17 12:00;DEZ0167;Eurdep;air;52.13;10.29;0;Germany;0;0;0;SALZGITTER-LICHTENBERG;8.788;9.22
10/04/17 12:00;DEZ0169;Eurdep;air;52.47;10.53;0;Germany;0;0;0;GIFHORN;6.931;7.140000000000001
09/04/17 21:00;DEZ0170;Eurdep;air;52.65;10.46;0;Germany;0;0;0;GROß OESINGEN;5.5600000000000005;5.5600000000000005
10/04/17 12:00;DEZ0172;Eurdep;air;52.38;10.53;0;Germany;0;0;0;MEINE;7.85;8.22
10/04/17 12:00;DEZ0173;Eurdep;air;52.48;10.36;0;Germany;0;0;0;MEINERSEN;7.273999999999999;7.540000000000001
10/04/17 12:00;DEZ0175;Eurdep;air;52.77;10.45;0;Germany;0;0;0;SPRAKENSEHL OT HAGEN;6.258;6.57
09/04/17 21:00;DEZ0176;Eurdep;air;52.62;10.59;0;Germany;0;0;0;WAHRENHOLZ;6.83;6.83
10/04/17 11:00;DEZ0177;Eurdep;air;52.73;10.73;0;Germany;0;0;0;WITTINGEN;7.328;7.69
04/04/17 22:00;DEZ0178;Eurdep;air;52.62;10.81;0;Germany;0;0;0;WITTINGEN-BOITZENHAGEN;0;0
10/04/17 12:00;DEZ0180;Eurdep;air;51.5;9.76;0;Germany;0;0;0;DRANSFELD;10.963;11
10/04/17 12:00;DEZ0182;Eurdep;air;51.44;9.93;0;Germany;0;0;0;FRIEDLAND-GROß SCHNEEN;11.074;11
10/04/17 12:00;DEZ0183;Eurdep;air;51.61;10.21;0;Germany;0;0;0;GIEBOLDEHAUSEN;11.815000000000001;12
10/04/17 12:00;DEZ0185;Eurdep;air;51.48;10.11;0;Germany;0;0;0;RITTMARSHAUSEN;10.193999999999999;10
10/04/17 12:00;DEZ0186;Eurdep;air;51.52;9.93;0;Germany;0;0;0;GÖTTINGEN;9.523;10
10/04/17 12:00;DEZ0188;Eurdep;air;51.56;10.06;0;Germany;0;0;0;WAAKE;12.678;13
09/04/17 21:00;DEZ0189;Eurdep;air;51.81;10.54;0;Germany;0;0;0;TORFHAUS;9.629999999999999;9.629999999999999
10/04/17 13:00;DEZ0191;Eurdep;air;51.72;10.6;0;Germany;0;0;0;BRAUNLAGE;10.148;10
10/04/17 12:00;DEZ0195;Eurdep;air;52.02;10.44;0;Germany;0;0;0;LIEBENBURG;9.329;9.59
09/04/17 21:00;DEZ0197;Eurdep;air;51.95;10.54;0;Germany;0;0;0;VIENENBURG;9;9
10/04/17 12:00;DEZ0201;Eurdep;air;52.25;10.81;0;Germany;0;0;0;KÖNIGSLUTTER;6.784000000000001;7
10/04/17 12:00;DEZ0205;Eurdep;air;51.88;10;0;Germany;0;0;0;BAD GANDERSHEIM;10.448;10
10/04/17 12:00;DEZ0208;Eurdep;air;51.79;10.06;0;Germany;0;0;0;ECHTE;10.131;10
10/04/17 12:00;DEZ0209;Eurdep;air;51.68;10.1;0;Germany;0;0;0;KATLENBURG-LINDAU;10.370000000000001;10
09/04/17 21:00;DEZ0210;Eurdep;air;51.73;9.79;0;Germany;0;0;0;FREDELSLOH;10;10
09/04/17 21:00;DEZ0212;Eurdep;air;51.62;9.66;0;Germany;0;0;0;USLAR OT SCHONINGEN;9.76;9.76
10/04/17 12:00;DEZ0213;Eurdep;air;51.63;10.47;0;Germany;0;0;0;BAD LAUTERBERG IM HARZ;10.978;11
10/04/17 12:00;DEZ0215;Eurdep;air;51.75;10.21;0;Germany;0;0;0;OSTERODE AM HARZ;9.696;10
10/04/17 12:00;DEZ0216;Eurdep;air;51.58;10.61;0;Germany;0;0;0;WALKENRIED;9.870999999999999;10
10/04/17 12:00;DEZ0218;Eurdep;air;52.27;10.23;0;Germany;0;0;0;GROSS ILSEDE;10.556000000000001;10
10/04/17 12:00;DEZ0220;Eurdep;air;52.32;10.24;0;Germany;0;0;0;PEINE;7.917;8.120000000000001
09/04/17 21:00;DEZ0222;Eurdep;air;52.32;10.39;0;Germany;0;0;0;WENDEBURG;7.790000000000001;7.790000000000001
10/04/17 12:00;DEZ0225;Eurdep;air;52.04;10.6;0;Germany;0;0;0;HORNBURG;10.856;11
09/04/17 21:00;DEZ0227;Eurdep;air;52.04;10.26;0;Germany;0;0;0;SEHLDE;9.23;9.23
10/04/17 12:00;DEZ0235;Eurdep;air;52.72;8.53;0;Germany;0;0;0;BARNSTORF;6.273;6
10/04/17 12:00;DEZ0236;Eurdep;air;52.85;8.73;0;Germany;0;0;0;BASSUM;7.003;7.159999999999999
10/04/17 12:00;DEZ0238;Eurdep;air;52.74;8.7;0;Germany;0;0;0;EHRENBURG;7.584999999999999;7.779999999999999
10/04/17 12:00;DEZ0239;Eurdep;air;52.62;8.65;0;Germany;0;0;0;FREISTATT;6.665000000000001;7.07
10/04/17 12:00;DEZ0240;Eurdep;air;52.59;8.84;0;Germany;0;0;0;KIRCHDORF;6.912999999999999;7.159999999999999
10/04/17 12:00;DEZ0242;Eurdep;air;52.88;9.06;0;Germany;0;0;0;MARTFELD;6.502;6
10/04/17 12:00;DEZ0244;Eurdep;air;52.79;8.84;0;Germany;0;0;0;SCHWAFÖRDEN-SUDWALDE;8.289;8.72
10/04/17 12:00;DEZ0245;Eurdep;air;52.69;8.82;0;Germany;0;0;0;SULINGEN;6.356;6.65
10/04/17 12:00;DEZ0246;Eurdep;air;52.93;8.82;0;Germany;0;0;0;SYKE-BARRIEN;7.297;7.63
10/04/17 12:00;DEZ0248;Eurdep;air;52.06;9.33;0;Germany;0;0;0;AERZEN/GR.BERKEL;9.577;10
10/04/17 12:00;DEZ0250;Eurdep;air;51.97;9.3;0;Germany;0;0;0;BAD PYRMONT;8.969;9.23
10/04/17 12:00;DEZ0251;Eurdep;air;52.11;9.55;0;Germany;0;0;0;COPPENBRÜGGE;8.83;9.14
10/04/17 12:00;DEZ0253;Eurdep;air;52.15;9.39;0;Germany;0;0;0;UNSEN - HAMELN;8.665000000000001;9.05
10/04/17 12:00;DEZ0254;Eurdep;air;52.17;9.24;0;Germany;0;0;0;HESSISCH-OLDENDORF;8.818000000000001;9.22
10/04/17 12:00;DEZ0255;Eurdep;air;52.07;9.58;0;Germany;0;0;0;SALZHEMMENDORF;8.809000000000001;9.15
10/04/17 12:00;DEZ0256;Eurdep;air;52.45;10;0;Germany;0;0;0;BURGDORF;7.725;8.17
10/04/17 12:00;DEZ0258;Eurdep;air;52.46;9.6;0;Germany;0;0;0;OSTERWALD/STADT GARBSEN;6.812;7.08
10/04/17 12:00;DEZ0259;Eurdep;air;52.3;9.6;0;Germany;0;0;0;GEHRDEN;8.594;8.86
09/04/17 21:00;DEZ0262;Eurdep;air;52.37;9.97;0;Germany;0;0;0;LEHRTE;7.459999999999999;7.459999999999999
09/04/17 21:00;DEZ0271;Eurdep;air;52.42;9.43;0;Germany;0;0;0;WUNSTORF;7.7700000000000005;7.7700000000000005
09/04/17 21:00;DEZ0272;Eurdep;air;51.95;9.84;0;Germany;0;0;0;ALFELD-WISPENSTEIN;8.879999999999999;8.879999999999999
10/04/17 12:00;DEZ0274;Eurdep;air;52.13;9.73;0;Germany;0;0;0;ELZE;9.82;10
10/04/17 12:00;DEZ0278;Eurdep;air;52.15;10.09;0;Germany;0;0;0;OTTBERGEN;8.629999999999999;8.89
09/04/17 21:00;DEZ0279;Eurdep;air;52.05;9.9;0;Germany;0;0;0;SIBBESSE;10;10
10/04/17 12:00;DEZ0281;Eurdep;air;52.01;9.7;0;Germany;0;0;0;DUINGEN;8.959;9.35
10/04/17 12:00;DEZ0284;Eurdep;air;51.84;9.44;0;Germany;0;0;0;HOLZMINDEN;9.798;10
10/04/17 12:00;DEZ0285;Eurdep;air;51.75;9.52;0;Germany;0;0;0;NEUHAUS - HOLZMINDEN;9.498000000000001;9.709999999999999
10/04/17 06:00;DEZ0286;Eurdep;air;51.95;9.41;0;Germany;0;0;0;OTTENSTEIN;9.601;9.86
10/04/17 12:00;DEZ0287;Eurdep;air;51.89;9.63;0;Germany;0;0;0;STADTOLDENDORF;8.753;9.15
10/04/17 12:00;DEZ0290;Eurdep;air;52.6;9.09;0;Germany;0;0;0;LIEBENAU;6.766;7.01
10/04/17 12:00;DEZ0292;Eurdep;air;52.47;9.23;0;Germany;0;0;0;REHBURG-LOCCUM;7.664;7.959999999999999
10/04/17 12:00;DEZ0297;Eurdep;air;52.23;9.24;0;Germany;0;0;0;REHREN-AUETAL;8.659;8.95
09/04/17 21:00;DEZ0298;Eurdep;air;52.26;9.03;0;Germany;0;0;0;BÜCKEBURG;7.76;7.76
09/04/17 21:00;DEZ0302;Eurdep;air;52.61;10.29;0;Germany;0;0;0;AHNSBECK;7.840000000000001;7.840000000000001
10/04/17 12:00;DEZ0303;Eurdep;air;52.82;9.97;0;Germany;0;0;0;BERGEN;7.465000000000001;7.890000000000001
10/04/17 12:00;DEZ0305;Eurdep;air;52.74;10.24;0;Germany;0;0;0;ESCHEDE;6.714;7
10/04/17 12:00;DEZ0309;Eurdep;air;52.65;9.86;0;Germany;0;0;0;WIETZE;6.299;6.68
10/04/17 12:00;DEZ0310;Eurdep;air;52.73;9.85;0;Germany;0;0;0;MEIßENDORF;6.215999999999999;6.540000000000001
10/04/17 12:00;DEZ0317;Eurdep;air;53.69;8.56;0;Germany;0;0;0;DORUM;8.196;8.45
10/04/17 12:00;DEZ0320;Eurdep;air;53.63;9.1;0;Germany;0;0;0;LAMSTEDT;6.893000000000001;7.18
10/04/17 12:00;DEZ0321;Eurdep;air;53.45;8.63;0;Germany;0;0;0;LOXSTEDT-NESSE;6.598000000000001;6.95
10/04/17 12:00;DEZ0324;Eurdep;air;53.81;8.9;0;Germany;0;0;0;OTTERNDORF;7.953;8.33
10/04/17 12:00;DEZ0325;Eurdep;air;53.51;8.81;0;Germany;0;0;0;WEHDEL;6.639;7
14/03/17 23:00;DEZ0326;Eurdep;air;53.74;8.8;0;Germany;0;0;0;WANNA;0;0
10/04/17 12:00;DEZ0327;Eurdep;air;53.64;8.57;0;Germany;0;0;0;WREMEN;8.169;8.35
10/04/17 12:00;DEZ0328;Eurdep;air;53.3;10.05;0;Germany;0;0;0;HANSTEDT/BRACKEL;7.306;7.57
10/04/17 12:00;DEZ0330;Eurdep;air;53.43;10.31;0;Germany;0;0;0;DRAGE;7.4430000000000005;7.7700000000000005
10/04/17 12:00;DEZ0331;Eurdep;air;53.25;9.83;0;Germany;0;0;0;HANDELOH;7.303;7.68
10/04/17 12:00;DEZ0332;Eurdep;air;53.2;10.05;0;Germany;0;0;0;EGESTORF-SG HANSTEDT;6.369;6.7299999999999995
10/04/17 12:00;DEZ0335;Eurdep;air;53.4;10.41;0;Germany;0;0;0;TESPE;7.212000000000001;7.590000000000001
10/04/17 12:00;DEZ0336;Eurdep;air;53.36;10.2;0;Germany;0;0;0;WINSEN (LUHE);7.3469999999999995;7.65
10/04/17 12:00;DEZ0341;Eurdep;air;53.14;11.04;0;Germany;0;0;0;HITZACKER;8.573;8.93
10/04/17 12:00;DEZ0342;Eurdep;air;53.07;11.44;0;Germany;0;0;0;HÖHBECK;6.118;6
10/04/17 12:00;DEZ0343;Eurdep;air;52.98;11.07;0;Germany;0;0;0;KÜSTEN;7.139;7
10/04/17 12:00;DEZ0344;Eurdep;air;52.92;11.28;0;Germany;0;0;0;SCHWESKAU;6.946;7.31
10/04/17 12:00;DEZ0346;Eurdep;air;53.24;10.87;0;Germany;0;0;0;KATEMIN;6.917;7.109999999999999
10/04/17 12:00;DEZ0347;Eurdep;air;52.88;10.89;0;Germany;0;0;0;SCHNEGA;6.9799999999999995;7.2299999999999995
10/04/17 12:00;DEZ0348;Eurdep;air;53;11.32;0;Germany;0;0;0;TREBEL;6.491;6
10/04/17 12:00;DEZ0349;Eurdep;air;53.07;10.88;0;Germany;0;0;0;ZERNIEN;6.684;7.140000000000001
09/04/17 21:00;DEZ0352;Eurdep;air;53.18;10.75;0;Germany;0;0;0;DAHLENBURG;7.08;7.08
10/04/17 12:00;DEZ0357;Eurdep;air;53.1;10.22;0;Germany;0;0;0;REHLINGEN;6.515000000000001;6.720000000000001
10/04/17 12:00;DEZ0362;Eurdep;air;53.5;9.17;0;Germany;0;0;0;BREMERVÖRDE;5.8759999999999994;6.13
10/04/17 12:00;DEZ0363;Eurdep;air;53.17;9.67;0;Germany;0;0;0;FINTEL;7.040000000000001;7.25
10/04/17 12:00;DEZ0365;Eurdep;air;53.5;8.97;0;Germany;0;0;0;HIPSTEDT;6.021;6.25
10/04/17 12:00;DEZ0366;Eurdep;air;53.02;9.39;0;Germany;0;0;0;KIRCHWALSEDE;7.321;7.640000000000001
10/04/17 12:00;DEZ0367;Eurdep;air;53.11;9.4;0;Germany;0;0;0;ROTENBURG;6.171;6.51
09/04/17 21:00;DEZ0372;Eurdep;air;52.99;9.58;0;Germany;0;0;0;VISSELHÖVEDE;6.81;6.81
10/04/17 12:00;DEZ0374;Eurdep;air;53.11;10.08;0;Germany;0;0;0;STEINBECK;5.756;6.04
10/04/17 12:00;DEZ0381;Eurdep;air;53.12;9.8;0;Germany;0;0;0;SCHNEVERDINGEN;7.561;7.94
09/04/17 21:00;DEZ0383;Eurdep;air;52.9;9.46;0;Germany;0;0;0;WALSRODE OT HAMWIEDE;8.309999999999999;8.309999999999999
10/04/17 12:00;DEZ0384;Eurdep;air;52.92;9.97;0;Germany;0;0;0;WIETZENDORF;5.956;6.2299999999999995
10/04/17 12:00;DEZ0385;Eurdep;air;53.83;9.13;0;Germany;0;0;0;BALJE / STADE;7.499;7.76
10/04/17 12:00;DEZ0387;Eurdep;air;53.69;9.43;0;Germany;0;0;0;DROCHTERSEN-ASSEL;7.768000000000001;8.17
10/04/17 12:00;DEZ0388;Eurdep;air;53.52;9.4;0;Germany;0;0;0;FREDENBECK;7.223000000000001;7.5200000000000005
10/04/17 12:00;DEZ0390;Eurdep;air;53.63;9.32;0;Germany;0;0;0;HIMMELPFORTEN;6.881;7.05
10/04/17 12:00;DEZ0391;Eurdep;air;53.59;9.55;0;Germany;0;0;0;HOLLERN-TWIELENFLETH;7.925;8.190000000000001
10/04/17 12:00;DEZ0392;Eurdep;air;53.45;9.51;0;Germany;0;0;0;HARSEFELD;7.544;7.81
10/04/17 13:00;DEZ0394;Eurdep;air;53.62;9.53;0;Germany;0;0;0;STADE KKW;7.6819999999999995;8.02
10/04/17 12:00;DEZ0396;Eurdep;air;53.77;9.32;0;Germany;0;0;0;WISCHHAFEN;7.31;7.7700000000000005
10/04/17 12:00;DEZ0397;Eurdep;air;53.09;10.57;0;Germany;0;0;0;BAD BEVENSEN OT MEDINGEN;7.020999999999999;7.340000000000001
10/04/17 12:00;DEZ0398;Eurdep;air;53.15;10.49;0;Germany;0;0;0;BIENENBÜTTEL;7.212000000000001;7.709999999999999
10/04/17 12:00;DEZ0401;Eurdep;air;53.05;10.38;0;Germany;0;0;0;HANSTEDT 1;6.154;6.45
10/04/17 12:00;DEZ0402;Eurdep;air;52.8;10.76;0;Germany;0;0;0;LÜDER/LANGENBRÜGGE;6.720000000000001;7.090000000000001
10/04/17 12:00;DEZ0407;Eurdep;air;53.05;9.04;0;Germany;0;0;0;OYTEN;7.3260000000000005;7.58
10/04/17 12:00;DEZ0410;Eurdep;air;53.04;8.59;0;Germany;0;0;0;DELMENHORST;6.9719999999999995;7.159999999999999
10/04/17 12:00;DEZ0411;Eurdep;air;53.36;7.16;0;Germany;0;0;0;EMDEN / LARRELT;7.711;8.120000000000001
10/04/17 12:00;DEZ0413;Eurdep;air;53.14;8.24;0;Germany;0;0;0;OLDENBURG;6.257;6.5200000000000005
09/04/17 21:00;DEZ0414;Eurdep;air;52.26;8.11;0;Germany;0;0;0;OSNABRÜCK-DÜSTRUP;6;6
10/04/17 12:00;DEZ0416;Eurdep;air;53.6;8.05;0;Germany;0;0;0;WILHELMSHAVEN-SENGWARDEN;7.5120000000000005;7.7700000000000005
10/04/17 12:00;DEZ0418;Eurdep;air;53.25;7.94;0;Germany;0;0;0;WESTERSTEDE;6.274;6.51
10/04/17 12:00;DEZ0420;Eurdep;air;53.47;7.5;0;Germany;0;0;0;AURICH;6.587000000000001;6.87
10/04/17 12:00;DEZ0421;Eurdep;air;53.54;7.62;0;Germany;0;0;0;AURICH-MIDDELS;6.034000000000001;6.25
10/04/17 12:00;DEZ0422;Eurdep;air;53.73;7.37;0;Germany;0;0;0;BALTRUM;7.507;7.7299999999999995
10/04/17 12:00;DEZ0424;Eurdep;air;53.35;7.61;0;Germany;0;0;0;GROßEFEHN-BAGBAND;6.595000000000001;6.918000000000001
10/04/17 12:00;DEZ0425;Eurdep;air;53.67;7.28;0;Germany;0;0;0;HAGERMARSCH AS HILGENRIEDERSIEL;7.437;7.62
10/04/17 12:00;DEZ0427;Eurdep;air;53.5;7.1;0;Germany;0;0;0;KRUMMHÖRN-GREETSIEL;6.839;7.109999999999999
10/04/17 12:00;DEZ0428;Eurdep;air;53.41;7.02;0;Germany;0;0;0;KRUMMHÖRN-CAMPEN;7.946;8.23
10/04/17 12:00;DEZ0429;Eurdep;air;53.5;7.3;0;Germany;0;0;0;MARIENHAFE/SIEGELSUM;6.398;6.65
10/04/17 13:00;DEZ0433;Eurdep;air;53.71;7.15;0;Germany;0;0;0;NORDERNEY;6.135;6.38
10/04/17 12:00;DEZ0434;Eurdep;air;53.17;7.74;0;Germany;0;0;0;BARßEL-BARßELERMOOR;6.795;6.959999999999999
10/04/17 12:00;DEZ0435;Eurdep;air;52.84;8.01;0;Germany;0;0;0;CLOPPENBURG;6.662999999999999;6.93
10/04/17 12:00;DEZ0438;Eurdep;air;52.92;7.89;0;Germany;0;0;0;Friesoythe-Augustendorf;6.181;6.4799999999999995
09/04/17 21:00;DEZ0439;Eurdep;air;52.96;8.03;0;Germany;0;0;0;GARREL;5.65;5.65
10/04/17 12:00;DEZ0441;Eurdep;air;52.6;7.4;0;Germany;0;0;0;BAWINKEL;5.764;5.91
10/04/17 12:00;DEZ0442;Eurdep;air;52.43;7.51;0;Germany;0;0;0;BEESTEN;6.263;6.56
10/04/17 12:00;DEZ0446;Eurdep;air;52.45;7.31;0;Germany;0;0;0;ELBERGEN-EMSBÜREN;6.5569999999999995;6.92
10/04/17 12:00;DEZ0448;Eurdep;air;52.84;7.1;0;Germany;0;0;0;HAREN/EMS OT RÜTENBROCK;6.0329999999999995;6.279999999999999
10/04/17 12:00;DEZ0449;Eurdep;air;52.68;7.6;0;Germany;0;0;0;HERZLAKE;6.56;6.75
10/04/17 12:00;DEZ0450;Eurdep;air;52.77;7.46;0;Germany;0;0;0;KLEIN BERßEN;7.116;7.32
10/04/17 12:00;DEZ0451;Eurdep;air;52.87;7.33;0;Germany;0;0;0;LATHEN;6.367;6.62
09/04/17 21:00;DEZ0453;Eurdep;air;52.56;7.53;0;Germany;0;0;0;LENGERICH;6.65;6.65
10/04/17 12:00;DEZ0455;Eurdep;air;52.46;7.37;0;Germany;0;0;0;LINGEN-BRAMSCHE;7.520999999999999;7.85
10/04/17 12:00;DEZ0456;Eurdep;air;52.51;7.29;0;Germany;0;0;0;LINGEN-SCHEPSDORF;5.63;5.83
10/04/17 12:00;DEZ0458;Eurdep;air;53;7.4;0;Germany;0;0;0;NEULEHE;6.697;7
10/04/17 12:00;DEZ0467;Eurdep;air;53.79;7.91;0;Germany;0;0;0;WANGEROOGE;6.103;6.51
10/04/17 12:00;DEZ0469;Eurdep;air;53.38;7.96;0;Germany;0;0;0;ZETEL-NEUENBURG;7.128;7.45
09/04/17 21:00;DEZ0470;Eurdep;air;52.32;7.17;0;Germany;0;0;0;BAD BENTHEIM;6.17;6.17
10/04/17 12:00;DEZ0474;Eurdep;air;52.57;7.08;0;Germany;0;0;0;GEORGSDORF;6.18;6.36
10/04/17 12:00;DEZ0478;Eurdep;air;52.46;7.18;0;Germany;0;0;0;NORDHORN-KLAUSHEIDE;6.742;7.05
10/04/17 12:00;DEZ0479;Eurdep;air;52.47;7.02;0;Germany;0;0;0;NORDHORN-FRENSWEGEN;5.936999999999999;6.1899999999999995
09/04/17 21:00;DEZ0482;Eurdep;air;53.6;6.7;0;Germany;0;0;0;BORKUM;6.3100000000000005;6.3100000000000005
10/04/17 12:00;DEZ0487;Eurdep;air;53.33;7.34;0;Germany;0;0;0;MOORMERLAND-OLDERSUM;7.019;7.19
10/04/17 12:00;DEZ0490;Eurdep;air;53.13;7.23;0;Germany;0;0;0;WYMEER;5.197;5.4399999999999995
10/04/17 12:00;DEZ0491;Eurdep;air;52.96;8.63;0;Germany;0;0;0;GROß IPPENER;6.58;6.93
09/04/17 21:00;DEZ0492;Eurdep;air;52.94;8.26;0;Germany;0;0;0;GROßENKNETEN;7.33;7.33
10/04/17 12:00;DEZ0493;Eurdep;air;53.02;8.35;0;Germany;0;0;0;KIRCHHATTEN;6.196;6.51
09/04/17 21:00;DEZ0494;Eurdep;air;53.11;8.46;0;Germany;0;0;0;HUDE;6.49;6.49
10/04/17 12:00;DEZ0495;Eurdep;air;53.06;8.21;0;Germany;0;0;0;WARDENBURG;6.776999999999999;7.06
10/04/17 12:00;DEZ0496;Eurdep;air;52.9;8.43;0;Germany;0;0;0;WILDESHAUSEN;6.994;7.18
10/04/17 11:00;DEZ0498;Eurdep;air;52.32;8.34;0;Germany;0;0;0;BAD ESSEN;8.77;9.03
09/04/17 21:00;DEZ0501;Eurdep;air;52.45;7.96;0;Germany;0;0;0;BRAMSCHE-HESEPE;6.540000000000001;6.540000000000001
10/04/17 12:00;DEZ0503;Eurdep;air;52.62;7.74;0;Germany;0;0;0;BERGE;7.569;7.7700000000000005
10/04/17 12:00;DEZ0505;Eurdep;air;52.38;8.2;0;Germany;0;0;0;OSTERCAPPELN-SCHWAGSTORF;7.420999999999999;7.590000000000001
10/04/17 12:00;DEZ0506;Eurdep;air;52.67;7.94;0;Germany;0;0;0;QUAKENBRÜCK;7.0200000000000005;7.82
10/04/17 12:00;DEZ0510;Eurdep;air;52.71;8.29;0;Germany;0;0;0;VECHTA;7.484999999999999;7.82
10/04/17 13:00;DEZ0511;Eurdep;air;53.33;8.48;0;Germany;0;0;0;BRAKE-UNTERWESER;8.093;8.23
10/04/17 12:00;DEZ0512;Eurdep;air;53.57;8.36;0;Germany;0;0;0;BUTJADINGEN-BURHAVE;8.181000000000001;8.47
10/04/17 12:00;DEZ0514;Eurdep;air;53.25;8.47;0;Germany;0;0;0;ELSFLETH-LIENEN;8.386;8.64
10/04/17 13:00;DEZ0515;Eurdep;air;53.34;8.19;0;Germany;0;0;0;JADE-JADERBERG;6.439;6.81
10/04/17 12:00;DEZ0516;Eurdep;air;53.48;8.47;0;Germany;0;0;0;NORDENHAM;6.947;7.25
10/04/17 12:00;DEZ0518;Eurdep;air;53.27;8.32;0;Germany;0;0;0;OVELGÖNNE-GROßENMEER;7.3629999999999995;7.62
10/04/17 12:00;DEZ0519;Eurdep;air;53.46;8.36;0;Germany;0;0;0;STADLAND-SEEFELD;7.83;8.16
10/04/17 12:00;DEZ0521;Eurdep;air;53.65;7.61;0;Germany;0;0;0;ESENS;5.911;6.09
10/04/17 12:00;DEZ0525;Eurdep;air;53.77;7.69;0;Germany;0;0;0;SPIEKEROOG;6.2490000000000006;6.45
10/04/17 12:00;DEZ0531;Eurdep;air;53.6;8.53;0;Germany;0;0;0;BREMERHAVEN-WEDDEWARDEN;7.7540000000000004;8.18
10/04/17 12:00;DEZ0532;Eurdep;air;53.5;8.57;0;Germany;0;0;0;BREMERHAVEN-LUNEPLATE;6.131;6.470000000000001
10/04/17 12:00;DEZ0533;Eurdep;air;53.55;8.6;0;Germany;0;0;0;BREMERHAVEN-GEESTEMÜNDE;6.503;6.74
10/04/17 12:00;DEZ0540;Eurdep;air;51.3;6.54;0;Germany;0;0;0;KREFELD-FISCHELN;8.225;8.45
10/04/17 13:00;DEZ0541;Eurdep;air;51.18;6.4;0;Germany;0;0;0;MÖNCHENGLADBACH;8.024;8.25
10/04/17 12:00;DEZ0543;Eurdep;air;51.19;7.27;0;Germany;0;0;0;REMSCHEID-LENNEP;10.338;10
10/04/17 12:00;DEZ0545;Eurdep;air;51.3;7.2;0;Germany;0;0;0;WUPPERTAL-BARMEN;9.729000000000001;10
10/04/17 12:00;DEZ0553;Eurdep;air;51.59;6.21;0;Germany;0;0;0;KEVELAER;7.3340000000000005;7.57
09/04/17 21:00;DEZ0560;Eurdep;air;51.28;7.03;0;Germany;0;0;0;WÜLFRATH;8.98;8.98
10/04/17 12:00;DEZ0562;Eurdep;air;51.1;6.5600000000000005;0;Germany;0;0;0;GREVENBROICH-FÜRTH;10.087;10
10/04/17 12:00;DEZ0566;Eurdep;air;51.24;6.18;0;Germany;0;0;0;BRÜGGEN;6.949;7.32
09/04/17 21:00;DEZ0567;Eurdep;air;51.34;6.33;0;Germany;0;0;0;GREFRATH;8.67;8.67
10/04/17 12:00;DEZ0572;Eurdep;air;51.73;6.73;0;Germany;0;0;0;HAMMINKELN-MARIENTHAL;7.0680000000000005;7.33
10/04/17 12:00;DEZ0582;Eurdep;air;50.99;6.95;0;Germany;0;0;0;KÖLN-WEIDENPESCH;9.026;9
09/04/17 21:00;DEZ0585;Eurdep;air;50.6;6.29;0;Germany;0;0;0;SIMMERATH;9;9
10/04/17 12:00;DEZ0588;Eurdep;air;50.92;6.33;0;Germany;0;0;0;JÜLICH-KOSLAR;9.962;10
10/04/17 12:00;DEZ0589;Eurdep;air;50.96;6.43;0;Germany;0;0;0;JÜLICH-GÜSTEN;9.638;9.959999999999999
10/04/17 12:00;DEZ0594;Eurdep;air;51.01;6.43;0;Germany;0;0;0;TITZ;10.145;10
10/04/17 12:00;DEZ0599;Eurdep;air;51.01;6.82;0;Germany;0;0;0;PULHEIM-SINNERSDORF;8.392;8.690000000000001
10/04/17 12:00;DEZ0606;Eurdep;air;51.01;6.04;0;Germany;0;0;0;GANGELT-BIRGDEN;8.549;8.690000000000001
10/04/17 12:00;DEZ0607;Eurdep;air;51.04;6.13;0;Germany;0;0;0;HEINSBERG-HÜLHOVEN;9.459;9.72
10/04/17 12:00;DEZ0613;Eurdep;air;51.05;7.26;0;Germany;0;0;0;KÜRTEN;9.965;10
10/04/17 12:00;DEZ0615;Eurdep;air;50.63;7.22;0;Germany;0;0;0;BAD HONNEF;8.463;9.129999999999999
10/04/17 12:00;DEZ0616;Eurdep;air;50.78;7.01;0;Germany;0;0;0;BORNHEIM;8.351;8.59
10/04/17 12:00;DEZ0618;Eurdep;air;50.79;7.28;0;Germany;0;0;0;HENNEF/SIEG;8.475;8.82
09/04/17 21:00;DEZ0623;Eurdep;air;51.56;7.07;0;Germany;0;0;0;GELSENKIRCHEN;7.590000000000001;7.590000000000001
10/04/17 12:00;DEZ0624;Eurdep;air;52;7.59;0;Germany;0;0;0;MÜNSTER-KINDERHAUS;8.174;8.45
10/04/17 12:00;DEZ0627;Eurdep;air;52.13;6.91;0;Germany;0;0;0;AHAUS-ALSTÄTTE;6.165;6.58
10/04/17 12:00;DEZ0628;Eurdep;air;52.04;6.93;0;Germany;0;0;0;AHAUS-OTTENSTEIN;6.806;7
10/04/17 12:00;DEZ0632;Eurdep;air;51.83;6.79;0;Germany;0;0;0;BORKEN-RHEDEBRÜGGE;6.401000000000001;6.609999999999999
10/04/17 12:00;DEZ0633;Eurdep;air;51.95;6.99;0;Germany;0;0;0;GESCHER;6.651999999999999;6.95
10/04/17 12:00;DEZ0634;Eurdep;air;52.2;7.03;0;Germany;0;0;0;GRONAU;7.111;7.56
10/04/17 11:00;DEZ0635;Eurdep;air;52.22;7.01;0;Germany;0;0;0;GRONAU-SPECHTHOLTSHOOK;7.270999999999999;7.334999999999999
10/04/17 12:00;DEZ0636;Eurdep;air;52.17;7.06;0;Germany;0;0;0;GRONAU-EPE;5.991;6.37
10/04/17 12:00;DEZ0637;Eurdep;air;52.13;7.1;0;Germany;0;0;0;HEEK;6.773999999999999;7.01
10/04/17 12:00;DEZ0638;Eurdep;air;52.12;7.05;0;Germany;0;0;0;HEEK-AHLE;5.587;5.7299999999999995
10/04/17 12:00;DEZ0640;Eurdep;air;52.05;7.15;0;Germany;0;0;0;LEGDEN-ASBECK;7.486;7.790000000000001
10/04/17 12:00;DEZ0644;Eurdep;air;51.94;6.8100000000000005;0;Germany;0;0;0;SÜDLOHN-OEDING;8.328;8.66
10/04/17 12:00;DEZ0646;Eurdep;air;52.1;6.85;0;Germany;0;0;0;VREDEN-LÜNTEN;8.056000000000001;8.47
10/04/17 12:00;DEZ0647;Eurdep;air;51.79;7.62;0;Germany;0;0;0;ASCHEBERG;6.761;6.88
10/04/17 12:00;DEZ0651;Eurdep;air;52.03;7.27;0;Germany;0;0;0;ROSENDAHL-DARFELD;6.654000000000001;7.08
10/04/17 12:00;DEZ0652;Eurdep;air;51.85;7.48;0;Germany;0;0;0;SENDEN;7.2170000000000005;7.55
10/04/17 12:00;DEZ0653;Eurdep;air;51.54;7.33;0;Germany;0;0;0;CASTROP-RAUXEL;9.337;9
10/04/17 12:00;DEZ0654;Eurdep;air;51.67;7.36;0;Germany;0;0;0;DATTELN;6.623;6.82
10/04/17 12:00;DEZ0655;Eurdep;air;51.66;7;0;Germany;0;0;0;DORSTEN;6.901000000000001;7.19
09/04/17 21:00;DEZ0656;Eurdep;air;51.73;7.2;0;Germany;0;0;0;HALTERN;6.94;6.94
10/04/17 12:00;DEZ0657;Eurdep;air;51.65;7.16;0;Germany;0;0;0;MARL;7.074;7.459999999999999
10/04/17 13:00;DEZ0660;Eurdep;air;52.13;7.7;0;Germany;0;0;0;GREVEN FLUGHAFEN MS OS;8.59;8.82
10/04/17 12:00;DEZ0661;Eurdep;air;52.33;7.5;0;Germany;0;0;0;HÖRSTEL-DREIERWALDE;7.187;7.63
10/04/17 12:00;DEZ0664;Eurdep;air;52.11;7.88;0;Germany;0;0;0;LIENEN-KATTENVENNE;8.469;8.690000000000001
10/04/17 12:00;DEZ0666;Eurdep;air;52.21;7.19;0;Germany;0;0;0;OCHTRUP;7.0760000000000005;7.26
10/04/17 12:00;DEZ0668;Eurdep;air;52.16;7.33;0;Germany;0;0;0;STEINFURT-BURGSTEINFURT;7.0840000000000005;7.279999999999999
10/04/17 12:00;DEZ0672;Eurdep;air;51.89;8.04;0;Germany;0;0;0;ENNIGERLOH-WESTKIRCHEN;7.675;7.93
10/04/17 12:00;DEZ0673;Eurdep;air;51.91;7.8100000000000005;0;Germany;0;0;0;EVERSWINKEL-ALVERSKIRCHEN;6.6930000000000005;7.05
10/04/17 12:00;DEZ0674;Eurdep;air;51.8;8.2;0;Germany;0;0;0;OELDE-STROMBERG;7.587000000000001;7.85
10/04/17 12:00;DEZ0675;Eurdep;air;52.05;8.03;0;Germany;0;0;0;SASSENBERG-FÜCHTORF;6.58;6.92
10/04/17 12:00;DEZ0679;Eurdep;air;52.05;8.3;0;Germany;0;0;0;HALLE-HÖRSTE;6.906999999999999;7
09/04/17 21:00;DEZ0680;Eurdep;air;51.97;8.22;0;Germany;0;0;0;HARSEWINKEL;6;6
10/04/17 12:00;DEZ0682;Eurdep;air;51.92;8.66;0;Germany;0;0;0;SCHLOß HOLTE-STUKENBROCK;6.529999999999999;6.74
10/04/17 12:00;DEZ0685;Eurdep;air;52.23;8.47;0;Germany;0;0;0;RÖDINGHAUSEN;8.417;8.59
24/03/17 23:00;DEZ0686;Eurdep;air;52.12;8.49;0;Germany;0;0;0;SPENGE-LENZINGHAUSEN;0;0
10/04/17 12:00;DEZ0687;Eurdep;air;52.17;8.86;0;Germany;0;0;0;VLOTHO;9.849;10
10/04/17 12:00;DEZ0688;Eurdep;air;51.74;9.01;0;Germany;0;0;0;BAD DRIBURG;10.407;10
10/04/17 12:00;DEZ0692;Eurdep;air;51.79;9.4;0;Germany;0;0;0;HÖXTER;10.415000000000001;10
10/04/17 12:00;DEZ0693;Eurdep;air;51.82;9.24;0;Germany;0;0;0;MARIENMÜNSTER-VÖRDEN;11.107;11
10/04/17 12:00;DEZ0694;Eurdep;air;51.88;9.08;0;Germany;0;0;0;STEINHEIM;9.455;9.72
10/04/17 12:00;DEZ0698;Eurdep;air;51.93;8.89;0;Germany;0;0;0;DETMOLD;10.151;10
10/04/17 12:00;DEZ0702;Eurdep;air;52.02;8.91;0;Germany;0;0;0;LEMGO;7.233;7.62
09/04/17 21:00;DEZ0705;Eurdep;air;52.26;8.75;0;Germany;0;0;0;BAD OEYNHAUSEN-WULFERD.;8;8
10/04/17 12:00;DEZ0707;Eurdep;air;52.31;8.61;0;Germany;0;0;0;LÜBBECKE;8.817;9.05
10/04/17 12:00;DEZ0708;Eurdep;air;52.38;8.99;0;Germany;0;0;0;PETERSHAGEN-LAHDE;8.662;8.940000000000001
10/04/17 12:00;DEZ0709;Eurdep;air;52.43;8.6;0;Germany;0;0;0;RAHDEN;6.601000000000001;6
10/04/17 12:00;DEZ0710;Eurdep;air;52.37;8.46;0;Germany;0;0;0;STEMWEDE-LEVERN;6.856;7.24
10/04/17 12:00;DEZ0711;Eurdep;air;51.55;8.55;0;Germany;0;0;0;BÜREN;7.946;8.17
09/04/17 21:00;DEZ0712;Eurdep;air;51.76;8.56;0;Germany;0;0;0;DELBRÜCK;6.12;6.12
10/04/17 12:00;DEZ0714;Eurdep;air;51.62;8.89;0;Germany;0;0;0;LICHTENAU;8.645999999999999;8.98
10/04/17 12:00;DEZ0719;Eurdep;air;51.43;7.19;0;Germany;0;0;0;BOCHUM;9.829;10
10/04/17 12:00;DEZ0721;Eurdep;air;51.47;7.6;0;Germany;0;0;0;DORTMUND-LICHTENDORF;9.668000000000001;9.940000000000001
10/04/17 12:00;DEZ0726;Eurdep;air;51.36;7.3;0;Germany;0;0;0;SPROCKHÖVEL-HIDDINGHAUSEN;8.842;9.17
10/04/17 12:00;DEZ0730;Eurdep;air;51.39;8.58;0;Germany;0;0;0;BRILON;8.975;9.309999999999999
10/04/17 12:00;DEZ0733;Eurdep;air;51.47;8.85;0;Germany;0;0;0;MARSBERG;10.641;11
10/04/17 12:00;DEZ0737;Eurdep;air;51.16;8.29;0;Germany;0;0;0;SCHMALLENBERG;11.841;12
10/04/17 12:00;DEZ0739;Eurdep;air;51.32;8;0;Germany;0;0;0;SUNDERN;8.759;9.23
10/04/17 12:00;DEZ0748;Eurdep;air;51.12;7.88;0;Germany;0;0;0;ATTENDORN-NEULISTERNOHL;9.984;10
10/04/17 12:00;DEZ0750;Eurdep;air;51.08;8.1;0;Germany;0;0;0;KIRCHHUNDEM;11.689;12
09/04/17 21:00;DEZ0752;Eurdep;air;50.98;7.85;0;Germany;0;0;0;WENDEN-GERLINGEN;11;11
10/04/17 12:00;DEZ0753;Eurdep;air;51.08;8.42;0;Germany;0;0;0;BAD BERLEBURG-WEMLIGHAUSEN;10.77;11
09/04/17 21:00;DEZ0761;Eurdep;air;51.66;8.05;0;Germany;0;0;0;LIPPETAL-LIPPBORG;6.99;6.99
10/04/17 12:00;DEZ0763;Eurdep;air;51.69;8.44;0;Germany;0;0;0;LIPPSTADT-HÖRSTE;6.215;6
10/04/17 12:00;DEZ0766;Eurdep;air;51.5;8.44;0;Germany;0;0;0;RÜTHEN;8.28;8.629999999999999
10/04/17 12:00;DEZ0767;Eurdep;air;51.43;8.34;0;Germany;0;0;0;WARSTEIN;9.554;9.92
10/04/17 12:00;DEZ0771;Eurdep;air;51.62;7.52;0;Germany;0;0;0;LÜNEN;7.49;7.69
10/04/17 12:00;DEZ0772;Eurdep;air;51.54;7.73;0;Germany;0;0;0;UNNA-MÜHLHAUSEN;8.891;9.17
10/04/17 11:00;DEZ0775;Eurdep;air;50.16;8.65;0;Germany;0;0;0;FRANKFURT A.M. ST ESCHERSHEIM;9.870000000000001;10
10/04/17 12:00;DEZ0778;Eurdep;air;50.02;8.53;0;Germany;0;0;0;FRANKFURT A.M.;7.720000000000001;8.16
10/04/17 12:00;DEZ0781;Eurdep;air;50.09;8.22;0;Germany;0;0;0;WIESBADEN;10.14;10
10/04/17 12:00;DEZ0786;Eurdep;air;49.67;8.53;0;Germany;0;0;0;EINHAUSEN;8.711;9.24
10/04/17 12:00;DEZ0790;Eurdep;air;49.59;8.81;0;Germany;0;0;0;WALDMICHELBACH ST GADERN;11.656;12
10/04/17 12:00;DEZ0791;Eurdep;air;49.74;8.62;0;Germany;0;0;0;ALSBACH-HÄHNLEIN;9.501000000000001;9.91
10/04/17 12:00;DEZ0794;Eurdep;air;49.8;8.64;0;Germany;0;0;0;PFUNGSTADT;9.259;9
10/04/17 12:00;DEZ0796;Eurdep;air;49.77;8.48;0;Germany;0;0;0;BIEBESHEIM;9.49;9.95
10/04/17 12:00;DEZ0797;Eurdep;air;49.91;8.48;0;Germany;0;0;0;GROß-GERAU;9.751000000000001;10
10/04/17 12:00;DEZ0798;Eurdep;air;49.97;8.58;0;Germany;0;0;0;MÖRFELDEN-WALLDORF;7.8629999999999995;8.22
10/04/17 12:00;DEZ0799;Eurdep;air;49.84;8.45;0;Germany;0;0;0;RIEDSTADT;8.789;9.209999999999999
10/04/17 12:00;DEZ0803;Eurdep;air;50.31;8.56;0;Germany;0;0;0;WEHRHEIM;9.926;10
10/04/17 12:00;DEZ0805;Eurdep;air;50.12;9.47;0;Germany;0;0;0;FLÖRSBACHTAL OT LOHRHAUPTEN;9.84;10
10/04/17 12:00;DEZ0807;Eurdep;air;50.2;9.18;0;Germany;0;0;0;GELNHAUSEN;10.033;10
10/04/17 12:00;DEZ0811;Eurdep;air;50.35;9.53;0;Germany;0;0;0;SCHLÜCHTERN;11.193000000000001;11
10/04/17 12:00;DEZ0812;Eurdep;air;50.26;9.52;0;Germany;0;0;0;STEINAU A.D.STR. OT MARJOß;9.238;9.72
10/04/17 12:00;DEZ0813;Eurdep;air;50.27;9.32;0;Germany;0;0;0;WÄCHTERSBACH;10.264;10
10/04/17 12:00;DEZ0814;Eurdep;air;50.06;8.37;0;Germany;0;0;0;HOFHEIM A.T. /WALLAU;9.939;10
10/04/17 12:00;DEZ0816;Eurdep;air;49.81;9.05;0;Germany;0;0;0;BREUBERG OT RAI-BREITENBACH;10.163;10
10/04/17 12:00;DEZ0818;Eurdep;air;49.72;8.84;0;Germany;0;0;0;REICHELSHEIM (ODW);11.974;12
10/04/17 12:00;DEZ0819;Eurdep;air;49.5;8.92;0;Germany;0;0;0;ROTHENBERG;8.613;8.99
10/04/17 12:00;DEZ0820;Eurdep;air;50.02;8.8;0;Germany;0;0;0;DIETZENBACH;8.187000000000001;8
10/04/17 12:00;DEZ0821;Eurdep;air;49.96;8.66;0;Germany;0;0;0;EGELSBACH;9.329;9.67
10/04/17 12:00;DEZ0823;Eurdep;air;50.05;8.97;0;Germany;0;0;0;SELIGENSTADT;9.556999999999999;9.940000000000001
10/04/17 12:00;DEZ0824;Eurdep;air;50.16;8.06;0;Germany;0;0;0;BAD SCHWALBACH;10.619;10
10/04/17 12:00;DEZ0828;Eurdep;air;50.05;7.8;0;Germany;0;0;0;LORCH;11.393;11
10/04/17 12:00;DEZ0830;Eurdep;air;50.29;8.95;0;Germany;0;0;0;ALTENSTADT;10.644;11
10/04/17 12:00;DEZ0832;Eurdep;air;50.29;9.11;0;Germany;0;0;0;BÜDINGEN;9.949;10
10/04/17 12:00;DEZ0835;Eurdep;air;50.32;8.75;0;Germany;0;0;0;FRIEDBERG (HESSEN);9.533;9.959999999999999
10/04/17 12:00;DEZ0836;Eurdep;air;50.39;9.14;0;Germany;0;0;0;HIRZENHAIN;9.770999999999999;10
10/04/17 12:00;DEZ0840;Eurdep;air;50.47;8.89;0;Germany;0;0;0;HUNGEN;9.666;10
10/04/17 12:00;DEZ0847;Eurdep;air;50.58;8.29;0;Germany;0;0;0;GREIFENSTEIN;10.096;10
09/04/17 21:00;DEZ0850;Eurdep;air;50.3;8.27;0;Germany;0;0;0;BAD CAMBERG;10;10
09/04/17 21:00;DEZ0851;Eurdep;air;50.44;8.03;0;Germany;0;0;0;HADAMAR;10;10
10/04/17 12:00;DEZ0853;Eurdep;air;50.48;8.24;0;Germany;0;0;0;WEILBURG;10.907;11
10/04/17 12:00;DEZ0854;Eurdep;air;50.43;8.38;0;Germany;0;0;0;WEILMÜNSTER;10.375;11
10/04/17 12:00;DEZ0858;Eurdep;air;50.69;8.61;0;Germany;0;0;0;LOHRA OT KIRCHVERS;9.991;10
09/04/17 21:00;DEZ0859;Eurdep;air;50.79;8.77;0;Germany;0;0;0;MARBURG;8.95;8.95
10/04/17 12:00;DEZ0860;Eurdep;air;50.82;8.99;0;Germany;0;0;0;STADTALLENDORF;8.997;9.34
10/04/17 12:00;DEZ0862;Eurdep;air;50.72;9.25;0;Germany;0;0;0;ALSFELD;11.822;12
10/04/17 12:00;DEZ0864;Eurdep;air;50.69;9.05;0;Germany;0;0;0;GEMÜNDEN (FELDA);8.145999999999999;8.47
10/04/17 12:00;DEZ0865;Eurdep;air;50.63;9.39;0;Germany;0;0;0;LAUTERBACH;8;9.16
10/04/17 12:00;DEZ0866;Eurdep;air;50.67;9.57;0;Germany;0;0;0;SCHLITZ;10.506;10
10/04/17 13:00;DEZ0874;Eurdep;air;50.5;9.94;0;Germany;0;0;0;GERSFELD/RHÖN;9.184999999999999;9.47
09/04/17 21:00;DEZ0882;Eurdep;air;50.65;10.02;0;Germany;0;0;0;TANN (RHÖN);10;10
10/04/17 00:00;DEZ0893;Eurdep;air;51.25;9.37;0;Germany;0;0;0;BAUNATAL OT GROßENRITTE;9.517;9.620000000000001
10/04/17 12:00;DEZ0899;Eurdep;air;51.49;9.59;0;Germany;0;0;0;REINHARDSHAGEN OT VECKERHAGEN;9.434999999999999;9
10/04/17 12:00;DEZ0903;Eurdep;air;51.37;9.3;0;Germany;0;0;0;ZIERENBERG;10.395999999999999;10
10/04/17 12:00;DEZ0905;Eurdep;air;51.02;9.41;0;Germany;0;0;0;HOMBERG (EFZE);10.818999999999999;11
09/04/17 21:00;DEZ0911;Eurdep;air;51.38;9;0;Germany;0;0;0;BAD AROLSEN;10;10
10/04/17 12:00;DEZ0913;Eurdep;air;51.01;8.63;0;Germany;0;0;0;BATTENBERG (EDER);10.574;11
10/04/17 09:00;DEZ0914;Eurdep;air;51.36;8.81;0;Germany;0;0;0;DIEMELSEE OT ADORF;10.038;10
10/04/17 12:00;DEZ0918;Eurdep;air;50.97;8.98;0;Germany;0;0;0;GEMÜNDEN (WOHRA);11.007;11
09/04/17 21:00;DEZ0920;Eurdep;air;51.2;8.8;0;Germany;0;0;0;LICHTENFELS ST GODDELSHEIM;9.879999999999999;9.879999999999999
10/04/17 12:00;DEZ0921;Eurdep;air;51.23;9.09;0;Germany;0;0;0;WALDECK OT NETZE;10.33;10
10/04/17 12:00;DEZ0922;Eurdep;air;51.28;8.66;0;Germany;0;0;0;WILLINGEN OT USSELN;11.007;11
10/04/17 12:00;DEZ0926;Eurdep;air;51.04;10.15;0;Germany;0;0;0;HERLESHAUSEN;10;10
10/04/17 12:00;DEZ0927;Eurdep;air;51.2;9.65;0;Germany;0;0;0;HESSISCH LICHTENAU OT QUENTEL;11.074;11
10/04/17 12:00;DEZ0928;Eurdep;air;51.24;10.06;0;Germany;0;0;0;MEINHARD OT HITZELRODE;10.629999999999999;10
09/04/17 21:00;DEZ0931;Eurdep;air;51.19;10.18;0;Germany;0;0;0;WANFRIED;11;11
10/04/17 12:00;DEZ0932;Eurdep;air;51.35;9.86;0;Germany;0;0;0;WITZENHAUSEN;11.33;11
10/04/17 12:00;DEZ0933;Eurdep;air;50.51;6.99;0;Germany;0;0;0;ALTENAHR-ALTENBURG;11.107;11
10/04/17 12:00;DEZ0935;Eurdep;air;50.46;7.21;0;Germany;0;0;0;NIEDERZISSEN;11.511;11
10/04/17 12:00;DEZ0942;Eurdep;air;49.79;7.49;0;Germany;0;0;0;KIRN/NAHE;10.193000000000001;10
10/04/17 12:00;DEZ0943;Eurdep;air;49.95;7.79;0;Germany;0;0;0;STROMBERG;10.248999999999999;10
10/04/17 12:00;DEZ0945;Eurdep;air;49.88;7.63;0;Germany;0;0;0;WINTERBACH;11.333;11
10/04/17 12:00;DEZ0949;Eurdep;air;49.7;7.35;0;Germany;0;0;0;IDAR-OBERSTEIN;10.822;11
10/04/17 12:00;DEZ0950;Eurdep;air;49.86;7.34;0;Germany;0;0;0;RHAUNEN/HUNSRÜCK;11.504000000000001;12
10/04/17 12:00;DEZ0954;Eurdep;air;50.22;6.98;0;Germany;0;0;0;ULMEN;10.53;10
10/04/17 12:00;DEZ0957;Eurdep;air;50.32;7.22;0;Germany;0;0;0;MAYEN;11.589;11
10/04/17 12:00;DEZ0959;Eurdep;air;50.41;7.55;0;Germany;0;0;0;KALTENENGERS;10.781;11
10/04/17 12:00;DEZ0960;Eurdep;air;50.39;7.5;0;Germany;0;0;0;MÜLHEIM-KÄRLICH;12.711;13
10/04/17 12:00;DEZ0961;Eurdep;air;50.34;7.46;0;Germany;0;0;0;WOLKEN;12.056000000000001;12
10/04/17 12:00;DEZ0962;Eurdep;air;50.24;7.36;0;Germany;0;0;0;MÜNSTERMAIFELD;11.759;12
10/04/17 12:00;DEZ0965;Eurdep;air;50.56;7.29;0;Germany;0;0;0;LINZ AM RHEIN;9.251999999999999;9.58
10/04/17 12:00;DEZ0966;Eurdep;air;50.43;7.48;0;Germany;0;0;0;NEUWIED;11.53;12
10/04/17 12:00;DEZ0967;Eurdep;air;50.17;7.5600000000000005;0;Germany;0;0;0;HALSENBACH;11.604000000000001;11
10/04/17 12:00;DEZ0968;Eurdep;air;50.07;7.45;0;Germany;0;0;0;KASTELLAUN;11.489;11
10/04/17 12:00;DEZ0969;Eurdep;air;49.91;7.51;0;Germany;0;0;0;MENGERSCHIED;11.656;12
09/04/17 21:00;DEZ0970;Eurdep;air;49.98;7.52;0;Germany;0;0;0;SIMMERN;11;11
10/04/17 12:00;DEZ0973;Eurdep;air;50.35;7.89;0;Germany;0;0;0;HOLZAPPEL;11.440999999999999;11
10/04/17 12:00;DEZ0974;Eurdep;air;50.27;7.98;0;Germany;0;0;0;KATZENELNBOGEN;12.719;13
10/04/17 12:00;DEZ0975;Eurdep;air;50.32;7.59;0;Germany;0;0;0;LAHNSTEIN;10.684999999999999;11
10/04/17 12:00;DEZ0976;Eurdep;air;50.2;7.86;0;Germany;0;0;0;NASTÄTTEN;10.176;10
10/04/17 12:00;DEZ0977;Eurdep;air;50.15;7.73;0;Germany;0;0;0;ST. GOARSHAUSEN;12.048;12
10/04/17 12:00;DEZ0978;Eurdep;air;50.27;7.83;0;Germany;0;0;0;SINGHOFEN;10.448;10
10/04/17 12:00;DEZ0983;Eurdep;air;50.6;8.07;0;Germany;0;0;0;RENNEROD;11;11
09/04/17 21:00;DEZ0984;Eurdep;air;50.65;7.72;0;Germany;0;0;0;WAHLROD;9.790000000000001;9.790000000000001
10/04/17 13:00;DEZ0985;Eurdep;air;49.75;6.66;0;Germany;0;0;0;TRIER;10.895999999999999;11
10/04/17 12:00;DEZ0988;Eurdep;air;50.09;6.8100000000000005;0;Germany;0;0;0;MANDERSCHEID;9.989;10
10/04/17 12:00;DEZ0989;Eurdep;air;49.86;6.9;0;Germany;0;0;0;NEUMAGEN-DHRON;11.104000000000001;11
10/04/17 12:00;DEZ0994;Eurdep;air;50.02;6.23;0;Germany;0;0;0;KARLSHAUSEN;10.806999999999999;11
10/04/17 12:00;DEZ0997;Eurdep;air;49.94;6.64;0;Germany;0;0;0;SPEICHER;11.159;11
10/04/17 12:00;DEZ0998;Eurdep;air;49.97;6.19;0;Germany;0;0;0;WALDHOF-FALKENSTEIN;10.622;11
10/04/17 12:00;DEZ1000;Eurdep;air;50.3;6.34;0;Germany;0;0;0;AUW BEI PRÜM;9.679;10
10/04/17 12:00;DEZ1003;Eurdep;air;50.1;6.45;0;Germany;0;0;0;FEUERSCHEID;9.306999999999999;9.629999999999999
10/04/17 12:00;DEZ1004;Eurdep;air;50.16;6.22;0;Germany;0;0;0;GROßKAMPENBERG;10.348;10
10/04/17 12:00;DEZ1006;Eurdep;air;50.21;6.42;0;Germany;0;0;0;PRÜM;10.526;10
10/04/17 12:00;DEZ1008;Eurdep;air;50.29;6.67;0;Germany;0;0;0;HILLESHEIM;9.914;10
10/04/17 12:00;DEZ1009;Eurdep;air;50.35;6.57;0;Germany;0;0;0;JÜNKERATH;10.706999999999999;11
10/04/17 12:00;DEZ1011;Eurdep;air;50.33;6.45;0;Germany;0;0;0;ORMONT;9.415000000000001;9.73
10/04/17 12:00;DEZ1013;Eurdep;air;49.72;6.79;0;Germany;0;0;0;OSBURG;10.785;11
10/04/17 12:00;DEZ1016;Eurdep;air;49.6;6.5600000000000005;0;Germany;0;0;0;SAARBURG;10.706999999999999;11
10/04/17 12:00;DEZ1019;Eurdep;air;49.67;6.52;0;Germany;0;0;0;TAWERN;10.131;10
10/04/17 12:00;DEZ1021;Eurdep;air;49.6;6.42;0;Germany;0;0;0;WINCHERINGEN;11.393;11
10/04/17 12:00;DEZ1022;Eurdep;air;49.6;6.69;0;Germany;0;0;0;ZERF;9.998999999999999;10
10/04/17 12:00;DEZ1028;Eurdep;air;49.2;7.62;0;Germany;0;0;0;PIRMASENS;11.641;12
10/04/17 12:00;DEZ1030;Eurdep;air;49.67;8.35;0;Germany;0;0;0;WORMS;9.189;9
10/04/17 12:00;DEZ1032;Eurdep;air;49.74;8.12;0;Germany;0;0;0;ALZEY;12.915000000000001;13
10/04/17 12:00;DEZ1034;Eurdep;air;49.77;7.95;0;Germany;0;0;0;STEIN-BOCKENHEIM;10.633;10
10/04/17 12:00;DEZ1036;Eurdep;air;49.47;8.19;0;Germany;0;0;0;BAD DÜRKHEIM;9.342;9
10/04/17 12:00;DEZ1037;Eurdep;air;49.35;7.94;0;Germany;0;0;0;ELMSTEIN;9.969;10
10/04/17 12:00;DEZ1038;Eurdep;air;49.57;8.18;0;Germany;0;0;0;GRÜNSTADT;9.611;9.870000000000001
10/04/17 12:00;DEZ1039;Eurdep;air;49.41;8.01;0;Germany;0;0;0;WEIDENTHAL;9.434999999999999;9
10/04/17 12:00;DEZ1041;Eurdep;air;49.66;8.01;0;Germany;0;0;0;KIRCHHEIMBOLANDEN;12.067;12
09/04/17 21:00;DEZ1042;Eurdep;air;49.73;7.78;0;Germany;0;0;0;OBERMOSCHEL;12;12
10/04/17 12:00;DEZ1043;Eurdep;air;49.6;7.78;0;Germany;0;0;0;GUNDERSWEILER;11.959;12
10/04/17 06:00;DEZ1045;Eurdep;air;49.21;8.36;0;Germany;0;0;0;GERMERSHEIM;8.891;9.36
10/04/17 12:00;DEZ1046;Eurdep;air;48.99;8.24;0;Germany;0;0;0;NEUBURG AM RHEIN;8.048;8.57
10/04/17 12:00;DEZ1049;Eurdep;air;49.05;8.25;0;Germany;0;0;0;WÖRTH AM RHEIN;8.077;8.559999999999999
10/04/17 12:00;DEZ1051;Eurdep;air;49.49;7.89;0;Germany;0;0;0;ENKENBACH-ALSENBORN;9.547;9.809999999999999
10/04/17 12:00;DEZ1058;Eurdep;air;49.28;8.23;0;Germany;0;0;0;BÖBINGEN;9.503;9.78
10/04/17 12:00;DEZ1059;Eurdep;air;49.05;8.03;0;Germany;0;0;0;STEINFELD;8.452;8.95
10/04/17 12:00;DEZ1060;Eurdep;air;49.26;8.4;0;Germany;0;0;0;RÖMERBERG-MECHTERSHEIM;8.951;9.28
10/04/17 12:00;DEZ1061;Eurdep;air;49.4;8.39;0;Germany;0;0;0;SCHIFFERSTADT;9.159;9
10/04/17 12:00;DEZ1065;Eurdep;air;49.97;8.26;0;Germany;0;0;0;MAINZ-HECHTSHEIM;11.552;11
10/04/17 12:00;DEZ1071;Eurdep;air;49.32;7.7;0;Germany;0;0;0;HELTERSBERG;9.006;9.290000000000001
10/04/17 12:00;DEZ1072;Eurdep;air;49.26;7.5600000000000005;0;Germany;0;0;0;THALEISCHWEILER-FRÖSCHEN;10.256;10
10/04/17 12:00;DEZ1073;Eurdep;air;49.22;7.9;0;Germany;0;0;0;WILGARTSWIESEN;9.235;9.58
10/04/17 12:00;DEZ1075;Eurdep;air;49.19;7.44;0;Germany;0;0;0;DIETRICHINGEN;12.259;12
10/04/17 12:00;DEZ1078;Eurdep;air;48.78;9.18;0;Germany;0;0;0;STUTTGART;11.467;12
10/04/17 12:00;DEZ1079;Eurdep;air;48.69;9.04;0;Germany;0;0;0;BÖBLINGEN;10.626000000000001;11
10/04/17 12:00;DEZ1080;Eurdep;air;48.6;8.86;0;Germany;0;0;0;HERRENBERG;10.822;11
10/04/17 11:00;DEZ1081;Eurdep;air;48.8;9;0;Germany;0;0;0;LEONBERG;12.064;12
10/04/17 12:00;DEZ1082;Eurdep;air;48.72;8.98;0;Germany;0;0;0;SINDELFINGEN;11.356;11
09/04/17 21:00;DEZ1084;Eurdep;air;48.75;9.32;0;Germany;0;0;0;ESSLINGEN;10;10
10/04/17 12:00;DEZ1086;Eurdep;air;48.74;9.48;0;Germany;0;0;0;LICHTENWALD;8.774;9.33
09/04/17 21:00;DEZ1087;Eurdep;air;48.55;9.37;0;Germany;0;0;0;NEUFFEN;9.809999999999999;9.809999999999999
10/04/17 12:00;DEZ1090;Eurdep;air;48.72;9.26;0;Germany;0;0;0;OSTFILDERN ST RUIT;9.411;9.91
10/04/17 12:00;DEZ1091;Eurdep;air;48.68;9.93;0;Germany;0;0;0;BÖHMENKIRCH;9.289;9.66
10/04/17 12:00;DEZ1092;Eurdep;air;48.74;9.72;0;Germany;0;0;0;GÖPPINGEN ST HOHENSTAUF.;10.481;10
10/04/17 12:00;DEZ1104;Eurdep;air;48.99;9.55;0;Germany;0;0;0;MURRHARDT;10.889;11
10/04/17 12:00;DEZ1109;Eurdep;air;49.18;8.83;0;Germany;0;0;0;EPPINGEN ST ELSENZ;10.948;11
10/04/17 12:00;DEZ1117;Eurdep;air;49.28;9.8;0;Germany;0;0;0;KÜNZELSAU ST NITZENHAUSEN;11.537;11
10/04/17 12:00;DEZ1118;Eurdep;air;49.3;9.62;0;Germany;0;0;0;NIEDERNHALL;12.667;13
09/04/17 21:00;DEZ1121;Eurdep;air;49.29;10.04;0;Germany;0;0;0;BLAUFELDEN OT WIESENBACH;10;10
10/04/17 12:00;DEZ1126;Eurdep;air;49.08;9.55;0;Germany;0;0;0;MAINHARDT;9.305;9.690000000000001
10/04/17 12:00;DEZ1127;Eurdep;air;49.1;9.73;0;Germany;0;0;0;SCHWÄBISCH HALL;11.751999999999999;12
10/04/17 12:00;DEZ1129;Eurdep;air;49.08;9.98;0;Germany;0;0;0;FRANKENHARDT OT GRÜNDELH.;9.099;9.42
10/04/17 12:00;DEZ1130;Eurdep;air;49.41;9.83;0;Germany;0;0;0;BAD MERGENTHEIM ST HERBSTHAUSEN;10.448;10
10/04/17 12:00;DEZ1132;Eurdep;air;49.67;9.74;0;Germany;0;0;0;GROßRINDERFELD;9.961;10
09/04/17 21:00;DEZ1133;Eurdep;air;49.53;9.85;0;Germany;0;0;0;IGERSHEIM OT HARTHAUSEN;9.940000000000001;9.940000000000001
10/04/17 12:00;DEZ1140;Eurdep;air;48.86;9.79;0;Germany;0;0;0;DURLANGEN;10.726;11
10/04/17 12:00;DEZ1144;Eurdep;air;48.76;10.33;0;Germany;0;0;0;NERESHEIM;7.6579999999999995;8.01
10/04/17 12:00;DEZ1145;Eurdep;air;48.94;10.37;0;Germany;0;0;0;UNTERSCHNEIDHEIM;9.411;9.78
10/04/17 12:00;DEZ1146;Eurdep;air;48.83;10.12;0;Germany;0;0;0;AALEN ST UNTERKOCHEN;7.691;8.040000000000001
10/04/17 12:00;DEZ1154;Eurdep;air;49.12;8.73;0;Germany;0;0;0;KRAICHTAL ST MÜNZESHEIM;11.044;11
10/04/17 12:00;DEZ1156;Eurdep;air;49.13;8.53;0;Germany;0;0;0;KARLSDORF-NEUTHARD OT K.;8.75;9.120000000000001
10/04/17 12:00;DEZ1160;Eurdep;air;49.09;8.48;0;Germany;0;0;0;STUTENSEE OT FRIEDRICHST.;8.368;8.790000000000001
10/04/17 12:00;DEZ1163;Eurdep;air;48.69;8.13;0;Germany;0;0;0;BÜHL;10.852;11
10/04/17 12:00;DEZ1164;Eurdep;air;48.69;8.36;0;Germany;0;0;0;FORBACH OT GAUSBACH;12.943999999999999;13
09/04/17 21:00;DEZ1165;Eurdep;air;48.61;8.28;0;Germany;0;0;0;FORBACH OT HUNDSBACH;14;14
10/04/17 12:00;DEZ1166;Eurdep;air;48.79;8.33;0;Germany;0;0;0;GAGGENAU ST OTTENAU;10.552;10
09/04/17 21:00;DEZ1170;Eurdep;air;48.75;8;0;Germany;0;0;0;RHEINMÜNSTER OT GREFFERN;8.790000000000001;8.790000000000001
10/04/17 12:00;DEZ1174;Eurdep;air;49.37;9.42;0;Germany;0;0;0;ADELSHEIM ST LEIBENSTADT;11.806999999999999;12
10/04/17 12:00;DEZ1176;Eurdep;air;49.52;9.33;0;Germany;0;0;0;BUCHEN;10.548;11
10/04/17 12:00;DEZ1177;Eurdep;air;49.61;9.47;0;Germany;0;0;0;HARDHEIM;11.667;12
10/04/17 12:00;DEZ1196;Eurdep;air;48.66;8.6;0;Germany;0;0;0;NEUWEILER;10.440999999999999;10
10/04/17 12:00;DEZ1197;Eurdep;air;48.57;8.69;0;Germany;0;0;0;ROHRDORF;11.211;11
10/04/17 12:00;DEZ1199;Eurdep;air;48.7;8.53;0;Germany;0;0;0;BAD WILDBAD;8.551;8.68
10/04/17 12:00;DEZ1200;Eurdep;air;48.71;8.76;0;Germany;0;0;0;CALW ST HEUMADEN;10.811;11
10/04/17 12:00;DEZ1203;Eurdep;air;48.85;8.58;0;Germany;0;0;0;NEUENBÜRG;11.919;12
10/04/17 12:00;DEZ1206;Eurdep;air;48.35;8.39;0;Germany;0;0;0;ALPIRSBACH;14.881;15
10/04/17 12:00;DEZ1210;Eurdep;air;48.52;8.56;0;Germany;0;0;0;PFALZGRAFENWEILER;11.818999999999999;12
10/04/17 12:00;DEZ1211;Eurdep;air;48.59;8.42;0;Germany;0;0;0;SEEWALD OT BESENFELD;11.081;11
10/04/17 13:00;DEZ1213;Eurdep;air;47.92;7.91;0;Germany;0;0;0;SCHAUINSLAND FREIBURG;11.382;11
10/04/17 12:00;DEZ1218;Eurdep;air;47.98;7.91;0;Germany;0;0;0;FREIBURG ST EBNET;11.395999999999999;11
10/04/17 12:00;DEZ1223;Eurdep;air;47.86;8.11;0;Germany;0;0;0;FELDBERG OT ALTGLASHÜTTEN;12.259;12
10/04/17 12:00;DEZ1229;Eurdep;air;48.17;8.06;0;Germany;0;0;0;ELZACH;12;12
