date;id_station;id_network;type;latitude;longitude;altitude;country;area_adm_1;area_adm_2;area_adm_3;name;value;value_max
27/06/17 12:00;DEZ0001;Eurdep;air;54.78;9.38;0;Germany;0;0;0;FLENSBURG;7.348999999999999;7.540000000000001
27/06/17 12:00;DEZ0005;Eurdep;air;54.02;9.05;0;Germany;0;0;0;BARLT;8.076;8.34
27/06/17 12:00;DEZ0008;Eurdep;air;54.17;9.33;0;Germany;0;0;0;BUNSOH;6.784000000000001;7
27/06/17 12:00;DEZ0012;Eurdep;air;54.19;9.15;0;Germany;0;0;0;HEIDE;6.562;6.74
27/06/17 12:00;DEZ0013;Eurdep;air;54.35;9.02;0;Germany;0;0;0;LEHE;7.192;7.359999999999999
27/06/17 12:00;DEZ0017;Eurdep;air;54.21;8.92;0;Germany;0;0;0;WESSELBUREN;7.468000000000001;7.640000000000001
27/06/17 12:00;DEZ0032;Eurdep;air;53.39;10.49;0;Germany;0;0;0;SCHNAKENBEK;7.215000000000001;7.45
27/06/17 12:00;DEZ0034;Eurdep;air;53.44;10.45;0;Germany;0;0;0;WIERSHOP;8.434000000000001;8.629999999999999
27/06/17 12:00;DEZ0038;Eurdep;air;54.77;8.29;0;Germany;0;0;0;HÖRNUM / SYLT;4.904999999999999;5.16
27/06/17 12:00;DEZ0044;Eurdep;air;54.65;8.35;0;Germany;0;0;0;NEBEL / AMRUM;6.226;6.57
27/06/17 12:00;DEZ0048;Eurdep;air;54.52;8.67;0;Germany;0;0;0;PELLWORM;8.357;8.690000000000001
27/06/17 11:00;DEZ0055;Eurdep;air;54.86;9.01;0;Germany;0;0;0;WESTRE;6.241;6.49
27/06/17 12:00;DEZ0057;Eurdep;air;54.5;11.24;0;Germany;0;0;0;MARIENLEUCHTE / FEHMARN;8.862;9
27/06/17 12:00;DEZ0059;Eurdep;air;54.2;11.09;0;Germany;0;0;0;DAHME;7.672;8.02
27/06/17 12:00;DEZ0060;Eurdep;air;54.15;10.6;0;Germany;0;0;0;EUTIN;7.76;7.88
27/06/17 12:00;DEZ0062;Eurdep;air;54.38;10.95;0;Germany;0;0;0;HEILIGENHAFEN;8.614;8.940000000000001
27/06/17 12:00;DEZ0068;Eurdep;air;53.9;10.66;0;Germany;0;0;0;STOCKELSDORF;7.0040000000000004;7.33
27/06/17 12:00;DEZ0072;Eurdep;air;53.86;9.74;0;Germany;0;0;0;BOKEL;6.239;6
27/06/17 14:00;DEZ0074;Eurdep;air;54.17;7.89;0;Germany;0;0;0;HELGOLAND / UNTERLAND;7.76;7.93
27/06/17 12:00;DEZ0080;Eurdep;air;54.3;10.23;0;Germany;0;0;0;KLAUSDORF;7.56;7.81
27/06/17 12:00;DEZ0082;Eurdep;air;54.18;10.2;0;Germany;0;0;0;NETTELSEE;7.029000000000001;7.290000000000001
27/06/17 12:00;DEZ0083;Eurdep;air;54.16;10.45;0;Germany;0;0;0;PLÖN;7.7540000000000004;8.03
27/06/17 12:00;DEZ0086;Eurdep;air;54.29;10.42;0;Germany;0;0;0;SELENT;8.22;8.48
27/06/17 12:00;DEZ0087;Eurdep;air;54.44;9.7;0;Germany;0;0;0;ASCHEFFEL;7.808;8.03
27/06/17 12:00;DEZ0091;Eurdep;air;54.47;9.87;0;Germany;0;0;0;ECKERNFÖRDE;7.087000000000001;7
27/06/17 12:00;DEZ0092;Eurdep;air;54.4;9.97;0;Germany;0;0;0;GETTORF;7.7620000000000005;8.379999999999999
26/06/17 21:00;DEZ0095;Eurdep;air;54.21;9.71;0;Germany;0;0;0;JEVENSTEDT-OT NIENKATTBEK;5.4799999999999995;5.4799999999999995
27/06/17 12:00;DEZ0097;Eurdep;air;54.27;10.08;0;Germany;0;0;0;MOLFSEE;8.588;8.870000000000001
27/06/17 12:00;DEZ0102;Eurdep;air;54.08;9.9;0;Germany;0;0;0;WASBEK;6.164;6.37
27/06/17 12:00;DEZ0104;Eurdep;air;54.31;9.3;0;Germany;0;0;0;ERFDE;7.348000000000001;7.4799999999999995
27/06/17 12:00;DEZ0107;Eurdep;air;54.65;9.94;0;Germany;0;0;0;KAPPELN;7.681;8.49
27/06/17 14:00;DEZ0111;Eurdep;air;54.53;9.55;0;Germany;0;0;0;SCHLESWIG;8.286;8.66
27/06/17 12:00;DEZ0112;Eurdep;air;54.64;9.76;0;Germany;0;0;0;SÜDERBRARUP;8.263;8.51
27/06/17 12:00;DEZ0116;Eurdep;air;54.83;9.55;0;Germany;0;0;0;GLÜCKSBURG;7.925;8.25
27/06/17 12:00;DEZ0119;Eurdep;air;54.73;9.74;0;Germany;0;0;0;STERUP;8.254999999999999;8.620000000000001
27/06/17 12:00;DEZ0123;Eurdep;air;53.91;10.17;0;Germany;0;0;0;BARK;7.906000000000001;8
27/06/17 12:00;DEZ0128;Eurdep;air;53.88;9.98;0;Germany;0;0;0;SCHMALFELD;5.688000000000001;5.99
27/06/17 12:00;DEZ0131;Eurdep;air;53.79;10.08;0;Germany;0;0;0;WAKENDORF II;7.128;7.33
27/06/17 12:00;DEZ0136;Eurdep;air;53.78;9.61;0;Germany;0;0;0;KIEBITZREIHE;5.576;5.92
27/06/17 14:00;DEZ0137;Eurdep;air;53.84;9.49;0;Germany;0;0;0;KREMPE;8.368;8
27/06/17 12:00;DEZ0139;Eurdep;air;53.94;9.4;0;Germany;0;0;0;MOORHUSEN;7.843999999999999;8.33
27/06/17 14:00;DEZ0140;Eurdep;air;53.92;9.58;0;Germany;0;0;0;OELIXDORF;6.949;7.209999999999999
27/06/17 12:00;DEZ0141;Eurdep;air;53.88;9.26;0;Germany;0;0;0;ST. MARGARETHEN;8.540000000000001;8.75
27/06/17 14:00;DEZ0143;Eurdep;air;53.73;9.48;0;Germany;0;0;0;KOLLMAR;8.261;8.59
27/06/17 12:00;DEZ0145;Eurdep;air;53.61;10.24;0;Germany;0;0;0;BRAAK;7.970000000000001;8.16
27/06/17 12:00;DEZ0147;Eurdep;air;53.81;10.44;0;Germany;0;0;0;MEDDEWADE;8.389;8.67
27/06/17 12:00;DEZ0151;Eurdep;air;53.53;10.14;0;Germany;0;0;0;HAMBURG-BILLSTEDT;7.008;7.35
27/06/17 14:00;DEZ0156;Eurdep;air;53.58;10.11;0;Germany;0;0;0;HAMBURG-JENFELD;7.906000000000001;8.32
27/06/17 14:00;DEZ0157;Eurdep;air;53.65;10.11;0;Germany;0;0;0;HAMBURG-SASEL;7.249;7.609999999999999
27/06/17 12:00;DEZ0158;Eurdep;air;53.47;10.19;0;Germany;0;0;0;HAMBURG-NETTELNBURG;8.117;8.290000000000001
27/06/17 12:00;DEZ0167;Eurdep;air;52.13;10.29;0;Germany;0;0;0;SALZGITTER-LICHTENBERG;8.84;9.120000000000001
27/06/17 12:00;DEZ0169;Eurdep;air;52.47;10.53;0;Germany;0;0;0;GIFHORN;6.8069999999999995;7.040000000000001
27/06/17 12:00;DEZ0170;Eurdep;air;52.65;10.46;0;Germany;0;0;0;GROß OESINGEN;5.6049999999999995;5.9799999999999995
27/06/17 12:00;DEZ0172;Eurdep;air;52.38;10.53;0;Germany;0;0;0;MEINE;7.741;8.08
27/06/17 12:00;DEZ0173;Eurdep;air;52.48;10.36;0;Germany;0;0;0;MEINERSEN;7.292;7.57
27/06/17 12:00;DEZ0175;Eurdep;air;52.77;10.45;0;Germany;0;0;0;SPRAKENSEHL OT HAGEN;6.05;6.16
27/06/17 12:00;DEZ0176;Eurdep;air;52.62;10.59;0;Germany;0;0;0;WAHRENHOLZ;6.837000000000001;7.13
27/06/17 11:00;DEZ0177;Eurdep;air;52.73;10.73;0;Germany;0;0;0;WITTINGEN;7.199;7.26
26/06/17 21:00;DEZ0178;Eurdep;air;52.62;10.81;0;Germany;0;0;0;WITTINGEN-BOITZENHAGEN;6.49;6.49
27/06/17 12:00;DEZ0180;Eurdep;air;51.5;9.76;0;Germany;0;0;0;DRANSFELD;10.872;11
27/06/17 12:00;DEZ0182;Eurdep;air;51.44;9.93;0;Germany;0;0;0;FRIEDLAND-GROß SCHNEEN;11.076;11
27/06/17 12:00;DEZ0183;Eurdep;air;51.61;10.21;0;Germany;0;0;0;GIEBOLDEHAUSEN;12.264;12
27/06/17 12:00;DEZ0185;Eurdep;air;51.48;10.11;0;Germany;0;0;0;RITTMARSHAUSEN;9.959999999999999;10
27/06/17 12:00;DEZ0186;Eurdep;air;51.52;9.93;0;Germany;0;0;0;GÖTTINGEN;9.165000000000001;9.709999999999999
27/06/17 12:00;DEZ0188;Eurdep;air;51.56;10.06;0;Germany;0;0;0;WAAKE;12.687999999999999;12
27/06/17 12:00;DEZ0189;Eurdep;air;51.81;10.54;0;Germany;0;0;0;TORFHAUS;10.211;10
27/06/17 14:00;DEZ0191;Eurdep;air;51.72;10.6;0;Germany;0;0;0;BRAUNLAGE;10.102;10
27/06/17 12:00;DEZ0195;Eurdep;air;52.02;10.44;0;Germany;0;0;0;LIEBENBURG;9.574;9.78
26/06/17 21:00;DEZ0197;Eurdep;air;51.95;10.54;0;Germany;0;0;0;VIENENBURG;9.78;9.78
27/06/17 12:00;DEZ0201;Eurdep;air;52.25;10.81;0;Germany;0;0;0;KÖNIGSLUTTER;6.763;7.17
27/06/17 12:00;DEZ0205;Eurdep;air;51.88;10;0;Germany;0;0;0;BAD GANDERSHEIM;11.248000000000001;11
27/06/17 12:00;DEZ0208;Eurdep;air;51.79;10.06;0;Germany;0;0;0;ECHTE;10.226;10
27/06/17 12:00;DEZ0209;Eurdep;air;51.68;10.1;0;Germany;0;0;0;KATLENBURG-LINDAU;10.42;10
26/06/17 21:00;DEZ0210;Eurdep;air;51.73;9.79;0;Germany;0;0;0;FREDELSLOH;10;10
26/06/17 21:00;DEZ0212;Eurdep;air;51.62;9.66;0;Germany;0;0;0;USLAR OT SCHONINGEN;10;10
27/06/17 12:00;DEZ0213;Eurdep;air;51.63;10.47;0;Germany;0;0;0;BAD LAUTERBERG IM HARZ;11.251999999999999;11
27/06/17 12:00;DEZ0215;Eurdep;air;51.75;10.21;0;Germany;0;0;0;OSTERODE AM HARZ;10.154;10
27/06/17 12:00;DEZ0216;Eurdep;air;51.58;10.61;0;Germany;0;0;0;WALKENRIED;10.196;10
27/06/17 12:00;DEZ0218;Eurdep;air;52.27;10.23;0;Germany;0;0;0;GROSS ILSEDE;10.628;10
27/06/17 12:00;DEZ0220;Eurdep;air;52.32;10.24;0;Germany;0;0;0;PEINE;7.859;8.190000000000001
26/06/17 21:00;DEZ0222;Eurdep;air;52.32;10.39;0;Germany;0;0;0;WENDEBURG;7.75;7.75
25/06/17 22:00;DEZ0225;Eurdep;air;52.04;10.6;0;Germany;0;0;0;HORNBURG;0;0
27/06/17 12:00;DEZ0227;Eurdep;air;52.04;10.26;0;Germany;0;0;0;SEHLDE;9.536;9.85
27/06/17 12:00;DEZ0235;Eurdep;air;52.72;8.53;0;Germany;0;0;0;BARNSTORF;6.24;6.51
27/06/17 12:00;DEZ0236;Eurdep;air;52.85;8.73;0;Germany;0;0;0;BASSUM;7.053;7.26
27/06/17 12:00;DEZ0238;Eurdep;air;52.74;8.7;0;Germany;0;0;0;EHRENBURG;7.534000000000001;7
27/06/17 12:00;DEZ0239;Eurdep;air;52.62;8.65;0;Germany;0;0;0;FREISTATT;6.67;6.88
27/06/17 12:00;DEZ0240;Eurdep;air;52.59;8.84;0;Germany;0;0;0;KIRCHDORF;6.868;7
27/06/17 12:00;DEZ0242;Eurdep;air;52.88;9.06;0;Germany;0;0;0;MARTFELD;6.478;6
27/06/17 12:00;DEZ0244;Eurdep;air;52.79;8.84;0;Germany;0;0;0;SCHWAFÖRDEN-SUDWALDE;8.268;8.48
27/06/17 12:00;DEZ0245;Eurdep;air;52.69;8.82;0;Germany;0;0;0;SULINGEN;6.367;6.63
27/06/17 12:00;DEZ0246;Eurdep;air;52.93;8.82;0;Germany;0;0;0;SYKE-BARRIEN;7.228;7.45
27/06/17 12:00;DEZ0248;Eurdep;air;52.06;9.33;0;Germany;0;0;0;AERZEN/GR.BERKEL;9.924;10
27/06/17 12:00;DEZ0250;Eurdep;air;51.97;9.3;0;Germany;0;0;0;BAD PYRMONT;8.884;9.07
27/06/17 12:00;DEZ0251;Eurdep;air;52.11;9.55;0;Germany;0;0;0;COPPENBRÜGGE;9.23;9.49
27/06/17 12:00;DEZ0253;Eurdep;air;52.15;9.39;0;Germany;0;0;0;UNSEN - HAMELN;9.245999999999999;9.55
27/06/17 12:00;DEZ0254;Eurdep;air;52.17;9.24;0;Germany;0;0;0;HESSISCH-OLDENDORF;9.022;9.379999999999999
27/06/17 12:00;DEZ0255;Eurdep;air;52.07;9.58;0;Germany;0;0;0;SALZHEMMENDORF;9.354000000000001;9.58
27/06/17 12:00;DEZ0256;Eurdep;air;52.45;10;0;Germany;0;0;0;BURGDORF;7.694;7.93
27/06/17 12:00;DEZ0258;Eurdep;air;52.46;9.6;0;Germany;0;0;0;OSTERWALD/STADT GARBSEN;6.69;7.159999999999999
27/06/17 12:00;DEZ0259;Eurdep;air;52.3;9.6;0;Germany;0;0;0;GEHRDEN;9.234;9.57
26/06/17 21:00;DEZ0262;Eurdep;air;52.37;9.97;0;Germany;0;0;0;LEHRTE;7.49;7.49
26/06/17 21:00;DEZ0271;Eurdep;air;52.42;9.43;0;Germany;0;0;0;WUNSTORF;7.890000000000001;7.890000000000001
26/06/17 21:00;DEZ0272;Eurdep;air;51.95;9.84;0;Germany;0;0;0;ALFELD-WISPENSTEIN;9.290000000000001;9.290000000000001
27/06/17 12:00;DEZ0274;Eurdep;air;52.13;9.73;0;Germany;0;0;0;ELZE;10.296;10
27/06/17 12:00;DEZ0278;Eurdep;air;52.15;10.09;0;Germany;0;0;0;OTTBERGEN;8.878;9.17
26/06/17 21:00;DEZ0279;Eurdep;air;52.05;9.9;0;Germany;0;0;0;SIBBESSE;10;10
27/06/17 12:00;DEZ0281;Eurdep;air;52.01;9.7;0;Germany;0;0;0;DUINGEN;9.778;9.940000000000001
27/06/17 12:00;DEZ0284;Eurdep;air;51.84;9.44;0;Germany;0;0;0;HOLZMINDEN;10.488;10
27/06/17 12:00;DEZ0285;Eurdep;air;51.75;9.52;0;Germany;0;0;0;NEUHAUS - HOLZMINDEN;9.67;9.870000000000001
27/06/17 12:00;DEZ0286;Eurdep;air;51.95;9.41;0;Germany;0;0;0;OTTENSTEIN;9.598;9.959999999999999
27/06/17 12:00;DEZ0287;Eurdep;air;51.89;9.63;0;Germany;0;0;0;STADTOLDENDORF;9.015;9.290000000000001
27/06/17 12:00;DEZ0290;Eurdep;air;52.6;9.09;0;Germany;0;0;0;LIEBENAU;6.745;6.9799999999999995
27/06/17 12:00;DEZ0292;Eurdep;air;52.47;9.23;0;Germany;0;0;0;REHBURG-LOCCUM;7.831;8.08
27/06/17 12:00;DEZ0297;Eurdep;air;52.23;9.24;0;Germany;0;0;0;REHREN-AUETAL;8.916;9.39
27/06/17 12:00;DEZ0298;Eurdep;air;52.26;9.03;0;Germany;0;0;0;BÜCKEBURG;7.884;8.27
27/06/17 12:00;DEZ0302;Eurdep;air;52.61;10.29;0;Germany;0;0;0;AHNSBECK;7.864;8.08
27/06/17 12:00;DEZ0303;Eurdep;air;52.82;9.97;0;Germany;0;0;0;BERGEN;7.32;7.51
27/06/17 12:00;DEZ0309;Eurdep;air;52.65;9.86;0;Germany;0;0;0;WIETZE;6.214;6.51
27/06/17 12:00;DEZ0310;Eurdep;air;52.73;9.85;0;Germany;0;0;0;MEIßENDORF;6.17;6.529999999999999
27/06/17 12:00;DEZ0317;Eurdep;air;53.69;8.56;0;Germany;0;0;0;DORUM;8.376999999999999;8.64
27/06/17 12:00;DEZ0320;Eurdep;air;53.63;9.1;0;Germany;0;0;0;LAMSTEDT;6.816;7.12
27/06/17 12:00;DEZ0321;Eurdep;air;53.45;8.63;0;Germany;0;0;0;LOXSTEDT-NESSE;7.127;7.340000000000001
27/06/17 12:00;DEZ0324;Eurdep;air;53.81;8.9;0;Germany;0;0;0;OTTERNDORF;7.85;8
27/06/17 12:00;DEZ0325;Eurdep;air;53.51;8.81;0;Germany;0;0;0;WEHDEL;6.619;6.890000000000001
27/06/17 12:00;DEZ0326;Eurdep;air;53.74;8.8;0;Germany;0;0;0;WANNA;6.5840000000000005;6.82
27/06/17 12:00;DEZ0327;Eurdep;air;53.64;8.57;0;Germany;0;0;0;WREMEN;8.415000000000001;8.540000000000001
27/06/17 12:00;DEZ0328;Eurdep;air;53.3;10.05;0;Germany;0;0;0;HANSTEDT/BRACKEL;7.172;7.4799999999999995
27/06/17 12:00;DEZ0330;Eurdep;air;53.43;10.31;0;Germany;0;0;0;DRAGE;7.258;7
27/06/17 12:00;DEZ0331;Eurdep;air;53.25;9.83;0;Germany;0;0;0;HANDELOH;7.045999999999999;7.290000000000001
27/06/17 12:00;DEZ0332;Eurdep;air;53.2;10.05;0;Germany;0;0;0;EGESTORF-SG HANSTEDT;6.7379999999999995;6.99
27/06/17 12:00;DEZ0335;Eurdep;air;53.4;10.41;0;Germany;0;0;0;TESPE;7.048;7.32
27/06/17 12:00;DEZ0336;Eurdep;air;53.36;10.2;0;Germany;0;0;0;WINSEN (LUHE);7.295;7.4799999999999995
27/06/17 12:00;DEZ0341;Eurdep;air;53.14;11.04;0;Germany;0;0;0;HITZACKER;8.498999999999999;8.83
27/06/17 12:00;DEZ0342;Eurdep;air;53.07;11.44;0;Germany;0;0;0;HÖHBECK;6.016;6.29
27/06/17 12:00;DEZ0343;Eurdep;air;52.98;11.07;0;Germany;0;0;0;KÜSTEN;7.0200000000000005;7.35
27/06/17 12:00;DEZ0344;Eurdep;air;52.92;11.28;0;Germany;0;0;0;SCHWESKAU;6.82;6.970000000000001
27/06/17 12:00;DEZ0346;Eurdep;air;53.24;10.87;0;Germany;0;0;0;KATEMIN;6.704000000000001;6.970000000000001
27/06/17 12:00;DEZ0347;Eurdep;air;52.88;10.89;0;Germany;0;0;0;SCHNEGA;6.827;7.07
27/06/17 12:00;DEZ0348;Eurdep;air;53;11.32;0;Germany;0;0;0;TREBEL;6.427;6.609999999999999
27/06/17 12:00;DEZ0349;Eurdep;air;53.07;10.88;0;Germany;0;0;0;ZERNIEN;6.470000000000001;6.595000000000001
27/06/17 06:00;DEZ0352;Eurdep;air;53.18;10.75;0;Germany;0;0;0;DAHLENBURG;7.159000000000001;7.33
27/06/17 12:00;DEZ0357;Eurdep;air;53.1;10.22;0;Germany;0;0;0;REHLINGEN;6.428;6.67
27/06/17 12:00;DEZ0362;Eurdep;air;53.5;9.17;0;Germany;0;0;0;BREMERVÖRDE;5.8229999999999995;6
27/06/17 12:00;DEZ0363;Eurdep;air;53.17;9.67;0;Germany;0;0;0;FINTEL;6.904999999999999;7
27/06/17 12:00;DEZ0365;Eurdep;air;53.5;8.97;0;Germany;0;0;0;HIPSTEDT;5.982;6.17
27/06/17 12:00;DEZ0366;Eurdep;air;53.02;9.39;0;Germany;0;0;0;KIRCHWALSEDE;7.272;7.470000000000001
27/06/17 12:00;DEZ0367;Eurdep;air;53.11;9.4;0;Germany;0;0;0;ROTENBURG;6.0200000000000005;6
26/06/17 21:00;DEZ0372;Eurdep;air;52.99;9.58;0;Germany;0;0;0;VISSELHÖVEDE;6.83;6.83
27/06/17 12:00;DEZ0374;Eurdep;air;53.11;10.08;0;Germany;0;0;0;STEINBECK;5.779;6.07
27/06/17 12:00;DEZ0381;Eurdep;air;53.12;9.8;0;Germany;0;0;0;SCHNEVERDINGEN;7.497;7.82
26/06/17 21:00;DEZ0383;Eurdep;air;52.9;9.46;0;Germany;0;0;0;WALSRODE OT HAMWIEDE;8.370000000000001;8.370000000000001
27/06/17 12:00;DEZ0384;Eurdep;air;52.92;9.97;0;Germany;0;0;0;WIETZENDORF;5.8340000000000005;5.995
27/06/17 12:00;DEZ0385;Eurdep;air;53.83;9.13;0;Germany;0;0;0;BALJE / STADE;7.606;7.720000000000001
27/06/17 12:00;DEZ0387;Eurdep;air;53.69;9.43;0;Germany;0;0;0;DROCHTERSEN-ASSEL;7.7170000000000005;7.95
27/06/17 12:00;DEZ0388;Eurdep;air;53.52;9.4;0;Germany;0;0;0;FREDENBECK;7.295999999999999;7.709999999999999
27/06/17 12:00;DEZ0390;Eurdep;air;53.63;9.32;0;Germany;0;0;0;HIMMELPFORTEN;6.912000000000001;7.109999999999999
27/06/17 12:00;DEZ0391;Eurdep;air;53.59;9.55;0;Germany;0;0;0;HOLLERN-TWIELENFLETH;7.828;8.03
27/06/17 12:00;DEZ0392;Eurdep;air;53.45;9.51;0;Germany;0;0;0;HARSEFELD;7.508;7.705
27/06/17 14:00;DEZ0394;Eurdep;air;53.62;9.53;0;Germany;0;0;0;STADE KKW;7.437;7.62
27/06/17 12:00;DEZ0396;Eurdep;air;53.77;9.32;0;Germany;0;0;0;WISCHHAFEN;7.273000000000001;7.470000000000001
27/06/17 12:00;DEZ0397;Eurdep;air;53.09;10.57;0;Germany;0;0;0;BAD BEVENSEN OT MEDINGEN;6.881;7.109999999999999
27/06/17 12:00;DEZ0398;Eurdep;air;53.15;10.49;0;Germany;0;0;0;BIENENBÜTTEL;7.356;7.51
27/06/17 12:00;DEZ0401;Eurdep;air;53.05;10.38;0;Germany;0;0;0;HANSTEDT 1;5.982;6.2299999999999995
27/06/17 12:00;DEZ0402;Eurdep;air;52.8;10.76;0;Germany;0;0;0;LÜDER/LANGENBRÜGGE;6.608;6
27/06/17 12:00;DEZ0407;Eurdep;air;53.05;9.04;0;Germany;0;0;0;OYTEN;7.242;7.44
27/06/17 12:00;DEZ0410;Eurdep;air;53.04;8.59;0;Germany;0;0;0;DELMENHORST;6.925;7.18
27/06/17 12:00;DEZ0411;Eurdep;air;53.36;7.16;0;Germany;0;0;0;EMDEN / LARRELT;7.9670000000000005;8.25
27/06/17 12:00;DEZ0413;Eurdep;air;53.14;8.24;0;Germany;0;0;0;OLDENBURG;6.256;6.459999999999999
26/06/17 21:00;DEZ0414;Eurdep;air;52.26;8.11;0;Germany;0;0;0;OSNABRÜCK-DÜSTRUP;6.640000000000001;6.640000000000001
27/06/17 12:00;DEZ0416;Eurdep;air;53.6;8.05;0;Germany;0;0;0;WILHELMSHAVEN-SENGWARDEN;7.836;7.99
27/06/17 12:00;DEZ0418;Eurdep;air;53.25;7.94;0;Germany;0;0;0;WESTERSTEDE;6.361;6.57
27/06/17 12:00;DEZ0420;Eurdep;air;53.47;7.5;0;Germany;0;0;0;AURICH;6.973999999999999;7.2299999999999995
27/06/17 12:00;DEZ0421;Eurdep;air;53.54;7.62;0;Germany;0;0;0;AURICH-MIDDELS;6.13;6.37
27/06/17 12:00;DEZ0422;Eurdep;air;53.73;7.37;0;Germany;0;0;0;BALTRUM;7.433;7.709999999999999
27/06/17 12:00;DEZ0425;Eurdep;air;53.67;7.28;0;Germany;0;0;0;HAGERMARSCH AS HILGENRIEDERSIEL;7.848000000000001;8.129999999999999
27/06/17 12:00;DEZ0427;Eurdep;air;53.5;7.1;0;Germany;0;0;0;KRUMMHÖRN-GREETSIEL;7.039;7.340000000000001
27/06/17 12:00;DEZ0428;Eurdep;air;53.41;7.02;0;Germany;0;0;0;KRUMMHÖRN-CAMPEN;8.468;8.98
27/06/17 12:00;DEZ0429;Eurdep;air;53.5;7.3;0;Germany;0;0;0;MARIENHAFE/SIEGELSUM;6.4879999999999995;6.7299999999999995
27/06/17 14:00;DEZ0433;Eurdep;air;53.71;7.15;0;Germany;0;0;0;NORDERNEY;6.07;6
27/06/17 12:00;DEZ0434;Eurdep;air;53.17;7.74;0;Germany;0;0;0;BARßEL-BARßELERMOOR;6.904000000000001;7.159999999999999
27/06/17 12:00;DEZ0435;Eurdep;air;52.84;8.01;0;Germany;0;0;0;CLOPPENBURG;6.654000000000001;6.970000000000001
27/06/17 12:00;DEZ0438;Eurdep;air;52.92;7.89;0;Germany;0;0;0;Friesoythe-Augustendorf;6.125;6.51
26/06/17 21:00;DEZ0439;Eurdep;air;52.96;8.03;0;Germany;0;0;0;GARREL;5.96;5.96
27/06/17 12:00;DEZ0441;Eurdep;air;52.6;7.4;0;Germany;0;0;0;BAWINKEL;5.721;5.89
27/06/17 12:00;DEZ0442;Eurdep;air;52.43;7.51;0;Germany;0;0;0;BEESTEN;6.164;6.38
27/06/17 12:00;DEZ0446;Eurdep;air;52.45;7.31;0;Germany;0;0;0;ELBERGEN-EMSBÜREN;6.587000000000001;6.82
27/06/17 12:00;DEZ0448;Eurdep;air;52.84;7.1;0;Germany;0;0;0;HAREN/EMS OT RÜTENBROCK;5.99;6.279999999999999
27/06/17 12:00;DEZ0449;Eurdep;air;52.68;7.6;0;Germany;0;0;0;HERZLAKE;6.5969999999999995;6.709999999999999
27/06/17 12:00;DEZ0450;Eurdep;air;52.77;7.46;0;Germany;0;0;0;KLEIN BERßEN;7.348000000000001;7.69
27/06/17 12:00;DEZ0451;Eurdep;air;52.87;7.33;0;Germany;0;0;0;LATHEN;6.297;6.49
26/06/17 21:00;DEZ0453;Eurdep;air;52.56;7.53;0;Germany;0;0;0;LENGERICH;6.790000000000001;6.790000000000001
27/06/17 12:00;DEZ0455;Eurdep;air;52.46;7.37;0;Germany;0;0;0;LINGEN-BRAMSCHE;7.651999999999999;7.92
27/06/17 12:00;DEZ0456;Eurdep;air;52.51;7.29;0;Germany;0;0;0;LINGEN-SCHEPSDORF;5.753;6.01
27/06/17 12:00;DEZ0458;Eurdep;air;53;7.4;0;Germany;0;0;0;NEULEHE;6.623;6.85
27/06/17 12:00;DEZ0467;Eurdep;air;53.79;7.91;0;Germany;0;0;0;WANGEROOGE;6.075;6.29
27/06/17 12:00;DEZ0469;Eurdep;air;53.38;7.96;0;Germany;0;0;0;ZETEL-NEUENBURG;7.31;7.62
26/06/17 21:00;DEZ0470;Eurdep;air;52.32;7.17;0;Germany;0;0;0;BAD BENTHEIM;6.4799999999999995;6.4799999999999995
27/06/17 12:00;DEZ0474;Eurdep;air;52.57;7.08;0;Germany;0;0;0;GEORGSDORF;6.184;6.470000000000001
27/06/17 12:00;DEZ0478;Eurdep;air;52.46;7.18;0;Germany;0;0;0;NORDHORN-KLAUSHEIDE;6.723000000000001;6.88
27/06/17 12:00;DEZ0479;Eurdep;air;52.47;7.02;0;Germany;0;0;0;NORDHORN-FRENSWEGEN;5.924;6.14
26/06/17 21:00;DEZ0482;Eurdep;air;53.6;6.7;0;Germany;0;0;0;BORKUM;6.470000000000001;6.470000000000001
27/06/17 12:00;DEZ0487;Eurdep;air;53.33;7.34;0;Germany;0;0;0;MOORMERLAND-OLDERSUM;7.398000000000001;7.720000000000001
27/06/17 12:00;DEZ0490;Eurdep;air;53.13;7.23;0;Germany;0;0;0;WYMEER;5.194;5.38
14/06/17 22:00;DEZ0491;Eurdep;air;52.96;8.63;0;Germany;0;0;0;GROß IPPENER;0;0
26/06/17 21:00;DEZ0492;Eurdep;air;52.94;8.26;0;Germany;0;0;0;GROßENKNETEN;7.279999999999999;7.279999999999999
27/06/17 12:00;DEZ0493;Eurdep;air;53.02;8.35;0;Germany;0;0;0;KIRCHHATTEN;6.0840000000000005;6.29
27/06/17 12:00;DEZ0494;Eurdep;air;53.11;8.46;0;Germany;0;0;0;HUDE;6.401000000000001;6.68
27/06/17 12:00;DEZ0495;Eurdep;air;53.06;8.21;0;Germany;0;0;0;WARDENBURG;6.734999999999999;6.93
27/06/17 12:00;DEZ0496;Eurdep;air;52.9;8.43;0;Germany;0;0;0;WILDESHAUSEN;6.925;7.13
27/06/17 11:00;DEZ0498;Eurdep;air;52.32;8.34;0;Germany;0;0;0;BAD ESSEN;9.293000000000001;9.83
26/06/17 21:00;DEZ0501;Eurdep;air;52.45;7.96;0;Germany;0;0;0;BRAMSCHE-HESEPE;6;6
27/06/17 12:00;DEZ0503;Eurdep;air;52.62;7.74;0;Germany;0;0;0;BERGE;7.648000000000001;7.790000000000001
27/06/17 12:00;DEZ0505;Eurdep;air;52.38;8.2;0;Germany;0;0;0;OSTERCAPPELN-SCHWAGSTORF;7.566;7
27/06/17 12:00;DEZ0506;Eurdep;air;52.67;7.94;0;Germany;0;0;0;QUAKENBRÜCK;7.1819999999999995;7.659999999999999
27/06/17 12:00;DEZ0510;Eurdep;air;52.71;8.29;0;Germany;0;0;0;VECHTA;7.683;7.85
27/06/17 14:00;DEZ0511;Eurdep;air;53.33;8.48;0;Germany;0;0;0;BRAKE-UNTERWESER;8.197;8.53
27/06/17 12:00;DEZ0512;Eurdep;air;53.57;8.36;0;Germany;0;0;0;BUTJADINGEN-BURHAVE;8.692;9.120000000000001
27/06/17 12:00;DEZ0514;Eurdep;air;53.25;8.47;0;Germany;0;0;0;ELSFLETH-LIENEN;8.838;9.09
27/06/17 14:00;DEZ0515;Eurdep;air;53.34;8.19;0;Germany;0;0;0;JADE-JADERBERG;6.544;6.75
18/06/17 22:00;DEZ0516;Eurdep;air;53.48;8.47;0;Germany;0;0;0;NORDENHAM;0;0
27/06/17 12:00;DEZ0518;Eurdep;air;53.27;8.32;0;Germany;0;0;0;OVELGÖNNE-GROßENMEER;7.6209999999999996;7
27/06/17 12:00;DEZ0519;Eurdep;air;53.46;8.36;0;Germany;0;0;0;STADLAND-SEEFELD;8.494;8.78
27/06/17 12:00;DEZ0521;Eurdep;air;53.65;7.61;0;Germany;0;0;0;ESENS;5.947;6.18
27/06/17 12:00;DEZ0525;Eurdep;air;53.77;7.69;0;Germany;0;0;0;SPIEKEROOG;6.242;6.44
27/06/17 12:00;DEZ0531;Eurdep;air;53.6;8.53;0;Germany;0;0;0;BREMERHAVEN-WEDDEWARDEN;7.894;8
27/06/17 12:00;DEZ0532;Eurdep;air;53.5;8.57;0;Germany;0;0;0;BREMERHAVEN-LUNEPLATE;6.193;6.459999999999999
27/06/17 12:00;DEZ0533;Eurdep;air;53.55;8.6;0;Germany;0;0;0;BREMERHAVEN-GEESTEMÜNDE;6.516;6
27/06/17 12:00;DEZ0540;Eurdep;air;51.3;6.54;0;Germany;0;0;0;KREFELD-FISCHELN;9.154;10
27/06/17 14:00;DEZ0541;Eurdep;air;51.18;6.4;0;Germany;0;0;0;MÖNCHENGLADBACH;8.331999999999999;8.99
27/06/17 12:00;DEZ0543;Eurdep;air;51.19;7.27;0;Germany;0;0;0;REMSCHEID-LENNEP;10.964;11
27/06/17 12:00;DEZ0545;Eurdep;air;51.3;7.2;0;Germany;0;0;0;WUPPERTAL-BARMEN;10.181999999999999;10
27/06/17 12:00;DEZ0553;Eurdep;air;51.59;6.21;0;Germany;0;0;0;KEVELAER;7.633;8
27/06/17 12:00;DEZ0560;Eurdep;air;51.28;7.03;0;Germany;0;0;0;WÜLFRATH;9.603;10
27/06/17 12:00;DEZ0562;Eurdep;air;51.1;6.5600000000000005;0;Germany;0;0;0;GREVENBROICH-FÜRTH;10.768;11
27/06/17 12:00;DEZ0566;Eurdep;air;51.24;6.18;0;Germany;0;0;0;BRÜGGEN;7.168000000000001;7
26/06/17 21:00;DEZ0567;Eurdep;air;51.34;6.33;0;Germany;0;0;0;GREFRATH;9.209999999999999;9.209999999999999
27/06/17 12:00;DEZ0572;Eurdep;air;51.73;6.73;0;Germany;0;0;0;HAMMINKELN-MARIENTHAL;7.173;7.529999999999999
27/06/17 12:00;DEZ0582;Eurdep;air;50.99;6.95;0;Germany;0;0;0;KÖLN-WEIDENPESCH;9.338;9.809999999999999
27/06/17 12:00;DEZ0585;Eurdep;air;50.6;6.29;0;Germany;0;0;0;SIMMERATH;9.882;10
27/06/17 12:00;DEZ0588;Eurdep;air;50.92;6.33;0;Germany;0;0;0;JÜLICH-KOSLAR;10.684000000000001;11
27/06/17 12:00;DEZ0589;Eurdep;air;50.96;6.43;0;Germany;0;0;0;JÜLICH-GÜSTEN;10.290000000000001;10
27/06/17 12:00;DEZ0594;Eurdep;air;51.01;6.43;0;Germany;0;0;0;TITZ;10.844;11
27/06/17 12:00;DEZ0599;Eurdep;air;51.01;6.82;0;Germany;0;0;0;PULHEIM-SINNERSDORF;8.525;8.790000000000001
27/06/17 12:00;DEZ0606;Eurdep;air;51.01;6.04;0;Germany;0;0;0;GANGELT-BIRGDEN;9.004000000000001;9.440000000000001
27/06/17 12:00;DEZ0607;Eurdep;air;51.04;6.13;0;Germany;0;0;0;HEINSBERG-HÜLHOVEN;9.856;10
27/06/17 12:00;DEZ0613;Eurdep;air;51.05;7.26;0;Germany;0;0;0;KÜRTEN;10.296;10
27/06/17 12:00;DEZ0615;Eurdep;air;50.63;7.22;0;Germany;0;0;0;BAD HONNEF;8.841;9.379999999999999
27/06/17 12:00;DEZ0616;Eurdep;air;50.78;7.01;0;Germany;0;0;0;BORNHEIM;8.78;9
27/06/17 12:00;DEZ0618;Eurdep;air;50.79;7.28;0;Germany;0;0;0;HENNEF/SIEG;8.546;8.959999999999999
27/06/17 12:00;DEZ0623;Eurdep;air;51.56;7.07;0;Germany;0;0;0;GELSENKIRCHEN;7.927;8.23
27/06/17 12:00;DEZ0624;Eurdep;air;52;7.59;0;Germany;0;0;0;MÜNSTER-KINDERHAUS;8.35;8.66
27/06/17 12:00;DEZ0627;Eurdep;air;52.13;6.91;0;Germany;0;0;0;AHAUS-ALSTÄTTE;6.564;6.74
27/06/17 12:00;DEZ0628;Eurdep;air;52.04;6.93;0;Germany;0;0;0;AHAUS-OTTENSTEIN;6.718000000000001;6.94
27/06/17 12:00;DEZ0632;Eurdep;air;51.83;6.79;0;Germany;0;0;0;BORKEN-RHEDEBRÜGGE;7.015000000000001;7.459999999999999
27/06/17 12:00;DEZ0633;Eurdep;air;51.95;6.99;0;Germany;0;0;0;GESCHER;7.331999999999999;7.590000000000001
27/06/17 12:00;DEZ0634;Eurdep;air;52.2;7.03;0;Germany;0;0;0;GRONAU;7.114;7.340000000000001
27/06/17 11:00;DEZ0635;Eurdep;air;52.22;7.01;0;Germany;0;0;0;GRONAU-SPECHTHOLTSHOOK;7.295999999999999;7.529999999999999
27/06/17 12:00;DEZ0636;Eurdep;air;52.17;7.06;0;Germany;0;0;0;GRONAU-EPE;6.144;6.33
27/06/17 12:00;DEZ0637;Eurdep;air;52.13;7.1;0;Germany;0;0;0;HEEK;6.854000000000001;7
27/06/17 12:00;DEZ0638;Eurdep;air;52.12;7.05;0;Germany;0;0;0;HEEK-AHLE;5.762;6
27/06/17 12:00;DEZ0640;Eurdep;air;52.05;7.15;0;Germany;0;0;0;LEGDEN-ASBECK;7.501;7.95
27/06/17 12:00;DEZ0644;Eurdep;air;51.94;6.8100000000000005;0;Germany;0;0;0;SÜDLOHN-OEDING;8.16;8.379999999999999
27/06/17 12:00;DEZ0646;Eurdep;air;52.1;6.85;0;Germany;0;0;0;VREDEN-LÜNTEN;8.123999999999999;8
27/06/17 12:00;DEZ0647;Eurdep;air;51.79;7.62;0;Germany;0;0;0;ASCHEBERG;6.85;7.159999999999999
27/06/17 12:00;DEZ0651;Eurdep;air;52.03;7.27;0;Germany;0;0;0;ROSENDAHL-DARFELD;6.698;7.17
27/06/17 12:00;DEZ0652;Eurdep;air;51.85;7.48;0;Germany;0;0;0;SENDEN;7.366;7.590000000000001
27/06/17 12:00;DEZ0653;Eurdep;air;51.54;7.33;0;Germany;0;0;0;CASTROP-RAUXEL;9.439;9.72
27/06/17 12:00;DEZ0654;Eurdep;air;51.67;7.36;0;Germany;0;0;0;DATTELN;6.918000000000001;7.26
27/06/17 12:00;DEZ0655;Eurdep;air;51.66;7;0;Germany;0;0;0;DORSTEN;6.937;7.159999999999999
27/06/17 12:00;DEZ0656;Eurdep;air;51.73;7.2;0;Germany;0;0;0;HALTERN;7.016;7.2700000000000005
27/06/17 12:00;DEZ0657;Eurdep;air;51.65;7.16;0;Germany;0;0;0;MARL;7.358;7.609999999999999
27/06/17 14:00;DEZ0660;Eurdep;air;52.13;7.7;0;Germany;0;0;0;GREVEN FLUGHAFEN MS OS;8.74;9.23
27/06/17 12:00;DEZ0661;Eurdep;air;52.33;7.5;0;Germany;0;0;0;HÖRSTEL-DREIERWALDE;7.159000000000001;7.37
27/06/17 12:00;DEZ0664;Eurdep;air;52.11;7.88;0;Germany;0;0;0;LIENEN-KATTENVENNE;8.662;9.040000000000001
27/06/17 12:00;DEZ0666;Eurdep;air;52.21;7.19;0;Germany;0;0;0;OCHTRUP;7.2909999999999995;7.38
27/06/17 12:00;DEZ0668;Eurdep;air;52.16;7.33;0;Germany;0;0;0;STEINFURT-BURGSTEINFURT;7.758;8.01
27/06/17 12:00;DEZ0672;Eurdep;air;51.89;8.04;0;Germany;0;0;0;ENNIGERLOH-WESTKIRCHEN;7.828;8.05
27/06/17 12:00;DEZ0673;Eurdep;air;51.91;7.8100000000000005;0;Germany;0;0;0;EVERSWINKEL-ALVERSKIRCHEN;6;6.890000000000001
27/06/17 12:00;DEZ0674;Eurdep;air;51.8;8.2;0;Germany;0;0;0;OELDE-STROMBERG;7.828;8
27/06/17 12:00;DEZ0675;Eurdep;air;52.05;8.03;0;Germany;0;0;0;SASSENBERG-FÜCHTORF;6.667;7.01
27/06/17 12:00;DEZ0679;Eurdep;air;52.05;8.3;0;Germany;0;0;0;HALLE-HÖRSTE;7.052;7.5200000000000005
27/06/17 12:00;DEZ0680;Eurdep;air;51.97;8.22;0;Germany;0;0;0;HARSEWINKEL;6.35;6.709999999999999
27/06/17 12:00;DEZ0682;Eurdep;air;51.92;8.66;0;Germany;0;0;0;SCHLOß HOLTE-STUKENBROCK;6.45;6.68
27/06/17 12:00;DEZ0685;Eurdep;air;52.23;8.47;0;Germany;0;0;0;RÖDINGHAUSEN;8.904;9.379999999999999
27/06/17 12:00;DEZ0686;Eurdep;air;52.12;8.49;0;Germany;0;0;0;SPENGE-LENZINGHAUSEN;8.808;9.18
27/06/17 12:00;DEZ0687;Eurdep;air;52.17;8.86;0;Germany;0;0;0;VLOTHO;10.113;10
27/06/17 12:00;DEZ0688;Eurdep;air;51.74;9.01;0;Germany;0;0;0;BAD DRIBURG;10.273;10
27/06/17 12:00;DEZ0692;Eurdep;air;51.79;9.4;0;Germany;0;0;0;HÖXTER;10.186;10
27/06/17 12:00;DEZ0693;Eurdep;air;51.82;9.24;0;Germany;0;0;0;MARIENMÜNSTER-VÖRDEN;11.956;12
27/06/17 12:00;DEZ0694;Eurdep;air;51.88;9.08;0;Germany;0;0;0;STEINHEIM;9.501999999999999;9.91
14/06/17 22:00;DEZ0698;Eurdep;air;51.93;8.89;0;Germany;0;0;0;DETMOLD;0;0
27/06/17 12:00;DEZ0702;Eurdep;air;52.02;8.91;0;Germany;0;0;0;LEMGO;7.220000000000001;7.540000000000001
27/06/17 12:00;DEZ0705;Eurdep;air;52.26;8.75;0;Germany;0;0;0;BAD OEYNHAUSEN-WULFERD.;8.254000000000001;8.57
27/06/17 12:00;DEZ0707;Eurdep;air;52.31;8.61;0;Germany;0;0;0;LÜBBECKE;9.308;9.68
27/06/17 12:00;DEZ0708;Eurdep;air;52.38;8.99;0;Germany;0;0;0;PETERSHAGEN-LAHDE;8.655;8.95
27/06/17 12:00;DEZ0709;Eurdep;air;52.43;8.6;0;Germany;0;0;0;RAHDEN;6.571;6.85
27/06/17 12:00;DEZ0710;Eurdep;air;52.37;8.46;0;Germany;0;0;0;STEMWEDE-LEVERN;7.048;7.470000000000001
27/06/17 12:00;DEZ0711;Eurdep;air;51.55;8.55;0;Germany;0;0;0;BÜREN;8.215;8.49
26/06/17 21:00;DEZ0712;Eurdep;air;51.76;8.56;0;Germany;0;0;0;DELBRÜCK;6.01;6.01
27/06/17 12:00;DEZ0714;Eurdep;air;51.62;8.89;0;Germany;0;0;0;LICHTENAU;8.715;8.97
27/06/17 12:00;DEZ0719;Eurdep;air;51.43;7.19;0;Germany;0;0;0;BOCHUM;10.178;10
27/06/17 12:00;DEZ0721;Eurdep;air;51.47;7.6;0;Germany;0;0;0;DORTMUND-LICHTENDORF;10.228;10
27/06/17 12:00;DEZ0726;Eurdep;air;51.36;7.3;0;Germany;0;0;0;SPROCKHÖVEL-HIDDINGHAUSEN;9.574;10
27/06/17 12:00;DEZ0730;Eurdep;air;51.39;8.58;0;Germany;0;0;0;BRILON;9.373999999999999;9.66
27/06/17 12:00;DEZ0733;Eurdep;air;51.47;8.85;0;Germany;0;0;0;MARSBERG;10.708;11
27/06/17 12:00;DEZ0737;Eurdep;air;51.16;8.29;0;Germany;0;0;0;SCHMALLENBERG;12.120000000000001;12
27/06/17 12:00;DEZ0739;Eurdep;air;51.32;8;0;Germany;0;0;0;SUNDERN;9.265;9.77
27/06/17 12:00;DEZ0748;Eurdep;air;51.12;7.88;0;Germany;0;0;0;ATTENDORN-NEULISTERNOHL;10.416;10
27/06/17 12:00;DEZ0750;Eurdep;air;51.08;8.1;0;Germany;0;0;0;KIRCHHUNDEM;12.132;12
26/06/17 21:00;DEZ0752;Eurdep;air;50.98;7.85;0;Germany;0;0;0;WENDEN-GERLINGEN;11;11
27/06/17 12:00;DEZ0753;Eurdep;air;51.08;8.42;0;Germany;0;0;0;BAD BERLEBURG-WEMLIGHAUSEN;10.828;11
27/06/17 12:00;DEZ0761;Eurdep;air;51.66;8.05;0;Germany;0;0;0;LIPPETAL-LIPPBORG;7.073;7.38
27/06/17 12:00;DEZ0763;Eurdep;air;51.69;8.44;0;Germany;0;0;0;LIPPSTADT-HÖRSTE;6.271;6.43
27/06/17 12:00;DEZ0766;Eurdep;air;51.5;8.44;0;Germany;0;0;0;RÜTHEN;8.501000000000001;8.86
27/06/17 12:00;DEZ0767;Eurdep;air;51.43;8.34;0;Germany;0;0;0;WARSTEIN;9.653;9.95
27/06/17 12:00;DEZ0771;Eurdep;air;51.62;7.52;0;Germany;0;0;0;LÜNEN;7.895999999999999;8.15
27/06/17 12:00;DEZ0772;Eurdep;air;51.54;7.73;0;Germany;0;0;0;UNNA-MÜHLHAUSEN;9.424;9.790000000000001
27/06/17 11:00;DEZ0775;Eurdep;air;50.16;8.65;0;Germany;0;0;0;FRANKFURT A.M. ST ESCHERSHEIM;9.76;10
27/06/17 12:00;DEZ0778;Eurdep;air;50.02;8.53;0;Germany;0;0;0;FRANKFURT A.M.;7.723000000000001;7.959999999999999
27/06/17 12:00;DEZ0781;Eurdep;air;50.09;8.22;0;Germany;0;0;0;WIESBADEN;10.564;10
27/06/17 12:00;DEZ0786;Eurdep;air;49.67;8.53;0;Germany;0;0;0;EINHAUSEN;8.716;9
27/06/17 12:00;DEZ0790;Eurdep;air;49.59;8.81;0;Germany;0;0;0;WALDMICHELBACH ST GADERN;11.508;11
27/06/17 12:00;DEZ0791;Eurdep;air;49.74;8.62;0;Germany;0;0;0;ALSBACH-HÄHNLEIN;9.799;10
27/06/17 12:00;DEZ0794;Eurdep;air;49.8;8.64;0;Germany;0;0;0;PFUNGSTADT;9.53;9.809999999999999
27/06/17 12:00;DEZ0796;Eurdep;air;49.77;8.48;0;Germany;0;0;0;BIEBESHEIM;9.356;9.85
27/06/17 12:00;DEZ0797;Eurdep;air;49.91;8.48;0;Germany;0;0;0;GROß-GERAU;9.776;10
27/06/17 12:00;DEZ0798;Eurdep;air;49.97;8.58;0;Germany;0;0;0;MÖRFELDEN-WALLDORF;8;8.35
27/06/17 12:00;DEZ0799;Eurdep;air;49.84;8.45;0;Germany;0;0;0;RIEDSTADT;8.817;9
27/06/17 12:00;DEZ0803;Eurdep;air;50.31;8.56;0;Germany;0;0;0;WEHRHEIM;10.199;10
27/06/17 12:00;DEZ0805;Eurdep;air;50.12;9.47;0;Germany;0;0;0;FLÖRSBACHTAL OT LOHRHAUPTEN;10.047;10
27/06/17 12:00;DEZ0807;Eurdep;air;50.2;9.18;0;Germany;0;0;0;GELNHAUSEN;10.242;10
27/06/17 12:00;DEZ0811;Eurdep;air;50.35;9.53;0;Germany;0;0;0;SCHLÜCHTERN;11.815999999999999;12
27/06/17 12:00;DEZ0812;Eurdep;air;50.26;9.52;0;Germany;0;0;0;STEINAU A.D.STR. OT MARJOß;9.382;9.82
27/06/17 12:00;DEZ0813;Eurdep;air;50.27;9.32;0;Germany;0;0;0;WÄCHTERSBACH;10.524;10
27/06/17 12:00;DEZ0814;Eurdep;air;50.06;8.37;0;Germany;0;0;0;HOFHEIM A.T. /WALLAU;10.283;10
27/06/17 12:00;DEZ0816;Eurdep;air;49.81;9.05;0;Germany;0;0;0;BREUBERG OT RAI-BREITENBACH;10.39;10
27/06/17 12:00;DEZ0818;Eurdep;air;49.72;8.84;0;Germany;0;0;0;REICHELSHEIM (ODW);12.620000000000001;13
27/06/17 12:00;DEZ0819;Eurdep;air;49.5;8.92;0;Germany;0;0;0;ROTHENBERG;9.013;9.27
27/06/17 12:00;DEZ0820;Eurdep;air;50.02;8.8;0;Germany;0;0;0;DIETZENBACH;8.309999999999999;8
27/06/17 12:00;DEZ0821;Eurdep;air;49.96;8.66;0;Germany;0;0;0;EGELSBACH;9.635;9.940000000000001
27/06/17 12:00;DEZ0823;Eurdep;air;50.05;8.97;0;Germany;0;0;0;SELIGENSTADT;9.794;10
27/06/17 12:00;DEZ0824;Eurdep;air;50.16;8.06;0;Germany;0;0;0;BAD SCHWALBACH;10.916;11
20/06/17 22:00;DEZ0828;Eurdep;air;50.05;7.8;0;Germany;0;0;0;LORCH;0;0
27/06/17 12:00;DEZ0830;Eurdep;air;50.29;8.95;0;Germany;0;0;0;ALTENSTADT;10;11
27/06/17 12:00;DEZ0832;Eurdep;air;50.29;9.11;0;Germany;0;0;0;BÜDINGEN;10.096;10
27/06/17 12:00;DEZ0835;Eurdep;air;50.32;8.75;0;Germany;0;0;0;FRIEDBERG (HESSEN);9.59;9.89
27/06/17 12:00;DEZ0836;Eurdep;air;50.39;9.14;0;Germany;0;0;0;HIRZENHAIN;10.181999999999999;10
27/06/17 12:00;DEZ0840;Eurdep;air;50.47;8.89;0;Germany;0;0;0;HUNGEN;10.169;10
27/06/17 12:00;DEZ0847;Eurdep;air;50.58;8.29;0;Germany;0;0;0;GREIFENSTEIN;10.448;10
26/06/17 21:00;DEZ0850;Eurdep;air;50.3;8.27;0;Germany;0;0;0;BAD CAMBERG;10;10
26/06/17 21:00;DEZ0851;Eurdep;air;50.44;8.03;0;Germany;0;0;0;HADAMAR;10;10
27/06/17 12:00;DEZ0853;Eurdep;air;50.48;8.24;0;Germany;0;0;0;WEILBURG;10.692;11
27/06/17 12:00;DEZ0854;Eurdep;air;50.43;8.38;0;Germany;0;0;0;WEILMÜNSTER;10.436;11
27/06/17 12:00;DEZ0858;Eurdep;air;50.69;8.61;0;Germany;0;0;0;LOHRA OT KIRCHVERS;10.106;10
26/06/17 21:00;DEZ0859;Eurdep;air;50.79;8.77;0;Germany;0;0;0;MARBURG;9.17;9.17
27/06/17 12:00;DEZ0860;Eurdep;air;50.82;8.99;0;Germany;0;0;0;STADTALLENDORF;9.008;9.39
27/06/17 12:00;DEZ0862;Eurdep;air;50.72;9.25;0;Germany;0;0;0;ALSFELD;12.120000000000001;12
27/06/17 12:00;DEZ0864;Eurdep;air;50.69;9.05;0;Germany;0;0;0;GEMÜNDEN (FELDA);8.503;9.16
27/06/17 12:00;DEZ0865;Eurdep;air;50.63;9.39;0;Germany;0;0;0;LAUTERBACH;8.794;9.33
27/06/17 12:00;DEZ0866;Eurdep;air;50.67;9.57;0;Germany;0;0;0;SCHLITZ;10.656;11
27/06/17 14:00;DEZ0874;Eurdep;air;50.5;9.94;0;Germany;0;0;0;GERSFELD/RHÖN;9.698;10
26/06/17 21:00;DEZ0882;Eurdep;air;50.65;10.02;0;Germany;0;0;0;TANN (RHÖN);11;11
27/06/17 12:00;DEZ0893;Eurdep;air;51.25;9.37;0;Germany;0;0;0;BAUNATAL OT GROßENRITTE;10.443999999999999;10
27/06/17 12:00;DEZ0899;Eurdep;air;51.49;9.59;0;Germany;0;0;0;REINHARDSHAGEN OT VECKERHAGEN;8.91;9.17
27/06/17 12:00;DEZ0903;Eurdep;air;51.37;9.3;0;Germany;0;0;0;ZIERENBERG;11.032;11
27/06/17 12:00;DEZ0905;Eurdep;air;51.02;9.41;0;Germany;0;0;0;HOMBERG (EFZE);11.576;12
27/06/17 12:00;DEZ0911;Eurdep;air;51.38;9;0;Germany;0;0;0;BAD AROLSEN;10.427;10
27/06/17 12:00;DEZ0913;Eurdep;air;51.01;8.63;0;Germany;0;0;0;BATTENBERG (EDER);10.931999999999999;11
27/06/17 12:00;DEZ0914;Eurdep;air;51.36;8.81;0;Germany;0;0;0;DIEMELSEE OT ADORF;10.148;10
27/06/17 12:00;DEZ0918;Eurdep;air;50.97;8.98;0;Germany;0;0;0;GEMÜNDEN (WOHRA);10.908;11
27/06/17 12:00;DEZ0920;Eurdep;air;51.2;8.8;0;Germany;0;0;0;LICHTENFELS ST GODDELSHEIM;10.308;10
27/06/17 12:00;DEZ0921;Eurdep;air;51.23;9.09;0;Germany;0;0;0;WALDECK OT NETZE;10.712;11
27/06/17 12:00;DEZ0922;Eurdep;air;51.28;8.66;0;Germany;0;0;0;WILLINGEN OT USSELN;11.296;11
27/06/17 12:00;DEZ0926;Eurdep;air;51.04;10.15;0;Germany;0;0;0;HERLESHAUSEN;10.64;11
27/06/17 12:00;DEZ0927;Eurdep;air;51.2;9.65;0;Germany;0;0;0;HESSISCH LICHTENAU OT QUENTEL;11.504000000000001;11
27/06/17 12:00;DEZ0928;Eurdep;air;51.24;10.06;0;Germany;0;0;0;MEINHARD OT HITZELRODE;10.931999999999999;11
26/06/17 21:00;DEZ0931;Eurdep;air;51.19;10.18;0;Germany;0;0;0;WANFRIED;12;12
27/06/17 12:00;DEZ0932;Eurdep;air;51.35;9.86;0;Germany;0;0;0;WITZENHAUSEN;11.772;12
27/06/17 12:00;DEZ0933;Eurdep;air;50.51;6.99;0;Germany;0;0;0;ALTENAHR-ALTENBURG;11;12
27/06/17 12:00;DEZ0935;Eurdep;air;50.46;7.21;0;Germany;0;0;0;NIEDERZISSEN;11.868;12
20/06/17 22:00;DEZ0939;Eurdep;air;50.62;7.53;0;Germany;0;0;0;OBERLAHR;0;0
27/06/17 12:00;DEZ0942;Eurdep;air;49.79;7.49;0;Germany;0;0;0;KIRN/NAHE;10.604000000000001;11
27/06/17 12:00;DEZ0943;Eurdep;air;49.95;7.79;0;Germany;0;0;0;STROMBERG;10.552;10
27/06/17 12:00;DEZ0945;Eurdep;air;49.88;7.63;0;Germany;0;0;0;WINTERBACH;11.484;11
27/06/17 12:00;DEZ0949;Eurdep;air;49.7;7.35;0;Germany;0;0;0;IDAR-OBERSTEIN;10.948;13
27/06/17 12:00;DEZ0950;Eurdep;air;49.86;7.34;0;Germany;0;0;0;RHAUNEN/HUNSRÜCK;12.26;12
27/06/17 12:00;DEZ0954;Eurdep;air;50.22;6.98;0;Germany;0;0;0;ULMEN;11.084;11
27/06/17 12:00;DEZ0957;Eurdep;air;50.32;7.22;0;Germany;0;0;0;MAYEN;12.392;12
27/06/17 12:00;DEZ0959;Eurdep;air;50.41;7.55;0;Germany;0;0;0;KALTENENGERS;10.964;11
27/06/17 12:00;DEZ0960;Eurdep;air;50.39;7.5;0;Germany;0;0;0;MÜLHEIM-KÄRLICH;13.144;13
27/06/17 12:00;DEZ0961;Eurdep;air;50.34;7.46;0;Germany;0;0;0;WOLKEN;12.604000000000001;13
27/06/17 12:00;DEZ0962;Eurdep;air;50.24;7.36;0;Germany;0;0;0;MÜNSTERMAIFELD;12.16;12
27/06/17 12:00;DEZ0965;Eurdep;air;50.56;7.29;0;Germany;0;0;0;LINZ AM RHEIN;10.047;10
27/06/17 12:00;DEZ0966;Eurdep;air;50.43;7.48;0;Germany;0;0;0;NEUWIED;11.652;12
27/06/17 12:00;DEZ0967;Eurdep;air;50.17;7.5600000000000005;0;Germany;0;0;0;HALSENBACH;12.228;12
27/06/17 12:00;DEZ0968;Eurdep;air;50.07;7.45;0;Germany;0;0;0;KASTELLAUN;12.516;13
27/06/17 12:00;DEZ0969;Eurdep;air;49.91;7.51;0;Germany;0;0;0;MENGERSCHIED;12.004000000000001;12
27/06/17 12:00;DEZ0970;Eurdep;air;49.98;7.52;0;Germany;0;0;0;SIMMERN;11.612;12
27/06/17 12:00;DEZ0973;Eurdep;air;50.35;7.89;0;Germany;0;0;0;HOLZAPPEL;11.864;12
27/06/17 12:00;DEZ0974;Eurdep;air;50.27;7.98;0;Germany;0;0;0;KATZENELNBOGEN;13.196000000000002;13
27/06/17 12:00;DEZ0975;Eurdep;air;50.32;7.59;0;Germany;0;0;0;LAHNSTEIN;10.964;11
27/06/17 12:00;DEZ0976;Eurdep;air;50.2;7.86;0;Germany;0;0;0;NASTÄTTEN;10.652;11
27/06/17 12:00;DEZ0977;Eurdep;air;50.15;7.73;0;Germany;0;0;0;ST. GOARSHAUSEN;12.456;13
27/06/17 12:00;DEZ0978;Eurdep;air;50.27;7.83;0;Germany;0;0;0;SINGHOFEN;10.772;11
26/06/17 21:00;DEZ0984;Eurdep;air;50.65;7.72;0;Germany;0;0;0;WAHLROD;10;10
27/06/17 14:00;DEZ0985;Eurdep;air;49.75;6.66;0;Germany;0;0;0;TRIER;11.592;13
27/06/17 12:00;DEZ0988;Eurdep;air;50.09;6.8100000000000005;0;Germany;0;0;0;MANDERSCHEID;11.232;11
27/06/17 12:00;DEZ0989;Eurdep;air;49.86;6.9;0;Germany;0;0;0;NEUMAGEN-DHRON;11.856;12
27/06/17 12:00;DEZ0994;Eurdep;air;50.02;6.23;0;Germany;0;0;0;KARLSHAUSEN;11.704;12
27/06/17 12:00;DEZ0997;Eurdep;air;49.94;6.64;0;Germany;0;0;0;SPEICHER;12.308;12
27/06/17 12:00;DEZ0998;Eurdep;air;49.97;6.19;0;Germany;0;0;0;WALDHOF-FALKENSTEIN;11.388;12
27/06/17 12:00;DEZ1000;Eurdep;air;50.3;6.34;0;Germany;0;0;0;AUW BEI PRÜM;10.245000000000001;10
27/06/17 12:00;DEZ1003;Eurdep;air;50.1;6.45;0;Germany;0;0;0;FEUERSCHEID;10.015;10
27/06/17 12:00;DEZ1004;Eurdep;air;50.16;6.22;0;Germany;0;0;0;GROßKAMPENBERG;10;11
27/06/17 12:00;DEZ1006;Eurdep;air;50.21;6.42;0;Germany;0;0;0;PRÜM;11.132;11
27/06/17 12:00;DEZ1008;Eurdep;air;50.29;6.67;0;Germany;0;0;0;HILLESHEIM;10.724;11
27/06/17 12:00;DEZ1009;Eurdep;air;50.35;6.57;0;Germany;0;0;0;JÜNKERATH;11.416;11
27/06/17 12:00;DEZ1011;Eurdep;air;50.33;6.45;0;Germany;0;0;0;ORMONT;9.936;10
27/06/17 12:00;DEZ1016;Eurdep;air;49.6;6.5600000000000005;0;Germany;0;0;0;SAARBURG;10.824;13
27/06/17 12:00;DEZ1019;Eurdep;air;49.67;6.52;0;Germany;0;0;0;TAWERN;10.98;13
27/06/17 12:00;DEZ1021;Eurdep;air;49.6;6.42;0;Germany;0;0;0;WINCHERINGEN;12.012;14
27/06/17 11:00;DEZ1022;Eurdep;air;49.6;6.69;0;Germany;0;0;0;ZERF;10.708;11
27/06/17 12:00;DEZ1028;Eurdep;air;49.2;7.62;0;Germany;0;0;0;PIRMASENS;11.984;12
27/06/17 12:00;DEZ1030;Eurdep;air;49.67;8.35;0;Germany;0;0;0;WORMS;9.273;9.52
27/06/17 12:00;DEZ1032;Eurdep;air;49.74;8.12;0;Germany;0;0;0;ALZEY;13.26;13
27/06/17 12:00;DEZ1034;Eurdep;air;49.77;7.95;0;Germany;0;0;0;STEIN-BOCKENHEIM;10.956;11
27/06/17 12:00;DEZ1036;Eurdep;air;49.47;8.19;0;Germany;0;0;0;BAD DÜRKHEIM;9.536;9.83
27/06/17 12:00;DEZ1037;Eurdep;air;49.35;7.94;0;Germany;0;0;0;ELMSTEIN;10.209999999999999;10
27/06/17 12:00;DEZ1038;Eurdep;air;49.57;8.18;0;Germany;0;0;0;GRÜNSTADT;9.784;10
27/06/17 12:00;DEZ1039;Eurdep;air;49.41;8.01;0;Germany;0;0;0;WEIDENTHAL;9.611;10
27/06/17 12:00;DEZ1041;Eurdep;air;49.66;8.01;0;Germany;0;0;0;KIRCHHEIMBOLANDEN;12.808000000000002;13
26/06/17 21:00;DEZ1042;Eurdep;air;49.73;7.78;0;Germany;0;0;0;OBERMOSCHEL;12;12
27/06/17 12:00;DEZ1043;Eurdep;air;49.6;7.78;0;Germany;0;0;0;GUNDERSWEILER;12.704;13
27/06/17 12:00;DEZ1045;Eurdep;air;49.21;8.36;0;Germany;0;0;0;GERMERSHEIM;9.032;9.41
27/06/17 12:00;DEZ1046;Eurdep;air;48.99;8.24;0;Germany;0;0;0;NEUBURG AM RHEIN;9.263;9.59
27/06/17 12:00;DEZ1049;Eurdep;air;49.05;8.25;0;Germany;0;0;0;WÖRTH AM RHEIN;8.294;8.72
27/06/17 12:00;DEZ1051;Eurdep;air;49.49;7.89;0;Germany;0;0;0;ENKENBACH-ALSENBORN;9.558;9.89
27/06/17 12:00;DEZ1058;Eurdep;air;49.28;8.23;0;Germany;0;0;0;BÖBINGEN;9.552;10
27/06/17 12:00;DEZ1059;Eurdep;air;49.05;8.03;0;Germany;0;0;0;STEINFELD;8.743;9.26
27/06/17 12:00;DEZ1060;Eurdep;air;49.26;8.4;0;Germany;0;0;0;RÖMERBERG-MECHTERSHEIM;9.327;9
27/06/17 12:00;DEZ1061;Eurdep;air;49.4;8.39;0;Germany;0;0;0;SCHIFFERSTADT;9.513;9.879999999999999
27/06/17 12:00;DEZ1065;Eurdep;air;49.97;8.26;0;Germany;0;0;0;MAINZ-HECHTSHEIM;12.032;12
27/06/17 12:00;DEZ1071;Eurdep;air;49.32;7.7;0;Germany;0;0;0;HELTERSBERG;9.053;9.51
27/06/17 12:00;DEZ1072;Eurdep;air;49.26;7.5600000000000005;0;Germany;0;0;0;THALEISCHWEILER-FRÖSCHEN;10.664;11
27/06/17 12:00;DEZ1073;Eurdep;air;49.22;7.9;0;Germany;0;0;0;WILGARTSWIESEN;9.77;10
27/06/17 12:00;DEZ1075;Eurdep;air;49.19;7.44;0;Germany;0;0;0;DIETRICHINGEN;12.924000000000001;13
27/06/17 12:00;DEZ1078;Eurdep;air;48.78;9.18;0;Germany;0;0;0;STUTTGART;11.635;12
27/06/17 12:00;DEZ1079;Eurdep;air;48.69;9.04;0;Germany;0;0;0;BÖBLINGEN;10.815999999999999;11.85
27/06/17 12:00;DEZ1080;Eurdep;air;48.6;8.86;0;Germany;0;0;0;HERRENBERG;10.931999999999999;11.75
27/06/17 11:00;DEZ1081;Eurdep;air;48.8;9;0;Germany;0;0;0;LEONBERG;12;13
27/06/17 12:00;DEZ1082;Eurdep;air;48.72;8.98;0;Germany;0;0;0;SINDELFINGEN;11.623999999999999;12
26/06/17 21:00;DEZ1084;Eurdep;air;48.75;9.32;0;Germany;0;0;0;ESSLINGEN;10;10
27/06/17 12:00;DEZ1086;Eurdep;air;48.74;9.48;0;Germany;0;0;0;LICHTENWALD;9.598;11
26/06/17 21:00;DEZ1087;Eurdep;air;48.55;9.37;0;Germany;0;0;0;NEUFFEN;10;10
27/06/17 12:00;DEZ1090;Eurdep;air;48.72;9.26;0;Germany;0;0;0;OSTFILDERN ST RUIT;9.878;11
27/06/17 12:00;DEZ1091;Eurdep;air;48.68;9.93;0;Germany;0;0;0;BÖHMENKIRCH;9.631;9.99
27/06/17 12:00;DEZ1092;Eurdep;air;48.74;9.72;0;Germany;0;0;0;GÖPPINGEN ST HOHENSTAUF.;10.524;11
27/06/17 12:00;DEZ1104;Eurdep;air;48.99;9.55;0;Germany;0;0;0;MURRHARDT;11.48;13
27/06/17 12:00;DEZ1109;Eurdep;air;49.18;8.83;0;Germany;0;0;0;EPPINGEN ST ELSENZ;11.548;11
27/06/17 12:00;DEZ1117;Eurdep;air;49.28;9.8;0;Germany;0;0;0;KÜNZELSAU ST NITZENHAUSEN;12.244;13
27/06/17 12:00;DEZ1118;Eurdep;air;49.3;9.62;0;Germany;0;0;0;NIEDERNHALL;13.256;14
26/06/17 21:00;DEZ1121;Eurdep;air;49.29;10.04;0;Germany;0;0;0;BLAUFELDEN OT WIESENBACH;11;11
27/06/17 12:00;DEZ1126;Eurdep;air;49.08;9.55;0;Germany;0;0;0;MAINHARDT;10.016;11
27/06/17 12:00;DEZ1127;Eurdep;air;49.1;9.73;0;Germany;0;0;0;SCHWÄBISCH HALL;12.408;14
27/06/17 12:00;DEZ1129;Eurdep;air;49.08;9.98;0;Germany;0;0;0;FRANKENHARDT OT GRÜNDELH.;9.472;10
27/06/17 12:00;DEZ1130;Eurdep;air;49.41;9.83;0;Germany;0;0;0;BAD MERGENTHEIM ST HERBSTHAUSEN;10.904;11
27/06/17 12:00;DEZ1132;Eurdep;air;49.67;9.74;0;Germany;0;0;0;GROßRINDERFELD;10.266;10
26/06/17 21:00;DEZ1133;Eurdep;air;49.53;9.85;0;Germany;0;0;0;IGERSHEIM OT HARTHAUSEN;9.91;9.91
27/06/17 12:00;DEZ1140;Eurdep;air;48.86;9.79;0;Germany;0;0;0;DURLANGEN;11.296;12
27/06/17 12:00;DEZ1144;Eurdep;air;48.76;10.33;0;Germany;0;0;0;NERESHEIM;8.01;8.33
27/06/17 12:00;DEZ1145;Eurdep;air;48.94;10.37;0;Germany;0;0;0;UNTERSCHNEIDHEIM;9.639;10
27/06/17 12:00;DEZ1146;Eurdep;air;48.83;10.12;0;Germany;0;0;0;AALEN ST UNTERKOCHEN;8.212;8.68
27/06/17 12:00;DEZ1154;Eurdep;air;49.12;8.73;0;Germany;0;0;0;KRAICHTAL ST MÜNZESHEIM;11.708;12
27/06/17 12:00;DEZ1156;Eurdep;air;49.13;8.53;0;Germany;0;0;0;KARLSDORF-NEUTHARD OT K.;9.014;9.27
27/06/17 12:00;DEZ1160;Eurdep;air;49.09;8.48;0;Germany;0;0;0;STUTENSEE OT FRIEDRICHST.;9.133;9.379999999999999
27/06/17 12:00;DEZ1163;Eurdep;air;48.69;8.13;0;Germany;0;0;0;BÜHL;11.92;12
27/06/17 12:00;DEZ1164;Eurdep;air;48.69;8.36;0;Germany;0;0;0;FORBACH OT GAUSBACH;13.431999999999999;13
26/06/17 21:00;DEZ1165;Eurdep;air;48.61;8.28;0;Germany;0;0;0;FORBACH OT HUNDSBACH;14;14
27/06/17 11:00;DEZ1166;Eurdep;air;48.79;8.33;0;Germany;0;0;0;GAGGENAU ST OTTENAU;11.05;11
27/06/17 12:00;DEZ1170;Eurdep;air;48.75;8;0;Germany;0;0;0;RHEINMÜNSTER OT GREFFERN;9.086;9
27/06/17 12:00;DEZ1174;Eurdep;air;49.37;9.42;0;Germany;0;0;0;ADELSHEIM ST LEIBENSTADT;12.14;12
27/06/17 12:00;DEZ1176;Eurdep;air;49.52;9.33;0;Germany;0;0;0;BUCHEN;10.776;11
27/06/17 12:00;DEZ1177;Eurdep;air;49.61;9.47;0;Germany;0;0;0;HARDHEIM;11.78;12
27/06/17 12:00;DEZ1196;Eurdep;air;48.66;8.6;0;Germany;0;0;0;NEUWEILER;11.26;11.85
27/06/17 12:00;DEZ1197;Eurdep;air;48.57;8.69;0;Germany;0;0;0;ROHRDORF;11.995999999999999;12
27/06/17 12:00;DEZ1199;Eurdep;air;48.7;8.53;0;Germany;0;0;0;BAD WILDBAD;8.717;8.97
27/06/17 12:00;DEZ1200;Eurdep;air;48.71;8.76;0;Germany;0;0;0;CALW ST HEUMADEN;11.187999999999999;11
27/06/17 12:00;DEZ1203;Eurdep;air;48.85;8.58;0;Germany;0;0;0;NEUENBÜRG;12.676;13
27/06/17 12:00;DEZ1206;Eurdep;air;48.35;8.39;0;Germany;0;0;0;ALPIRSBACH;15.203999999999999;16
27/06/17 12:00;DEZ1210;Eurdep;air;48.52;8.56;0;Germany;0;0;0;PFALZGRAFENWEILER;12.604000000000001;13
27/06/17 12:00;DEZ1211;Eurdep;air;48.59;8.42;0;Germany;0;0;0;SEEWALD OT BESENFELD;11.443999999999999;11.825
27/06/17 14:00;DEZ1213;Eurdep;air;47.92;7.91;0;Germany;0;0;0;SCHAUINSLAND FREIBURG;12.137;12
27/06/17 12:00;DEZ1218;Eurdep;air;47.98;7.91;0;Germany;0;0;0;FREIBURG ST EBNET;11.768;13
27/06/17 12:00;DEZ1223;Eurdep;air;47.86;8.11;0;Germany;0;0;0;FELDBERG OT ALTGLASHÜTTEN;12.972;13
27/06/17 12:00;DEZ1229;Eurdep;air;48.17;8.06;0;Germany;0;0;0;ELZACH;12.448;13
27/06/17 12:00;DEZ1232;Eurdep;air;48.16;7.64;0;Germany;0;0;0;WYHL;11.22;12
27/06/17 12:00;DEZ1235;Eurdep;air;48.66;8.02;0;Germany;0;0;0;ACHERN OT GAMSHURST;10.66;11
27/06/17 12:00;DEZ1236;Eurdep;air;48.43;8.21;0;Germany;0;0;0;BAD PETERSTAL-GRIEßBACH;13.156;13
27/06/17 12:00;DEZ1241;Eurdep;air;48.53;8.07;0;Germany;0;0;0;OBERKIRCH;11.931999999999999;12
27/06/17 12:00;DEZ1244;Eurdep;air;48.27;7.95;0;Germany;0;0;0;SCHUTTERTAL;11.272;12
27/06/17 12:00;DEZ1245;Eurdep;air;48.45;7.89;0;Germany;0;0;0;SCHUTTERWALD;13.187999999999999;14
27/06/17 12:00;DEZ1248;Eurdep;air;48.35;7.76;0;Germany;0;0;0;SCHWANAU OT NONNENWEIER;9.476;10
27/06/17 12:00;DEZ1249;Eurdep;air;48.47;7.8;0;Germany;0;0;0;NEURIED OT ALTENHEIM;9;10
27/06/17 12:00;DEZ1252;Eurdep;air;48.29;8.56;0;Germany;0;0;0;OBERNDORF/N. ST LINDENHOF;14.540000000000001;15
27/06/17 12:00;DEZ1253;Eurdep;air;48.25;8.44;0;Germany;0;0;0;SCHRAMBERG ST BRAMBACH;12.272;12
26/06/17 21:00;DEZ1258;Eurdep;air;48.12;8.39;0;Germany;0;0;0;ST. GEORGEN;13;13
27/06/17 12:00;DEZ1260;Eurdep;air;48;8.32;0;Germany;0;0;0;VÖHRENBACH ST HAMMEREIS.;15.572;16
27/06/17 12:00;DEZ1263;Eurdep;air;48.01;8.66;0;Germany;0;0;0;TALHEIM;11.308;11
27/06/17 12:00;DEZ1264;Eurdep;air;47.99;8.81;0;Germany;0;0;0;TUTTLINGEN;10.959999999999999;11
27/06/17 12:00;DEZ1265;Eurdep;air;47.86;8.78;0;Germany;0;0;0;ENGEN;9.348;9.575
27/06/17 14:00;DEZ1268;Eurdep;air;47.68;9.19;0;Germany;0;0;0;KONSTANZ;9.794;10
27/06/17 12:00;DEZ1269;Eurdep;air;47.66;8.89;0;Germany;0;0;0;ÖHNINGEN;9.190000000000001;9.65
27/06/17 12:00;DEZ1270;Eurdep;air;47.74;8.98;0;Germany;0;0;0;RADOLFZELL;8.787;9.17
27/06/17 12:00;DEZ1273;Eurdep;air;47.86;9.01;0;Germany;0;0;0;STOCKACH;10.416;11.233
27/06/17 12:00;DEZ1274;Eurdep;air;47.82;8.66;0;Germany;0;0;0;TENGEN;10.356;10.533
27/06/17 12:00;DEZ1275;Eurdep;air;47.74;7.55;0;Germany;0;0;0;BAD BELLINGEN;9.314;9.727
27/06/17 12:00;DEZ1276;Eurdep;air;47.66;7.54;0;Germany;0;0;0;EFRINGEN-KIRCHEN OT ISTEIN;9.42;10.053
27/06/17 12:00;DEZ1277;Eurdep;air;47.74;7.8100000000000005;0;Germany;0;0;0;ELBENSCHWAND OT LANGENSEE;14.563999999999998;15.55
27/06/17 12:00;DEZ1278;Eurdep;air;47.71;7.61;0;Germany;0;0;0;KANDERN ST TANNENKIRCH;12;12
27/06/17 12:00;DEZ1279;Eurdep;air;47.56;7.78;0;Germany;0;0;0;RHEINFELDEN;10.014;10.45
27/06/17 12:00;DEZ1280;Eurdep;air;47.65;7.83;0;Germany;0;0;0;SCHOPFHEIM;12.644;13.05
27/06/17 12:00;DEZ1283;Eurdep;air;47.84;7.88;0;Germany;0;0;0;WIEDEN;13.308000000000002;13
27/06/17 12:00;DEZ1284;Eurdep;air;47.54;7.67;0;Germany;0;0;0;GRENZACH-WYHLEN OT GRENZ.;8.831;9.693000000000001
27/06/17 12:00;DEZ1286;Eurdep;air;47.82;8.34;0;Germany;0;0;0;BONNDORF;11.040000000000001;11.559999999999999
27/06/17 12:00;DEZ1293;Eurdep;air;47.74;8.44;0;Germany;0;0;0;STÜHLINGEN;9.565999999999999;9.870000000000001
27/06/17 12:00;DEZ1298;Eurdep;air;48.28;9.48;0;Germany;0;0;0;HAYINGEN;9.992;10
27/06/17 14:00;DEZ1300;Eurdep;air;48.41;9.53;0;Germany;0;0;0;MÜNSINGEN ST AUINGEN;9.533;10
27/06/17 12:00;DEZ1301;Eurdep;air;48.48;9.23;0;Germany;0;0;0;PFULLINGEN;8.120000000000001;9.52
27/06/17 12:00;DEZ1302;Eurdep;air;48.48;9.4;0;Germany;0;0;0;BAD URACH;7.276999999999999;8.45
27/06/17 12:00;DEZ1303;Eurdep;air;48.35;9.33;0;Germany;0;0;0;HOHENSTEIN;11.104000000000001;11
27/06/17 12:00;DEZ1305;Eurdep;air;48.4;9.05;0;Germany;0;0;0;MÖSSINGEN;10.664;11.15
27/06/17 12:00;DEZ1309;Eurdep;air;48.27;8.85;0;Germany;0;0;0;BALINGEN;11.728;12
26/06/17 21:00;DEZ1310;Eurdep;air;48.29;9.14;0;Germany;0;0;0;BURLADINGEN;8.98;8.98
26/06/17 21:00;DEZ1311;Eurdep;air;48.35;8.78;0;Germany;0;0;0;HAIGERLOCH ST GRUOL;12;12
27/06/17 12:00;DEZ1313;Eurdep;air;48.21;8.77;0;Germany;0;0;0;SCHÖMBERG;11.476;11
27/06/17 12:00;DEZ1314;Eurdep;air;48.21;9;0;Germany;0;0;0;ALBSTADT ST EBINGEN;9.498999999999999;9.893
27/06/17 12:00;DEZ1317;Eurdep;air;48.47;9.94;0;Germany;0;0;0;DORNSTADT;10.836;11
27/06/17 12:00;DEZ1318;Eurdep;air;48.27;9.73;0;Germany;0;0;0;EHINGEN;9.278;9.72
27/06/17 12:00;DEZ1323;Eurdep;air;48.37;9.74;0;Germany;0;0;0;SCHELKLINGEN;7.214;7.470000000000001
27/06/17 12:00;DEZ1327;Eurdep;air;48.11;9.42;0;Germany;0;0;0;ERTINGEN OT BINZWANGEN;9.363;10
27/06/17 12:00;DEZ1328;Eurdep;air;48.18;9.97;0;Germany;0;0;0;SCHWENDI;8.98;9.34
27/06/17 12:00;DEZ1331;Eurdep;air;48.2;9.78;0;Germany;0;0;0;SCHEMMERHOFEN OT INGERK.;11.576;12
27/06/17 12:00;DEZ1335;Eurdep;air;47.59;9.6;0;Germany;0;0;0;KRESSBRONN;9.089;9.959999999999999
27/06/17 12:00;DEZ1337;Eurdep;air;47.78;9.15;0;Germany;0;0;0;ÜBERLINGEN;10.142;11
27/06/17 12:00;DEZ1338;Eurdep;air;47.8;9.43;0;Germany;0;0;0;DEGGENHAUSERTAL OT LIMP.;9.515;10
27/06/17 12:00;DEZ1339;Eurdep;air;47.94;10.09;0;Germany;0;0;0;AITRACH;8.667;9.41
27/06/17 12:00;DEZ1345;Eurdep;air;47.82;10.02;0;Germany;0;0;0;LEUTKIRCH;9.23;9.97
26/06/17 21:00;DEZ1346;Eurdep;air;47.8;9.63;0;Germany;0;0;0;RAVENSBURG;9.24;9.24
27/06/17 12:00;DEZ1348;Eurdep;air;47.82;9.79;0;Germany;0;0;0;WOLFEGG;9.834999999999999;10
27/06/17 12:00;DEZ1349;Eurdep;air;48.05;8.97;0;Germany;0;0;0;BEURON;9.735;10.24
27/06/17 12:00;DEZ1351;Eurdep;air;48.02;9.23;0;Germany;0;0;0;KRAUCHENWIES OT ABLACH;9.472;10.081999999999999
27/06/17 12:00;DEZ1352;Eurdep;air;47.95;9.37;0;Germany;0;0;0;OSTRACH;9.858;10
26/06/17 21:00;DEZ1354;Eurdep;air;48.09;9.22;0;Germany;0;0;0;SIGMARINGEN;10;10
27/06/17 12:00;DEZ1355;Eurdep;air;48.12;9.08;0;Germany;0;0;0;STETTEN A.K.M.;9.599;10.098
27/06/17 12:00;DEZ1356;Eurdep;air;47.95;9.03;0;Germany;0;0;0;SAULDORF OT BOLL;10.029;10
27/06/17 06:00;DEZ1357;Eurdep;air;47.86;9.24;0;Germany;0;0;0;HERDWANGEN-SCHÖNACH;9.111;9.59
27/06/17 12:00;DEZ1360;Eurdep;air;48.15;11.45;0;Germany;0;0;0;MÜNCHEN-PASING;9.259;10
27/06/17 12:00;DEZ1361;Eurdep;air;48.09;11.66;0;Germany;0;0;0;München-Neuperlach;8.708;10
26/06/17 21:00;DEZ1365;Eurdep;air;48.21;12.88;0;Germany;0;0;0;HAIMING;9.690000000000001;9.690000000000001
27/06/17 12:00;DEZ1374;Eurdep;air;47.61;12.91;0;Germany;0;0;0;RAMSAU;10.904;12
27/06/17 12:00;DEZ1381;Eurdep;air;47.56;11.44;0;Germany;0;0;0;VORDERRIß II;9.404;11
27/06/17 12:00;DEZ1384;Eurdep;air;48.36;11.39;0;Germany;0;0;0;MARKT INDERSDORF;10.344;12
27/06/17 12:00;DEZ1386;Eurdep;air;48.08;11.96;0;Germany;0;0;0;EBERSBERG;9.917;11
27/06/17 12:00;DEZ1394;Eurdep;air;48.82;11.09;0;Germany;0;0;0;WELLHEIM;9.451;10
27/06/17 12:00;DEZ1399;Eurdep;air;48.3;11.84;0;Germany;0;0;0;NOTZING;9.145999999999999;10
31/05/17 22:00;DEZ1405;Eurdep;air;48.3;11.66;0;Germany;0;0;0;NEUFAHRN BEI FREISING;0;0
27/06/17 14:00;DEZ1409;Eurdep;air;47.48;11.06;0;Germany;0;0;0;GARMISCH-PARTENKIRCHEN;8.940999999999999;9.93
27/06/17 12:00;DEZ1419;Eurdep;air;48.07;11.03;0;Germany;0;0;0;WINDACH;10.525;12
27/06/17 12:00;DEZ1422;Eurdep;air;47.72;11.96;0;Germany;0;0;0;FISCHBACHAU;10.081999999999999;12
27/06/17 12:00;DEZ1426;Eurdep;air;48.28;12.35;0;Germany;0;0;0;STEFANSKIRCHEN;9.697;11
27/06/17 14:00;DEZ1430;Eurdep;air;48.36;12.51;0;Germany;0;0;0;NEUMARKT-ST.VEIT;9.754000000000001;10
27/06/17 12:00;DEZ1432;Eurdep;air;47.97;11.63;0;Germany;0;0;0;SAUERLACH;9.661;11
27/06/17 12:00;DEZ1438;Eurdep;air;48.5;11.36;0;Germany;0;0;0;GEROLSBACH;11.108;12
26/06/17 21:00;DEZ1445;Eurdep;air;47.74;12.12;0;Germany;0;0;0;BRANNENBURG;7.9799999999999995;7.9799999999999995
27/06/17 12:00;DEZ1447;Eurdep;air;47.8;12.29;0;Germany;0;0;0;FRASDORF;10.294;11
27/06/17 12:00;DEZ1450;Eurdep;air;47.98;12.05;0;Germany;0;0;0;KRONAU;10.526;12
27/06/17 12:00;DEZ1451;Eurdep;air;48.06;12.22;0;Germany;0;0;0;WASSERBURG AM INN;9.58;11
26/06/17 21:00;DEZ1453;Eurdep;air;48.07;11.25;0;Germany;0;0;0;WEßLING;8.879999999999999;8.879999999999999
26/06/17 21:00;DEZ1455;Eurdep;air;47.78;12.45;0;Germany;0;0;0;GRASSAU;9.190000000000001;9.190000000000001
27/06/17 12:00;DEZ1460;Eurdep;air;47.67;12.47;0;Germany;0;0;0;REIT IM WINKL;9.484;10
27/06/17 12:00;DEZ1461;Eurdep;air;47.73;12.66;0;Germany;0;0;0;RUHPOLDING OT LAUBAU;8.931999999999999;9.65
27/06/17 14:00;DEZ1462;Eurdep;air;47.7;12.4;0;Germany;0;0;0;SCHLECHING;10.881;12
27/06/17 12:00;DEZ1469;Eurdep;air;47.82;11.3;0;Germany;0;0;0;SEESHAUPT;9.559000000000001;11
26/06/17 21:00;DEZ1470;Eurdep;air;47.83;11.17;0;Germany;0;0;0;WEILHEIM OT DEUTENHAUSEN;10;10
27/06/17 12:00;DEZ1488;Eurdep;air;48.95;11.68;0;Germany;0;0;0;RIEDENBURG;10.162;11
27/06/17 12:00;DEZ1490;Eurdep;air;48.55;12.26;0;Germany;0;0;0;ADLKOFEN;11.888;13
27/06/17 12:00;DEZ1492;Eurdep;air;48.57;12.17;0;Germany;0;0;0;ERGOLDING;9.684999999999999;10
27/06/17 14:00;DEZ1495;Eurdep;air;48.59;12.23;0;Germany;0;0;0;OHU;11.129999999999999;12
27/06/17 12:00;DEZ1496;Eurdep;air;48.64;12.27;0;Germany;0;0;0;METTENBACH;9.974;11
27/06/17 12:00;DEZ1497;Eurdep;air;48.47;12.27;0;Germany;0;0;0;GEISENHAUSEN;11.14;12
27/06/17 12:00;DEZ1498;Eurdep;air;48.51;12.42;0;Germany;0;0;0;GERZEN;12.988;14
27/06/17 12:00;DEZ1502;Eurdep;air;48.65;12.33;0;Germany;0;0;0;POSTAU;10.379000000000001;11
27/06/17 12:00;DEZ1507;Eurdep;air;48.52;12;0;Germany;0;0;0;BRUCKBERG;10.32;10
27/06/17 12:00;DEZ1511;Eurdep;air;48.72;13.33;0;Germany;0;0;0;FÜRSTENSTEIN;16.588;18
27/06/17 12:00;DEZ1523;Eurdep;air;49.04;12.99;0;Germany;0;0;0;TEISNACH;16.184;17
27/06/17 12:00;DEZ1530;Eurdep;air;48.44;12.57;0;Germany;0;0;0;GANGKOFEN;10.751999999999999;11
27/06/17 12:00;DEZ1531;Eurdep;air;48.24;12.98;0;Germany;0;0;0;KIRCHDORF AM INN;8.678;11
27/06/17 12:00;DEZ1532;Eurdep;air;48.48;12.84;0;Germany;0;0;0;SCHÖNAU 1;13.347999999999999;15
27/06/17 13:00;DEZ1534;Eurdep;air;48.38;12.96;0;Germany;0;0;0;NEUKIRCHEN BEI PFARRKIRCHEN;12.664;13
26/06/17 21:00;DEZ1537;Eurdep;air;48.94;12.72;0;Germany;0;0;0;HUNDERDORF;14;14
27/06/17 12:00;DEZ1544;Eurdep;air;48.63;12.86;0;Germany;0;0;0;EICHENDORF;9.597;11
27/06/17 12:00;DEZ1550;Eurdep;air;48.74;12.75;0;Germany;0;0;0;WALLERSDORF;11.836;12
27/06/17 14:00;DEZ1553;Eurdep;air;49.04;12.1;0;Germany;0;0;0;REGENSBURG;9.772;10
27/06/17 12:00;DEZ1559;Eurdep;air;49.26;11.93;0;Germany;0;0;0;SCHMIDMÜHLEN;10.876000000000001;11
27/06/17 12:00;DEZ1560;Eurdep;air;49.5;11.74;0;Germany;0;0;0;SULZBACH-ROSENBERG;10.096;10
27/06/17 12:00;DEZ1565;Eurdep;air;49.1;12.48;0;Germany;0;0;0;FALKENSTEIN;13.540000000000001;14
27/06/17 12:00;DEZ1568;Eurdep;air;49.2;13.05;0;Germany;0;0;0;LAM;15.356;16
27/06/17 12:00;DEZ1572;Eurdep;air;49.36;12.61;0;Germany;0;0;0;SCHÖNTHAL;14.376;14
27/06/17 12:00;DEZ1583;Eurdep;air;49.16;11.73;0;Germany;0;0;0;PARSBERG;10.102;11
27/06/17 12:00;DEZ1586;Eurdep;air;49.29;11.62;0;Germany;0;0;0;VELBURG OT UNTERWIESENACKER;9.018;10
27/06/17 12:00;DEZ1604;Eurdep;air;48.84;12.19;0;Germany;0;0;0;SCHIERLING-EGGMÜHL;9.544;10
27/06/17 12:00;DEZ1607;Eurdep;air;49.25;12.3;0;Germany;0;0;0;BRUCK IN DER OBERPFALZ;11.924;12
27/06/17 12:00;DEZ1608;Eurdep;air;49.2;12.06;0;Germany;0;0;0;BURGLENGENFELD;11.708;13
27/06/17 12:00;DEZ1615;Eurdep;air;49.51;12.54;0;Germany;0;0;0;SCHÖNSEE;11.716;12
27/06/17 12:00;DEZ1617;Eurdep;air;49.4;12.14;0;Germany;0;0;0;SCHWARZENFELD;12.22;13
27/06/17 12:00;DEZ1620;Eurdep;air;49.81;12.44;0;Germany;0;0;0;BÄRNAU;13.428;14
27/06/17 12:00;DEZ1626;Eurdep;air;49.88;12.34;0;Germany;0;0;0;TIRSCHENREUTH;12.912;13
27/06/17 12:00;DEZ1627;Eurdep;air;50;12.3;0;Germany;0;0;0;WALDSASSEN;12.58;13
27/06/17 12:00;DEZ1632;Eurdep;air;49.99;10.85;0;Germany;0;0;0;BAUNACH;10.054;10
27/06/17 12:00;DEZ1635;Eurdep;air;49.89;11.11;0;Germany;0;0;0;HEILIGENSTADT I. OFR.;8.592;8.870000000000001
27/06/17 12:00;DEZ1637;Eurdep;air;49.97;11.03;0;Germany;0;0;0;SCHEßLITZ;10.904;11
27/06/17 12:00;DEZ1638;Eurdep;air;50;11.2;0;Germany;0;0;0;STADELHOFEN;9.712;10
27/06/17 12:00;DEZ1640;Eurdep;air;49.85;11.62;0;Germany;0;0;0;CREUßEN;9.232;9
27/06/17 12:00;DEZ1646;Eurdep;air;49.77;11.41;0;Germany;0;0;0;POTTENSTEIN;9.576;10
27/06/17 12:00;DEZ1648;Eurdep;air;49.87;11.33;0;Germany;0;0;0;WAISCHENFELD OT NANKENDORF;9.086;9.59
27/06/17 12:00;DEZ1650;Eurdep;air;50.32;10.9;0;Germany;0;0;0;MEEDER;12.824000000000002;13
26/06/17 21:00;DEZ1651;Eurdep;air;50.33;11.1;0;Germany;0;0;0;NEUSTADT BEI COBURG;11;11
27/06/17 12:00;DEZ1656;Eurdep;air;49.78;11.19;0;Germany;0;0;0;EBERMANNSTADT;9.054;9.52
27/06/17 12:00;DEZ1657;Eurdep;air;49.65;11.24;0;Germany;0;0;0;GRÄFENBERG;10.852;11
27/06/17 12:00;DEZ1661;Eurdep;air;50.34;11.6;0;Germany;0;0;0;GEROLDSGRÜN;8.437000000000001;8.76
27/06/17 12:00;DEZ1675;Eurdep;air;50.4;11.38;0;Germany;0;0;0;TEUSCHNITZ;12.440000000000001;12
26/06/17 21:00;DEZ1683;Eurdep;air;50.07;11.09;0;Germany;0;0;0;BAD STAFFELSTEIN;8.809999999999999;8.809999999999999
27/06/17 11:00;DEZ1685;Eurdep;air;50;12.07;0;Germany;0;0;0;MARKTREDWITZ;12.459999999999999;12
27/06/17 12:00;DEZ1689;Eurdep;air;49.32;10.57;0;Germany;0;0;0;ANSBACH;11.452;12
27/06/17 12:00;DEZ1694;Eurdep;air;49.44;10.17;0;Germany;0;0;0;ADELSHOFEN;10.904;12
27/06/17 12:00;DEZ1698;Eurdep;air;49.07;10.32;0;Germany;0;0;0;DINKELSBÜHL;11.356;12
27/06/17 14:00;DEZ1699;Eurdep;air;49.2;10.31;0;Germany;0;0;0;FEUCHTWANGEN OT BANZENWEILER;13.556000000000001;14
27/06/17 12:00;DEZ1700;Eurdep;air;49.06;10.5;0;Germany;0;0;0;GEROLFINGEN;10.788;12
27/06/17 12:00;DEZ1701;Eurdep;air;49.34;10.79;0;Germany;0;0;0;HEILSBRONN;11.036;12
27/06/17 12:00;DEZ1709;Eurdep;air;49.62;10.83;0;Germany;0;0;0;WEISENDORF;12.088;12
26/06/17 21:00;DEZ1719;Eurdep;air;49.44;10.33;0;Germany;0;0;0;BURGBERNHEIM;12;12
27/06/17 12:00;DEZ1720;Eurdep;air;49.73;10.6;0;Germany;0;0;0;BURGHASLACH;11;12
27/06/17 12:00;DEZ1721;Eurdep;air;49.58;10.62;0;Germany;0;0;0;NEUSTADT AN DER AISCH;11.856;12
27/06/17 12:00;DEZ1723;Eurdep;air;49.67;10.46;0;Germany;0;0;0;SCHEINFELD;11.928;12
26/06/17 21:00;DEZ1724;Eurdep;air;49.6;10.44;0;Germany;0;0;0;SUGENHEIM;10;10
27/06/17 12:00;DEZ1728;Eurdep;air;49.13;11.11;0;Germany;0;0;0;HEIDECK;10.976;12
27/06/17 12:00;DEZ1734;Eurdep;air;49.02;10.74;0;Germany;0;0;0;HEIDENHEIM AM HAHNE;9.59;10
27/06/17 12:00;DEZ1736;Eurdep;air;49.01;11.13;0;Germany;0;0;0;RAITENBUCH;11.940000000000001;12
27/06/17 12:00;DEZ1740;Eurdep;air;50.04;10.21;0;Germany;0;0;0;SCHWEINFURT;12.22;12
27/06/17 14:00;DEZ1741;Eurdep;air;49.77;9.96;0;Germany;0;0;0;WÜRZBURG;9.321;9.83
26/06/17 21:00;DEZ1743;Eurdep;air;50;9.17;0;Germany;0;0;0;GOLDBACH;12;12
27/06/17 12:00;DEZ1755;Eurdep;air;50.2;9.96;0;Germany;0;0;0;OBERTHULBA;13.180000000000001;13
27/06/17 12:00;DEZ1760;Eurdep;air;50.36;10.46;0;Germany;0;0;0;HÖCHHEIM OT IRMELSHAUSEN;12.428;12
27/06/17 12:00;DEZ1766;Eurdep;air;50.36;10.23;0;Germany;0;0;0;WOLLBACH;10;10
27/06/17 12:00;DEZ1772;Eurdep;air;50.2;10.66;0;Germany;0;0;0;MAROLDSWEISACH;11.376000000000001;11
27/06/17 12:00;DEZ1773;Eurdep;air;49.89;10.55;0;Germany;0;0;0;RAUHENEBRACH OT UNTERSTEINBACH;11.968;12
27/06/17 12:00;DEZ1775;Eurdep;air;49.64;10.22;0;Germany;0;0;0;SEINSHEIM;10.728;11
27/06/17 12:00;DEZ1778;Eurdep;air;49.78;9.38;0;Germany;0;0;0;DORFPROZELTEN;9.865;10
26/06/17 21:00;DEZ1780;Eurdep;air;49.72;9.21;0;Germany;0;0;0;KLEINHEUBACH;8.42;8.42
27/06/17 12:00;DEZ1783;Eurdep;air;49.98;9.96;0;Germany;0;0;0;ARNSTEIN;10.097;10
27/06/17 12:00;DEZ1785;Eurdep;air;50.06;9.69;0;Germany;0;0;0;GEMÜNDEN AM MAIN;11.052;11
27/06/17 12:00;DEZ1788;Eurdep;air;49.85;9.63;0;Germany;0;0;0;MARKTHEIDENFELD;9.139;9.790000000000001
27/06/17 12:00;DEZ1789;Eurdep;air;49.95;9.67;0;Germany;0;0;0;STEINFELD;10.572;10
27/06/17 12:00;DEZ1793;Eurdep;air;49.99;10.31;0;Germany;0;0;0;GRETTSTADT;9.013;9.39
27/06/17 12:00;DEZ1794;Eurdep;air;49.92;10.23;0;Germany;0;0;0;KOLITZHEIM;10.58;11
27/06/17 12:00;DEZ1797;Eurdep;air;50.04;10;0;Germany;0;0;0;WASSERLOSEN / BURGHAUSEN;11.324;11
26/06/17 21:00;DEZ1799;Eurdep;air;49.61;9.91;0;Germany;0;0;0;BÜTTHARD OT HÖTTINGEN;11;11
27/06/17 12:00;DEZ1801;Eurdep;air;49.76;9.71;0;Germany;0;0;0;HELMSTADT;9.586;9.89
27/06/17 12:00;DEZ1804;Eurdep;air;49.85;10.04;0;Germany;0;0;0;KÜRNACH;10.751999999999999;11
27/06/17 12:00;DEZ1807;Eurdep;air;49.51;9.97;0;Germany;0;0;0;RÖTTINGEN;10.652;11
27/06/17 12:00;DEZ1808;Eurdep;air;49.88;9.84;0;Germany;0;0;0;THÜNGERSHEIM;9.059000000000001;9.51
27/06/17 14:00;DEZ1812;Eurdep;air;47.72;10.34;0;Germany;0;0;0;KEMPTEN;11.541;12
27/06/17 12:00;DEZ1824;Eurdep;air;48.17;10.6;0;Germany;0;0;0;MITTELNEUFNACH;11.468;13
27/06/17 12:00;DEZ1825;Eurdep;air;48.4;10.61;0;Germany;0;0;0;ZUSMARSHAUSEN;9.325;11
27/06/17 12:00;DEZ1827;Eurdep;air;48.49;10.44;0;Germany;0;0;0;BAUMGARTEN;10.047;11
27/06/17 12:00;DEZ1828;Eurdep;air;48.57;10.5;0;Germany;0;0;0;DILLINGEN A. D. DONAU;9.464;10
27/06/17 12:00;DEZ1833;Eurdep;air;48.46;10.26;0;Germany;0;0;0;GÜNZBURG;9.272;10
27/06/17 12:00;DEZ1834;Eurdep;air;48.37;10.3;0;Germany;0;0;0;ICHENHAUSEN;8.611;9.61
27/06/17 12:00;DEZ1835;Eurdep;air;48.38;10.44;0;Germany;0;0;0;JETTINGEN-SCHEPPACH;9.323;10
27/06/17 12:00;DEZ1838;Eurdep;air;48.27;10.47;0;Germany;0;0;0;THANNHAUSEN;8.094;9.370000000000001
27/06/17 12:00;DEZ1840;Eurdep;air;48.43;10.15;0;Germany;0;0;0;OBERFAHLHEIM;10;11
27/06/17 12:00;DEZ1841;Eurdep;air;48.34;10.04;0;Germany;0;0;0;GERLENHOFEN;9.675;10
27/06/17 12:00;DEZ1842;Eurdep;air;48.3;10.17;0;Germany;0;0;0;WEIßENHORN;9.77;10
24/06/17 22:00;DEZ1844;Eurdep;air;47.6;9.88;0;Germany;0;0;0;LINDENBERG IM ALLGÄU;0;0
27/06/17 12:00;DEZ1846;Eurdep;air;48.03;10.72;0;Germany;0;0;0;BUCHLOE;10.548;12
27/06/17 12:00;DEZ1847;Eurdep;air;47.7;10.52;0;Germany;0;0;0;GÖRISRIED;10.096;11
27/06/17 12:00;DEZ1851;Eurdep;air;47.85;10.41;0;Germany;0;0;0;OBERGÜNZBURG;10.459999999999999;12
27/06/17 12:00;DEZ1854;Eurdep;air;48.03;10.34;0;Germany;0;0;0;ERKHEIM;9.655;11
27/06/17 12:00;DEZ1858;Eurdep;air;47.99;10.21;0;Germany;0;0;0;MEMMINGERBERG;11.232;12
27/06/17 12:00;DEZ1859;Eurdep;air;48.04;10.49;0;Germany;0;0;0;MINDELHEIM;10.209;11
27/06/17 12:00;DEZ1864;Eurdep;air;48.96;10.61;0;Germany;0;0;0;HAINSFARTH;10.708;11
27/06/17 12:00;DEZ1865;Eurdep;air;48.78;10.7;0;Germany;0;0;0;HARBURG;7.953;9.32
27/06/17 12:00;DEZ1866;Eurdep;air;48.84;10.85;0;Germany;0;0;0;MONHEIM;10.764;12
27/06/17 12:00;DEZ1867;Eurdep;air;48.85;10.51;0;Germany;0;0;0;NÖRDLINGEN;12.024;12
27/06/17 12:00;DEZ1869;Eurdep;air;48.87;10.73;0;Germany;0;0;0;WEMDING;9.748000000000001;10
27/06/17 12:00;DEZ1870;Eurdep;air;47.49;10.39;0;Germany;0;0;0;BAD HINDELANG OT BAD OBERDORF;9.548;9.99
27/06/17 14:00;DEZ1873;Eurdep;air;47.4;10.28;0;Germany;0;0;0;OBERSTDORF;9.527;10.587
27/06/17 12:00;DEZ1874;Eurdep;air;47.64;10.13;0;Germany;0;0;0;WEITNAU;10.052;11
27/06/17 12:00;DEZ1877;Eurdep;air;49.23;6.92;0;Germany;0;0;0;SAARBRÜCKEN-GERSWEILER;11.528;13
27/06/17 11:00;DEZ1883;Eurdep;air;49.42;6.76;0;Germany;0;0;0;BECKINGEN-DÜPPENWEILER;11.875;13
27/06/17 12:00;DEZ1884;Eurdep;air;49.55;6.73;0;Germany;0;0;0;LOSHEIM-SCHEIDEN;10.334999999999999;12
27/06/17 12:00;DEZ1885;Eurdep;air;49.43;6.58;0;Germany;0;0;0;MERZIG-SILWINGEN;11.684000000000001;13
27/06/17 12:00;DEZ1886;Eurdep;air;49.49;6.62;0;Germany;0;0;0;METTLACH;9.721;11
27/06/17 10:00;DEZ1887;Eurdep;air;49.5;6.5;0;Germany;0;0;0;METTLACH-ORSCHOLZ;10.713;12
27/06/17 13:00;DEZ1888;Eurdep;air;49.5;6.44;0;Germany;0;0;0;PERL-BORG;9.024;10
27/06/17 12:00;DEZ1892;Eurdep;air;49.4;7.17;0;Germany;0;0;0;OTTWEILER;11.508;12
27/06/17 12:00;DEZ1894;Eurdep;air;49.39;6.9;0;Germany;0;0;0;LEBACH-EIDENBORN;11.524;12
27/06/17 14:00;DEZ1895;Eurdep;air;49.36;6.62;0;Germany;0;0;0;REHLINGEN-SIERSBURG-HEMMERSDORF;11.123999999999999;12
27/06/17 14:00;DEZ1897;Eurdep;air;49.26;6.69;0;Germany;0;0;0;ÜBERHERRN-BERUS;10.097;11
27/06/17 12:00;DEZ1898;Eurdep;air;49.32;6.66;0;Germany;0;0;0;WALLERFANGEN-KERLINGEN;10.936;12
27/06/17 12:00;DEZ1899;Eurdep;air;49.28;6.79;0;Germany;0;0;0;BOUS;10.895999999999999;11
27/06/17 12:00;DEZ1900;Eurdep;air;49.24;7.27;0;Germany;0;0;0;BLIESKASTEL-WEBENHEIM;11.82;13
27/06/17 12:00;DEZ1901;Eurdep;air;49.15;7.22;0;Germany;0;0;0;GERSHEIM;12.108;12
27/06/17 12:00;DEZ1903;Eurdep;air;49.31;7.34;0;Germany;0;0;0;HOMBURG/SAAR;9.891;10
27/06/17 12:00;DEZ1906;Eurdep;air;49.55;7.25;0;Germany;0;0;0;FREISEN;13.24;13
27/06/17 12:00;DEZ1913;Eurdep;air;47.57;10.96;0;Germany;0;0;0;LINDERHOF;8.863;10
27/06/17 12:00;DEZ1914;Eurdep;air;47.46;11.18;0;Germany;0;0;0;KLAIS OT ELMAU;12.877;13
27/06/17 14:00;DEZ1915;Eurdep;air;47.64;11.75;0;Germany;0;0;0;KREUTH;9.782;10
27/06/17 14:00;DEZ1917;Eurdep;air;48.24;11.55;0;Germany;0;0;0;OBERSCHLEIßHEIM;8.362;10
27/06/17 14:00;DEZ1918;Eurdep;air;48.08;11.37;0;Germany;0;0;0;GAUTING;8.95;10
27/06/17 12:00;DEZ1919;Eurdep;air;48.83;13.78;0;Germany;0;0;0;HAIDMÜHLE;18.580000000000002;19
27/06/17 12:00;DEZ1921;Eurdep;air;48.93;13.46;0;Germany;0;0;0;WALDHÄUSER;13.624;14
27/06/17 12:00;DEZ1930;Eurdep;air;48.47;10.49;0;Germany;0;0;0;WINTERBACH;9.645999999999999;11
27/06/17 11:00;DEZ1934;Eurdep;air;47.56;10.74;0;Germany;0;0;0;HOHENSCHWANGAU;9.28;10
27/06/17 12:00;DEZ1939;Eurdep;air;52.45;10.94;0;Germany;0;0;0;GRAFHORST;7.9879999999999995;8.209999999999999
27/06/17 12:00;DEZ1940;Eurdep;air;52.1;10.87;0;Germany;0;0;0;INGELEBEN;9.120000000000001;9.39
27/06/17 12:00;DEZ1945;Eurdep;air;53.44;9.91;0;Germany;0;0;0;VAHRENDORF;8.593;8.879999999999999
27/06/17 12:00;DEZ1946;Eurdep;air;53.38;10.11;0;Germany;0;0;0;STELLE/HARBURG;6.816;7.040000000000001
27/06/17 12:00;DEZ1947;Eurdep;air;53.03;11.3;0;Germany;0;0;0;GEDELITZ;6.205;6
27/06/17 14:00;DEZ1949;Eurdep;air;51.83;6.54;0;Germany;0;0;0;BOCHOLT-LIEDERN;7.008;7.25
27/06/17 12:00;DEZ1950;Eurdep;air;51.82;6.93;0;Germany;0;0;0;HEIDEN;6.864;7
27/06/17 12:00;DEZ1953;Eurdep;air;52.02;8.59;0;Germany;0;0;0;BIELEFELD;7.226000000000001;7.459999999999999
27/06/17 12:00;DEZ1954;Eurdep;air;51.96;8.37;0;Germany;0;0;0;GÜTERSLOH-HOLLEN;5.994;6.25
27/06/17 12:00;DEZ1955;Eurdep;air;51.63;9.29;0;Germany;0;0;0;BEVERUNGEN-DAHLHAUSEN;10.183;10
27/06/17 12:00;DEZ1956;Eurdep;air;51.7;9.28;0;Germany;0;0;0;HÖXTER-BRUCHHAUSEN;9.777;10
27/06/17 12:00;DEZ1961;Eurdep;air;51.49;6.96;0;Germany;0;0;0;ESSEN-BERGEBORBECK;9.189;9.64
27/06/17 12:00;DEZ1964;Eurdep;air;51.27;6.37;0;Germany;0;0;0;VIERSEN;8.701;9.059999999999999
27/06/17 12:00;DEZ1967;Eurdep;air;50.91;6.41;0;Germany;0;0;0;JÜLICH;8.872;9.47
27/06/17 12:00;DEZ1968;Eurdep;air;50.98;6.68;0;Germany;0;0;0;BERGHEIM-NIEDERAUßEM;9.843;10
27/06/17 12:00;DEZ1971;Eurdep;air;50.59;6.66;0;Germany;0;0;0;MECHERNICH;10.162;10
27/06/17 14:00;DEZ1975;Eurdep;air;49.21;7.11;0;Germany;0;0;0;SAARBRÜCKEN-ENSHEIM;10.904;11
26/06/17 21:00;DEZ1977;Eurdep;air;49.2;12.79;0;Germany;0;0;0;CHAMERAU OT LEDERDORN;15;15
27/06/17 12:00;DEZ1987;Eurdep;air;48.02;11.48;0;Germany;0;0;0;BAIERBRUNN;10.855;12
27/06/17 12:00;DEZ1990;Eurdep;air;47.89;12.41;0;Germany;0;0;0;GSTADT AM CHIEMSEE;10.422;12
27/06/17 12:00;DEZ1994;Eurdep;air;48.91;13.09;0;Germany;0;0;0;BISCHOFSMAIS;15.525;16
27/06/17 14:00;DEZ1997;Eurdep;air;54.1;13.41;0;Germany;0;0;0;GREIFSWALD;7.6530000000000005;7.970000000000001
27/06/17 14:00;DEZ1999;Eurdep;air;53.64;11.39;0;Germany;0;0;0;SCHWERIN;8.065000000000001;8
27/06/17 12:00;DEZ2000;Eurdep;air;53.9;11.42;0;Germany;0;0;0;WISMAR;8.955;9.25
27/06/17 12:00;DEZ2002;Eurdep;air;53.9;13.05;0;Germany;0;0;0;DEMMIN;8.106;8.43
27/06/17 14:00;DEZ2010;Eurdep;air;54.44;12.73;0;Germany;0;0;0;ZINGST;6.556;6.85
27/06/17 14:00;DEZ2013;Eurdep;air;54.68;13.43;0;Germany;0;0;0;PUTGARTEN OT ARKONA;7.834999999999999;7.970000000000001
27/06/17 14:00;DEZ2019;Eurdep;air;53.77;8.64;0;Germany;0;0;0;NORDHOLZ;6.886;7
27/06/17 12:00;DEZ2020;Eurdep;air;53.41;8.79;0;Germany;0;0;0;STUBBEN;6.917;7.159999999999999
26/06/17 21:00;DEZ2022;Eurdep;air;53.55;7.94;0;Germany;0;0;0;SCHORTENS-HEIDMÜHLE;6.13;6.13
27/06/17 12:00;DEZ2023;Eurdep;air;53.54;8.47;0;Germany;0;0;0;NORDENHAM-SCHWEEWARDEN;8.806000000000001;9.23
27/06/17 12:00;DEZ2028;Eurdep;air;53.19;8.58;0;Germany;0;0;0;BREMEN-BLUMENTHAL;6.422;6.859999999999999
27/06/17 14:00;DEZ2030;Eurdep;air;52.29;10.45;0;Germany;0;0;0;BRAUNSCHWEIG / WATENBÜTTEL;7.540000000000001;7.65
27/06/17 12:00;DEZ2032;Eurdep;air;51.83;9.87;0;Germany;0;0;0;EINBECK;11.264;11
27/06/17 12:00;DEZ2033;Eurdep;air;52.23;9.67;0;Germany;0;0;0;BENNIGSEN;10.068000000000001;10
27/06/17 12:00;DEZ2036;Eurdep;air;52.24;9.86;0;Germany;0;0;0;SARSTEDT;9.796;10
27/06/17 12:00;DEZ2039;Eurdep;air;52.6;10.04;0;Germany;0;0;0;CELLE-WIETZENBRUCH;6.502;6.75
27/06/17 12:00;DEZ2043;Eurdep;air;51.69;13.23;0;Germany;0;0;0;HERZBERG/ELSTER;7.7829999999999995;8.059999999999999
27/06/17 12:00;DEZ2071;Eurdep;air;51.37;6.44;0;Germany;0;0;0;KEMPEN;8.776;9.11
27/06/17 12:00;DEZ2076;Eurdep;air;50.94;7.05;0;Germany;0;0;0;KÖLN-MERHEIM;9.331999999999999;9
27/06/17 12:00;DEZ2079;Eurdep;air;50.72;6.4;0;Germany;0;0;0;HÜRTGENWALD-KLEINHAU;10.178;10
27/06/17 12:00;DEZ2081;Eurdep;air;50.97;6.58;0;Germany;0;0;0;BERGHEIM-GLESCH;10.956;11
27/06/17 12:00;DEZ2082;Eurdep;air;50.89;6.87;0;Germany;0;0;0;HÜRTH;9.99;10
27/06/17 12:00;DEZ2084;Eurdep;air;50.67;6.76;0;Germany;0;0;0;EUSKIRCHEN;9.437999999999999;9
27/06/17 12:00;DEZ2086;Eurdep;air;49.55;8.59;0;Germany;0;0;0;VIERNHEIM;8.822;9
27/06/17 12:00;DEZ2088;Eurdep;air;50.6;8.84;0;Germany;0;0;0;REISKIRCHEN;10.495999999999999;10
27/06/17 12:00;DEZ2089;Eurdep;air;50.82;8.53;0;Germany;0;0;0;DAUTPHETAL;8.872;9.24
27/06/17 12:00;DEZ2096;Eurdep;air;50.86;9.48;0;Germany;0;0;0;OBERAULA;11.168000000000001;11
27/06/17 00:00;DEZ2098;Eurdep;air;51.11;9.12;0;Germany;0;0;0;BAD WILDUNGEN;11.815000000000001;12
26/06/17 21:00;DEZ2102;Eurdep;air;51.32;13.29;0;Germany;0;0;0;RIESA;9.57;9.57
27/06/17 14:00;DEZ2103;Eurdep;air;50.88;12.13;0;Germany;0;0;0;GERA OT LEUMNITZ;10.007;10
27/06/17 11:00;DEZ2108;Eurdep;air;49.6;7.06;0;Germany;0;0;0;NOHFELDEN-SÖTERN;12.579;13
27/06/17 14:00;DEZ2117;Eurdep;air;53.03;13.99;0;Germany;0;0;0;KERKOW;8.309999999999999;8.51
27/06/17 12:00;DEZ2118;Eurdep;air;52.87;14.15;0;Germany;0;0;0;HOHENSAATEN;7.156000000000001;7.63
27/06/17 14:00;DEZ2120;Eurdep;air;52.21;14.12;0;Germany;0;0;0;LINDENBERG;7.757;7.99
27/06/17 12:00;DEZ2123;Eurdep;air;52.28;12.61;0;Germany;0;0;0;GOLZOW;6.983;7.2700000000000005
27/06/17 12:00;DEZ2124;Eurdep;air;52.92;13.73;0;Germany;0;0;0;ALTENHOF;7.025;7.4799999999999995
27/06/17 14:00;DEZ2126;Eurdep;air;53.14;13.03;0;Germany;0;0;0;NEUGLOBSOW;6.561;6
27/06/17 12:00;DEZ2134;Eurdep;air;53.16;12.2;0;Germany;0;0;0;PRITZWALK;7.7170000000000005;7.93
27/06/17 12:00;DEZ2135;Eurdep;air;52.53;14.37;0;Germany;0;0;0;SEELOW;7.579000000000001;7.85
27/06/17 12:00;DEZ2137;Eurdep;air;51.51;13.98;0;Germany;0;0;0;SENFTENBERG;7.643000000000001;7.859999999999999
27/06/17 12:00;DEZ2148;Eurdep;air;51.27;12.67;0;Germany;0;0;0;BEIERSDORF;11.008;11
27/06/17 12:00;DEZ2150;Eurdep;air;51.27;13.89;0;Germany;0;0;0;KÖNIGSBRÜCK;8.123000000000001;8.41
27/06/17 12:00;DEZ2153;Eurdep;air;51.29;14.85;0;Germany;0;0;0;NIESKY;8.495999999999999;8.84
27/06/17 12:00;DEZ2157;Eurdep;air;51.49;14.63;0;Germany;0;0;0;WEIßWASSER;6.856;7.109999999999999
27/06/17 12:00;DEZ2161;Eurdep;air;50.98;12.52;0;Germany;0;0;0;NOBITZ;11.328;11
27/06/17 12:00;DEZ2163;Eurdep;air;50.8;10.25;0;Germany;0;0;0;BAD SALZUNGEN;12.368;12
27/06/17 12:00;DEZ2165;Eurdep;air;50.96;10.71;0;Germany;0;0;0;GOTHA;13.116;13
27/06/17 12:00;DEZ2166;Eurdep;air;51.2;10.44;0;Germany;0;0;0;MÜHLHAUSEN;11.892;12
27/06/17 12:00;DEZ2167;Eurdep;air;51.5;10.81;0;Germany;0;0;0;NORDHAUSEN;12.464;12
27/06/17 12:00;DEZ2174;Eurdep;air;53.29;9.5;0;Germany;0;0;0;SITTENSEN;6.948;7.05
27/06/17 12:00;DEZ2175;Eurdep;air;52.96;7.27;0;Germany;0;0;0;DERSUM;8.068999999999999;8.709999999999999
27/06/17 14:00;DEZ2176;Eurdep;air;52.52;7.31;0;Germany;0;0;0;LINGEN / DWD;5.665;5.82
27/06/17 12:00;DEZ2178;Eurdep;air;53.28;10.73;0;Germany;0;0;0;BLECKEDE;6.369;6
27/06/17 12:00;DEZ2182;Eurdep;air;52.17;9;0;Germany;0;0;0;KALLETAL-STEMMEN;10.32;10
27/06/17 12:00;DEZ2183;Eurdep;air;51.47;8.71;0;Germany;0;0;0;WÜNNENBERG-BLEIWÄSCHE;9.424;9.89
27/06/17 14:00;DEZ2184;Eurdep;air;51.18;8.49;0;Germany;0;0;0;WINTERBERG-KAHLER ASTEN;10.437000000000001;10
27/06/17 12:00;DEZ2186;Eurdep;air;50.71;8.08;0;Germany;0;0;0;BURBACH;8.879999999999999;9.39
27/06/17 12:00;DEZ2188;Eurdep;air;50.84;8.02;0;Germany;0;0;0;SIEGEN;11.964;12
27/06/17 12:00;DEZ2190;Eurdep;air;50.55;6.25;0;Germany;0;0;0;MONSCHAU-HÖFEN;11.152;11
27/06/17 12:00;DEZ2192;Eurdep;air;51.08;7.53;0;Germany;0;0;0;MARIENHEIDE;10.452;10
27/06/17 12:00;DEZ2196;Eurdep;air;49.21;8.18;0;Germany;0;0;0;LANDAU/PF.-MÖRLHEIM;9.72;9.99
27/06/17 12:00;DEZ2197;Eurdep;air;49.46;8.44;0;Germany;0;0;0;LUDWIGSHAFEN/RHEIN;9.626999999999999;9.82
27/06/17 12:00;DEZ2198;Eurdep;air;49.36;8.14;0;Germany;0;0;0;NEUSTADT/WEINSTR. OT HAARDT.;8.818000000000001;9.17
27/06/17 12:00;DEZ2199;Eurdep;air;49.31;8.45;0;Germany;0;0;0;SPEYER;8.732;9.08
27/06/17 12:00;DEZ2200;Eurdep;air;48.98;8.14;0;Germany;0;0;0;SCHEIBENHARDT;9.428;9
27/06/17 12:00;DEZ2201;Eurdep;air;49.13;8.15;0;Germany;0;0;0;STEINWEILER;8.958;9.34
27/06/17 12:00;DEZ2203;Eurdep;air;48.9;9.13;0;Germany;0;0;0;ASPERG;11.123999999999999;12
27/06/17 12:00;DEZ2204;Eurdep;air;49.04;9.12;0;Germany;0;0;0;BÖNNIGHEIM ST HOHENSTEIN;11.864;13
26/06/17 21:00;DEZ2205;Eurdep;air;48.94;9.29;0;Germany;0;0;0;ERDMANNHAUSEN;10;10
27/06/17 12:00;DEZ2207;Eurdep;air;49;9.11;0;Germany;0;0;0;LÖCHGAU;11.516;13
27/06/17 12:00;DEZ2210;Eurdep;air;48.83;9.14;0;Germany;0;0;0;KORNTAL-MÜNCHINGEN;12.331999999999999;14
27/06/17 12:00;DEZ2211;Eurdep;air;48.95;9.45;0;Germany;0;0;0;BACKNANG;10.448;12
27/06/17 12:00;DEZ2213;Eurdep;air;49.24;9.11;0;Germany;0;0;0;BAD RAPPENAU;11;12
27/06/17 12:00;DEZ2214;Eurdep;air;49.16;8.99;0;Germany;0;0;0;GEMMINGEN;10.984;12
27/06/17 12:00;DEZ2215;Eurdep;air;49.06;9.29;0;Germany;0;0;0;ILSFELD OT AUENSTEIN;11.928;13
27/06/17 12:00;DEZ2216;Eurdep;air;49.1;9.39;0;Germany;0;0;0;LÖWENSTEIN;11.692;12
27/06/17 12:00;DEZ2220;Eurdep;air;48.6;10.25;0;Germany;0;0;0;HERMARINGEN;10.812000000000001;11
27/06/17 12:00;DEZ2223;Eurdep;air;48.95;8.39;0;Germany;0;0;0;ETTLINGEN;10.831999999999999;11
27/06/17 12:00;DEZ2224;Eurdep;air;49.24;8.46;0;Germany;0;0;0;PHILIPPSBURG;8.916;9.23
27/06/17 12:00;DEZ2229;Eurdep;air;49.23;8.51;0;Germany;0;0;0;WAGHÄUSEL OT WIESENTAL;9.314;9.75
27/06/17 12:00;DEZ2230;Eurdep;air;49.26;8.5;0;Germany;0;0;0;OBERHAUSEN-RHEINHAUSEN;9.913;10
27/06/17 12:00;DEZ2232;Eurdep;air;49.16;8.42;0;Germany;0;0;0;DETTENHEIM OT LIEDOLSHEIM;8.911;9.15
27/06/17 12:00;DEZ2233;Eurdep;air;48.95;8.23;0;Germany;0;0;0;AU AM RHEIN;8.959999999999999;9.33
27/06/17 12:00;DEZ2234;Eurdep;air;48.86;8.2;0;Germany;0;0;0;RASTATT;9.459999999999999;9.959999999999999
27/06/17 12:00;DEZ2235;Eurdep;air;48.9;8.2;0;Germany;0;0;0;STEINMAUERN;9.440000000000001;10
27/06/17 12:00;DEZ2238;Eurdep;air;49.43;8.54;0;Germany;0;0;0;MANNHEIM ST RHEINAU;10.075;10
27/06/17 12:00;DEZ2239;Eurdep;air;49.37;9.02;0;Germany;0;0;0;AGLASTERHAUSEN OT BREIT.;11.84;13
27/06/17 12:00;DEZ2240;Eurdep;air;49.45;9.18;0;Germany;0;0;0;LIMBACH OT KRUMBACH;12.984;14
27/06/17 12:00;DEZ2241;Eurdep;air;49.35;9.13;0;Germany;0;0;0;MOSBACH;12.016;12
27/06/17 12:00;DEZ2242;Eurdep;air;49.36;9.11;0;Germany;0;0;0;MOSBACH ST DIEDESHEIM;9.453;10
27/06/17 12:00;DEZ2243;Eurdep;air;49.39;9.09;0;Germany;0;0;0;MOSBACH ST REICHENBUCH;11.968;13
27/06/17 00:00;DEZ2244;Eurdep;air;49.54;9.16;0;Germany;0;0;0;MUDAU OT SCHLOSSAU;11.738;11
27/06/17 12:00;DEZ2246;Eurdep;air;49.4;9.27;0;Germany;0;0;0;UNTER-SCHEFFLENZ;11.395999999999999;11
27/06/17 12:00;DEZ2248;Eurdep;air;49.24;8.68;0;Germany;0;0;0;MALSCH;11.459999999999999;12
27/06/17 12:00;DEZ2249;Eurdep;air;49.34;8.8;0;Germany;0;0;0;MAUER;11.072;11
27/06/17 12:00;DEZ2250;Eurdep;air;49.46;8.81;0;Germany;0;0;0;SCHÖNAU ST ALTNEUDORF;10.668000000000001;11
26/06/17 21:00;DEZ2252;Eurdep;air;49.53;8.64;0;Germany;0;0;0;WEINHEIM;10;10
27/06/17 12:00;DEZ2253;Eurdep;air;49.33;8.98;0;Germany;0;0;0;HELMSTADT-BARGEN OT HELM.;11.588;12
27/06/17 12:00;DEZ2254;Eurdep;air;49.31;9.02;0;Germany;0;0;0;HELMSTADT-BARGEN OT BARG.;12.36;13
27/06/17 12:00;DEZ2255;Eurdep;air;49.05;8.85;0;Germany;0;0;0;STERNENFELS;12.696;13
27/06/17 12:00;DEZ2257;Eurdep;air;48.02;7.73;0;Germany;0;0;0;FREIBURG ST WALTERSHOFEN;12.251999999999999;13
27/06/17 12:00;DEZ2259;Eurdep;air;47.98;7.79;0;Germany;0;0;0;FREIBURG ST ST. GEORGEN;12.132;13
27/06/17 12:00;DEZ2261;Eurdep;air;48.03;7.6;0;Germany;0;0;0;BREISACH;9.743;10.18
27/06/17 12:00;DEZ2264;Eurdep;air;47.86;7.58;0;Germany;0;0;0;NEUENBURG ST GRIßHEIM;9.714;10.24
27/06/17 12:00;DEZ2267;Eurdep;air;47.59;7.86;0;Germany;0;0;0;SCHWÖRSTADT;9.475;10
27/06/17 12:00;DEZ2268;Eurdep;air;47.65;8.13;0;Germany;0;0;0;ALBBRUCK OT UNTERALPFEN;13.580000000000002;13
27/06/17 12:00;DEZ2269;Eurdep;air;47.64;8.08;0;Germany;0;0;0;GÖRWIHL OT GÖRWIHL;14.216;14
27/06/17 12:00;DEZ2270;Eurdep;air;47.68;8.01;0;Germany;0;0;0;HERRISCHRIED OT GROßHERRISCHWAND;20.66;21
27/06/17 12:00;DEZ2272;Eurdep;air;47.63;8.31;0;Germany;0;0;0;LAUCHRINGEN OT UNTERLAU.;12.076;12.25
27/06/17 00:00;DEZ2273;Eurdep;air;47.56;7.97;0;Germany;0;0;0;BAD SÄCKINGEN;8.65;8.77
27/06/17 12:00;DEZ2274;Eurdep;air;47.77;8.11;0;Germany;0;0;0;ST. BLASIEN;16.568;16
27/06/17 12:00;DEZ2277;Eurdep;air;47.72;8.32;0;Germany;0;0;0;ÜHLINGEN-BIRKENDORF;11.504000000000001;11
27/06/17 14:00;DEZ2288;Eurdep;air;54.18;12.08;0;Germany;0;0;0;ROSTOCK-WARNEMÜNDE;7.926;8.23
27/06/17 12:00;DEZ2291;Eurdep;air;53.95;13.42;0;Germany;0;0;0;GÜTZKOW;7.572;7.83
27/06/17 12:00;DEZ2293;Eurdep;air;53.32;11.11;0;Germany;0;0;0;LÜBTHEEN;7.265000000000001;7.42
27/06/17 12:00;DEZ2298;Eurdep;air;54.37;13.67;0;Germany;0;0;0;SELLIN;7.5280000000000005;7.840000000000001
27/06/17 12:00;DEZ2308;Eurdep;air;53.43;10.75;0;Germany;0;0;0;GRESSE;6.874;7.13
27/06/17 12:00;DEZ2309;Eurdep;air;53.38;11.24;0;Germany;0;0;0;KUHSTORF;6.194;6.609999999999999
21/06/17 22:00;DEZ2312;Eurdep;air;53.13;11.36;0;Germany;0;0;0;POLZ;0;0
27/06/17 12:00;DEZ2313;Eurdep;air;53.23;11.2;0;Germany;0;0;0;TEWSWOOS;6.729000000000001;6.970000000000001
27/06/17 11:00;DEZ2314;Eurdep;air;53.5;11.09;0;Germany;0;0;0;WITTENBURG;7.2700000000000005;7.390000000000001
27/06/17 12:00;DEZ2315;Eurdep;air;53.46;13.29;0;Germany;0;0;0;GODENSWEGE;8.079;8.28
27/06/17 12:00;DEZ2317;Eurdep;air;53.32;12.36;0;Germany;0;0;0;JAEBETZ;7.459999999999999;7.67
27/06/17 12:00;DEZ2320;Eurdep;air;54.03;12.88;0;Germany;0;0;0;GRAMMENDORF;8.322;8.690000000000001
27/06/17 12:00;DEZ2321;Eurdep;air;54.4;13.01;0;Germany;0;0;0;KLAUSDORF;8.155;8.36
27/06/17 12:00;DEZ2322;Eurdep;air;53.77;11.46;0;Germany;0;0;0;BAD KLEINEN;9.974;10
27/06/17 12:00;DEZ2327;Eurdep;air;53.95;13.85;0;Germany;0;0;0;LASSAN;7.632;8
27/06/17 12:00;DEZ2332;Eurdep;air;53.87;14.17;0;Germany;0;0;0;ZIRCHOW;7.134;7.42
27/06/17 12:00;DEZ2333;Eurdep;air;53.62;12.18;0;Germany;0;0;0;GOLDBERG;7.817;8.190000000000001
27/06/17 12:00;DEZ2334;Eurdep;air;53.55;11.92;0;Germany;0;0;0;LENSCHOW;8.204;8.47
27/06/17 12:00;DEZ2336;Eurdep;air;53.67;11.65;0;Germany;0;0;0;WENDORF;7.311;7.5200000000000005
27/06/17 14:00;DEZ2337;Eurdep;air;54.32;13.53;0;Germany;0;0;0;INSEL VILM;7.377;7.67
27/06/17 12:00;DEZ2338;Eurdep;air;54.54;13.55;0;Germany;0;0;0;SAGARD OT MARLOW;8.933;9.11
27/06/17 14:00;DEZ2349;Eurdep;air;51.78;14.32;0;Germany;0;0;0;COTTBUS;6.9959999999999996;7.15
27/06/17 12:00;DEZ2350;Eurdep;air;52.16;14.66;0;Germany;0;0;0;EISENHÜTTENSTADT;6.5120000000000005;6.88
27/06/17 12:00;DEZ2351;Eurdep;air;52.37;14.48;0;Germany;0;0;0;FRANKFURT/ODER;6.745;7.05
12/06/17 22:00;DEZ2353;Eurdep;air;53.07;14.2;0;Germany;0;0;0;SCHWEDT;0;0
26/06/17 21:00;DEZ2354;Eurdep;air;53.21;14.38;0;Germany;0;0;0;GARTZ/ODER;8.209999999999999;8.209999999999999
26/06/17 21:00;DEZ2360;Eurdep;air;51.75;14.63;0;Germany;0;0;0;FORST;8.93;8.93
27/06/17 12:00;DEZ2364;Eurdep;air;52;13.07;0;Germany;0;0;0;JÜTERBOG;8.107;8.34
27/06/17 14:00;DEZ2367;Eurdep;air;52.94;12.41;0;Germany;0;0;0;KYRITZ;7.481;7.87
27/06/17 12:00;DEZ2368;Eurdep;air;51.94;13.91;0;Germany;0;0;0;LÜBBEN;6.096;6.2700000000000005
27/06/17 12:00;DEZ2371;Eurdep;air;52.9;12.81;0;Germany;0;0;0;NEURUPPIN;7.3629999999999995;7.609999999999999
27/06/17 12:00;DEZ2372;Eurdep;air;52.64;13.25;0;Germany;0;0;0;STOLPE;7.154999999999999;7.359999999999999
27/06/17 12:00;DEZ2373;Eurdep;air;53.07;11.85;0;Germany;0;0;0;PERLEBERG;7.781999999999999;8.08
27/06/17 12:00;DEZ2374;Eurdep;air;53.31;13.87;0;Germany;0;0;0;PRENZLAU;7.794;8.01
27/06/17 14:00;DEZ2375;Eurdep;air;52.55;14.55;0;Germany;0;0;0;MANSCHNOW;7.494;7.75
27/06/17 12:00;DEZ2377;Eurdep;air;52.6;13.58;0;Germany;0;0;0;AHRENSFELDE;8.681000000000001;8
27/06/17 12:00;DEZ2379;Eurdep;air;52.79;13.49;0;Germany;0;0;0;KLOSTERFELDE;8.312000000000001;8.459999999999999
27/06/17 12:00;DEZ2380;Eurdep;air;52.92;14.11;0;Germany;0;0;0;LUNOW;7.845000000000001;8.17
27/06/17 12:00;DEZ2381;Eurdep;air;52.77;13.7;0;Germany;0;0;0;MELCHOW;6.920999999999999;7.13
27/06/17 12:00;DEZ2382;Eurdep;air;52.85;13.94;0;Germany;0;0;0;NIEDERFINOW;7.4079999999999995;7.56
27/06/17 12:00;DEZ2383;Eurdep;air;51.92;13.58;0;Germany;0;0;0;DRAHNSDORF;7.053;7.25
27/06/17 12:00;DEZ2384;Eurdep;air;51.98;14.29;0;Germany;0;0;0;LIEBEROSE;5.898;6.15
27/06/17 12:00;DEZ2385;Eurdep;air;51.85;13.7;0;Germany;0;0;0;LUCKAU;7.276000000000001;7.42
27/06/17 14:00;DEZ2388;Eurdep;air;51.65;13.57;0;Germany;0;0;0;DOBERLUG-KIRCHHAIN;6.647;6.87
27/06/17 12:00;DEZ2391;Eurdep;air;52.59;12.63;0;Germany;0;0;0;BUSCHOW;6.029;6.32
26/06/17 21:00;DEZ2396;Eurdep;air;53.14;13.24;0;Germany;0;0;0;BREDEREICHE;6.95;6.95
26/06/17 21:00;DEZ2397;Eurdep;air;52.9;13.16;0;Germany;0;0;0;LÖWENBERG;7.83;7.83
26/06/17 21:00;DEZ2399;Eurdep;air;51.37;13.76;0;Germany;0;0;0;ORTRAND;7.35;7.35
27/06/17 12:00;DEZ2401;Eurdep;air;52.35;14.28;0;Germany;0;0;0;BRIESEN;6.7299999999999995;6.99
27/06/17 12:00;DEZ2402;Eurdep;air;52.09;14.64;0;Germany;0;0;0;NEUZELLE;7.144;7.359999999999999
27/06/17 12:00;DEZ2403;Eurdep;air;52.24;13.95;0;Germany;0;0;0;STORKOW;6.702;6.909999999999999
27/06/17 14:00;DEZ2407;Eurdep;air;52.25;12.95;0;Germany;0;0;0;BEELITZ;6.639;6
26/06/17 21:00;DEZ2408;Eurdep;air;52.21;12.8;0;Germany;0;0;0;BRÜCK;6.43;6.43
27/06/17 12:00;DEZ2410;Eurdep;air;52.02;12.53;0;Germany;0;0;0;KLEPZIG;7.231;7.58
27/06/17 14:00;DEZ2411;Eurdep;air;52.12;12.46;0;Germany;0;0;0;WIESENBURG;7.5040000000000004;8.01
27/06/17 12:00;DEZ2412;Eurdep;air;52.25;12.26;0;Germany;0;0;0;ZIESAR;7.359;7.5200000000000005
27/06/17 12:00;DEZ2414;Eurdep;air;53.25;12.04;0;Germany;0;0;0;PUTLITZ;7.729000000000001;8
27/06/17 12:00;DEZ2416;Eurdep;air;51.65;14.23;0;Germany;0;0;0;DREBKAU;7.632;8.01
27/06/17 12:00;DEZ2417;Eurdep;air;51.67;14.75;0;Germany;0;0;0;KLEIN BADEMEUSEL;9.498999999999999;9.809999999999999
27/06/17 12:00;DEZ2423;Eurdep;air;52.21;13.16;0;Germany;0;0;0;SCHÖNHAGEN;6.976000000000001;7.17
26/06/17 21:00;DEZ2424;Eurdep;air;51.88;13.25;0;Germany;0;0;0;WIEPERSDORF;7.67;7.67
27/06/17 12:00;DEZ2426;Eurdep;air;53.27;13.62;0;Germany;0;0;0;BOITZENBURG;8.012;8.28
27/06/17 12:00;DEZ2428;Eurdep;air;53.24;13.98;0;Germany;0;0;0;HOHENGÜSTOW;8.285;8.48
27/06/17 12:00;DEZ2429;Eurdep;air;53.22;13.32;0;Germany;0;0;0;LYCHEN;7.572;7.75
27/06/17 12:00;DEZ2431;Eurdep;air;53.39;14;0;Germany;0;0;0;KLOCKOW;8.346;8.690000000000001
27/06/17 12:00;DEZ2432;Eurdep;air;53.27;14.35;0;Germany;0;0;0;TANTOW;8.144;8.540000000000001
27/06/17 12:00;DEZ2433;Eurdep;air;53.09;14.29;0;Germany;0;0;0;VIERRADEN;8.309000000000001;8
26/06/17 21:00;DEZ2434;Eurdep;air;51.52;11.97;0;Germany;0;0;0;HALLE;9.43;9.43
27/06/17 12:00;DEZ2436;Eurdep;air;51.76;11.49;0;Germany;0;0;0;ASCHERSLEBEN;8.92;9.25
26/06/17 21:00;DEZ2437;Eurdep;air;51.81;11.73;0;Germany;0;0;0;BERNBURG;9;9
27/06/17 14:00;DEZ2438;Eurdep;air;51.63;12.29;0;Germany;0;0;0;BITTERFELD;8.704;8.870000000000001
25/06/17 22:00;DEZ2440;Eurdep;air;51.53;11.55;0;Germany;0;0;0;EISLEBEN;0;0
27/06/17 12:00;DEZ2443;Eurdep;air;52.27;11.42;0;Germany;0;0;0;HALDENSLEBEN;8.187000000000001;8.45
27/06/17 12:00;DEZ2444;Eurdep;air;52.84;12.08;0;Germany;0;0;0;HAVELBERG;7.179;7.44
27/06/17 12:00;DEZ2446;Eurdep;air;51.8;12.96;0;Germany;0;0;0;JESSEN;8.278;8.61
27/06/17 12:00;DEZ2447;Eurdep;air;52.63;11.14;0;Germany;0;0;0;KLÖTZE;6.082;6.3100000000000005
26/06/17 21:00;DEZ2448;Eurdep;air;51.73;11.95;0;Germany;0;0;0;KÖTHEN;10;10
27/06/17 14:00;DEZ2450;Eurdep;air;52.89;11.73;0;Germany;0;0;0;SEEHAUSEN;6.751;6.970000000000001
27/06/17 12:00;DEZ2451;Eurdep;air;52.88;11.57;0;Germany;0;0;0;LEPPIN;7.118;7.32
27/06/17 12:00;DEZ2454;Eurdep;air;52.83;11.19;0;Germany;0;0;0;SALZWEDEL;6.9510000000000005;7.12
27/06/17 12:00;DEZ2456;Eurdep;air;52.01;11.75;0;Germany;0;0;0;SCHÖNEBECK/ELBE;11.676;12
27/06/17 14:00;DEZ2459;Eurdep;air;51.89;12.65;0;Germany;0;0;0;WITTENBERG;7.020999999999999;7.390000000000001
27/06/17 12:00;DEZ2460;Eurdep;air;52.24;11.64;0;Germany;0;0;0;WOLMIRSTEDT;9.862;10
27/06/17 12:00;DEZ2464;Eurdep;air;52;12.28;0;Germany;0;0;0;POLENZKO OT BÄRENTHOREN;7.631;7.85
26/06/17 21:00;DEZ2466;Eurdep;air;51.62;12.12;0;Germany;0;0;0;ZÖRBIG;10;10
21/06/17 22:00;DEZ2467;Eurdep;air;51.73;12.48;0;Germany;0;0;0;GRÄFENHAINICHEN;0;0
27/06/17 12:00;DEZ2468;Eurdep;air;51.15;11.79;0;Germany;0;0;0;NAUMBURG;12.328;12
27/06/17 12:00;DEZ2471;Eurdep;air;51.65;11.68;0;Germany;0;0;0;IHLEWITZ;11.22;11
27/06/17 12:00;DEZ2473;Eurdep;air;51.39;11.66;0;Germany;0;0;0;OBHAUSEN;10.206;10
27/06/17 12:00;DEZ2477;Eurdep;air;51.94;11.45;0;Germany;0;0;0;EGELN;9.562999999999999;10
27/06/17 14:00;DEZ2478;Eurdep;air;52.16;11.18;0;Germany;0;0;0;UMMENDORF;9.318999999999999;9.57
27/06/17 12:00;DEZ2479;Eurdep;air;51.98;10.88;0;Germany;0;0;0;BADERSLEBEN;10.059999999999999;10
27/06/17 12:00;DEZ2480;Eurdep;air;52.38;11.98;0;Germany;0;0;0;PAREY;7.7379999999999995;8.03
27/06/17 12:00;DEZ2484;Eurdep;air;52.71;11.86;0;Germany;0;0;0;GOLDBECK;6;7.109999999999999
27/06/17 14:00;DEZ2489;Eurdep;air;51.8;10.62;0;Germany;0;0;0;SCHIERKE/BROCKEN;14.026;14
27/06/17 12:00;DEZ2491;Eurdep;air;52.79;10.89;0;Germany;0;0;0;DÄHRE;7.55;7.76
27/06/17 12:00;DEZ2492;Eurdep;air;52.79;11.38;0;Germany;0;0;0;FLEETMARK;8.228;8.376999999999999
27/06/17 14:00;DEZ2502;Eurdep;air;51.16;14.95;0;Germany;0;0;0;GÖRLITZ;8.884;9.290000000000001
27/06/17 12:00;DEZ2503;Eurdep;air;51.33;12.29;0;Germany;0;0;0;LEIPZIG;9.547;9.85
26/06/17 21:00;DEZ2505;Eurdep;air;50.54;12.42;0;Germany;0;0;0;RODEWISCH;13;13
27/06/17 12:00;DEZ2506;Eurdep;air;51.18;14.45;0;Germany;0;0;0;BAUTZEN;10.035;10
27/06/17 12:00;DEZ2507;Eurdep;air;51.14;14.2;0;Germany;0;0;0;BISCHOFSWERDA;10.58;10
27/06/17 12:00;DEZ2509;Eurdep;air;50.71;13.51;0;Germany;0;0;0;CÄMMERSWALDE;13.580000000000002;14
27/06/17 12:00;DEZ2510;Eurdep;air;50.81;13.41;0;Germany;0;0;0;MULDA;13.376;13
27/06/17 11:00;DEZ2512;Eurdep;air;51.12;13.67;0;Germany;0;0;0;RADEBEUL;13.580000000000002;14
26/06/17 21:00;DEZ2513;Eurdep;air;50.91;13.34;0;Germany;0;0;0;FREIBERG;12;12
27/06/17 12:00;DEZ2514;Eurdep;air;50.88;12.59;0;Germany;0;0;0;WALDENBURG;12.136;12
27/06/17 12:00;DEZ2516;Eurdep;air;51.43;14.28;0;Germany;0;0;0;HOYERSWERDA;6.759;6.95
27/06/17 12:00;DEZ2520;Eurdep;air;50.33;12.29;0;Germany;0;0;0;ADORF;12.508;12
26/06/17 21:00;DEZ2524;Eurdep;air;50.85;14.06;0;Germany;0;0;0;ROSENTHAL;9.97;9.97
27/06/17 14:00;DEZ2525;Eurdep;air;50.48;12.13;0;Germany;0;0;0;PLAUEN;11.159;11
27/06/17 12:00;DEZ2527;Eurdep;air;50.43;12.71;0;Germany;0;0;0;JOHANNGEORGENSTADT;14.224;14
26/06/17 21:00;DEZ2529;Eurdep;air;50.93;14.36;0;Germany;0;0;0;HINTERHERMSDORF;10;10
27/06/17 12:00;DEZ2531;Eurdep;air;50.68;12.47;0;Germany;0;0;0;ZWICKAU;11.116;11
27/06/17 12:00;DEZ2532;Eurdep;air;50.64;12.96;0;Germany;0;0;0;EHRENFRIEDERSDORF;11.876000000000001;12
27/06/17 12:00;DEZ2533;Eurdep;air;51.31;14.33;0;Germany;0;0;0;KÖNIGSWARTHA;7.458;7.76
26/06/17 21:00;DEZ2534;Eurdep;air;51.09;14.39;0;Germany;0;0;0;WILTHEN;9.35;9.35
27/06/17 12:00;DEZ2535;Eurdep;air;51.45;12.63;0;Germany;0;0;0;EILENBURG;9.893;10
26/06/17 21:00;DEZ2536;Eurdep;air;51.07;13.04;0;Germany;0;0;0;WALDHEIM;10;10
27/06/17 12:00;DEZ2547;Eurdep;air;51.26;14.64;0;Germany;0;0;0;WEIGERSDORF;7.196;7.58
27/06/17 12:00;DEZ2551;Eurdep;air;50.89;14.66;0;Germany;0;0;0;GROßSCHÖNAU;11.751999999999999;12
27/06/17 12:00;DEZ2553;Eurdep;air;51.02;14.53;0;Germany;0;0;0;NEUSALZA-SPREMBERG;9.501999999999999;9.99
27/06/17 12:00;DEZ2554;Eurdep;air;50.83;14.72;0;Germany;0;0;0;OYBIN;12.056000000000001;12
27/06/17 12:00;DEZ2555;Eurdep;air;50.89;14.2;0;Germany;0;0;0;REINHARDTSDORF;7.9079999999999995;8.27
27/06/17 12:00;DEZ2557;Eurdep;air;51.23;13.03;0;Germany;0;0;0;MÜGELN;12.504000000000001;13
27/06/17 12:00;DEZ2558;Eurdep;air;50.73;13.75;0;Germany;0;0;0;ALTENBERG OT GEORGENFELD;18.236;18
21/06/17 22:00;DEZ2559;Eurdep;air;51.19;14.02;0;Germany;0;0;0;PULSNITZ;0;0
27/06/17 12:00;DEZ2560;Eurdep;air;51.06;13.95;0;Germany;0;0;0;DRESDEN OT ROSSENDORF;9.706999999999999;10
27/06/17 12:00;DEZ2562;Eurdep;air;51.39;14.03;0;Germany;0;0;0;WIEDNITZ;7.2170000000000005;7.51
27/06/17 14:00;DEZ2569;Eurdep;air;50.5;11.14;0;Germany;0;0;0;NEUHAUS/RENNWEG;13.574000000000002;14
27/06/17 14:00;DEZ2572;Eurdep;air;50.57;11.8;0;Germany;0;0;0;SCHLEIZ;8.589;8.879999999999999
26/06/17 21:00;DEZ2573;Eurdep;air;51.16;11.11;0;Germany;0;0;0;SÖMMERDA;11;11
27/06/17 12:00;DEZ2574;Eurdep;air;51.28;10.72;0;Germany;0;0;0;EBELEBEN;10.49;10
27/06/17 12:00;DEZ2575;Eurdep;air;50.7;10.69;0;Germany;0;0;0;OBERHOF;15.156;15
27/06/17 14:00;DEZ2576;Eurdep;air;51.39;10.31;0;Germany;0;0;0;LEINEFELDE;11.659;12
27/06/17 12:00;DEZ2578;Eurdep;air;50.99;10.31;0;Germany;0;0;0;EISENACH;12.68;13
27/06/17 12:00;DEZ2580;Eurdep;air;51.11;10.64;0;Germany;0;0;0;BAD LANGENSALZA;11.648;12
27/06/17 06:00;DEZ2584;Eurdep;air;51.37;10.91;0;Germany;0;0;0;SONDERSHAUSEN;13.858;14
27/06/17 12:00;DEZ2588;Eurdep;air;50.79;10.61;0;Germany;0;0;0;TAMBACH - DIETHARZ;14.132;14
27/06/17 12:00;DEZ2590;Eurdep;air;50.28;10.72;0;Germany;0;0;0;BAD COLBERG;13.691999999999998;14
27/06/17 12:00;DEZ2592;Eurdep;air;50.56;10.96;0;Germany;0;0;0;ALTENFELD;15.303999999999998;15
27/06/17 14:00;DEZ2593;Eurdep;air;50.65;10.77;0;Germany;0;0;0;GEHLBERG;18.093;19
27/06/17 12:00;DEZ2594;Eurdep;air;50.68;10.89;0;Germany;0;0;0;ILMENAU;15.075999999999999;15
26/06/17 21:00;DEZ2596;Eurdep;air;50.39;11;0;Germany;0;0;0;SCHALKAU;13;13
27/06/17 12:00;DEZ2597;Eurdep;air;50.38;11.18;0;Germany;0;0;0;SONNEBERG - NEUFANG;10.995999999999999;11
27/06/17 12:00;DEZ2600;Eurdep;air;50.44;11.87;0;Germany;0;0;0;GEFELL;12.083;12
27/06/17 12:00;DEZ2601;Eurdep;air;50.71;11.57;0;Germany;0;0;0;PÖßNECK;9.992;10
27/06/17 12:00;DEZ2605;Eurdep;air;53.03;13.71;0;Germany;0;0;0;FRIEDRICHSWALDE;9.083;9.34
27/06/17 14:00;DEZ2609;Eurdep;air;52.38;13.53;0;Germany;0;0;0;SCHÖNEFELD;7.6209999999999996;7.779999999999999
27/06/17 12:00;DEZ2611;Eurdep;air;52.64;14.19;0;Germany;0;0;0;ALTFRIEDLAND;7.2010000000000005;7.56
27/06/17 12:00;DEZ2612;Eurdep;air;52.58;14.07;0;Germany;0;0;0;BUCKOW;7.614;7.94
27/06/17 12:00;DEZ2613;Eurdep;air;52.67;14.43;0;Germany;0;0;0;KIENITZ;8.352;8
27/06/17 12:00;DEZ2614;Eurdep;air;52.72;14.28;0;Germany;0;0;0;NEULEWIN;9.117;9.620000000000001
27/06/17 12:00;DEZ2620;Eurdep;air;53.07;13.09;0;Germany;0;0;0;GROßWOLTERSDORF;7.439;7.74
26/06/17 21:00;DEZ2621;Eurdep;air;52.76;13.03;0;Germany;0;0;0;KREMMEN;7.4799999999999995;7.4799999999999995
27/06/17 12:00;DEZ2624;Eurdep;air;52.46;14.22;0;Germany;0;0;0;HEINERSDORF;7.268000000000001;7
27/06/17 12:00;DEZ2627;Eurdep;air;52.07;14.75;0;Germany;0;0;0;RATZDORF;6.103;6.42
27/06/17 12:00;DEZ2628;Eurdep;air;52.24;14.58;0;Germany;0;0;0;WIESENAU;7.0200000000000005;7.24
27/06/17 12:00;DEZ2631;Eurdep;air;53.16;12.76;0;Germany;0;0;0;FLECKEN ZECHLIN;7.645999999999999;7.95
27/06/17 12:00;DEZ2633;Eurdep;air;52.97;12.99;0;Germany;0;0;0;LINDOW;6.831999999999999;7.029999999999999
27/06/17 12:00;DEZ2634;Eurdep;air;52.91;12.59;0;Germany;0;0;0;LÖGOW;7.4030000000000005;7.790000000000001
27/06/17 12:00;DEZ2635;Eurdep;air;53.04;12.86;0;Germany;0;0;0;SCHWANOW;7.2909999999999995;7.720000000000001
26/06/17 21:00;DEZ2637;Eurdep;air;52.96;11.94;0;Germany;0;0;0;BAD WILSNACK;7.290000000000001;7.290000000000001
27/06/17 12:00;DEZ2641;Eurdep;air;51.94;14.69;0;Germany;0;0;0;GUBEN;8.89;9.15
27/06/17 12:00;DEZ2643;Eurdep;air;53.16;14.35;0;Germany;0;0;0;FRIEDRICHSTHAL;5.671;5.99
27/06/17 12:00;DEZ2645;Eurdep;air;53.37;13.7;0;Germany;0;0;0;WITTSTOCK;8.370000000000001;8.66
27/06/17 12:00;DEZ2646;Eurdep;air;52.99;14.14;0;Germany;0;0;0;STOLPE;7.066;7.43
27/06/17 13:00;DEZ2648;Eurdep;air;54.13;11.87;0;Germany;0;0;0;BAD DOBERAN;7.773999999999999;7.88
27/06/17 12:00;DEZ2650;Eurdep;air;54.25;12.25;0;Germany;0;0;0;GRAAL-MÜRITZ;8.169;8.48
27/06/17 11:00;DEZ2654;Eurdep;air;53.63;12.91;0;Germany;0;0;0;KITTENDORF;8.256;8.49
27/06/17 12:00;DEZ2655;Eurdep;air;53.85;12.77;0;Germany;0;0;0;SCHORRENTIN;8.126000000000001;8.49
26/06/17 21:00;DEZ2656;Eurdep;air;53.94;11.97;0;Germany;0;0;0;KLEIN BELITZ;8.02;8.02
27/06/17 12:00;DEZ2658;Eurdep;air;53.89;12.46;0;Germany;0;0;0;NEU HEINDE;7.992;8.379999999999999
27/06/17 12:00;DEZ2659;Eurdep;air;53.82;11.95;0;Germany;0;0;0;RÜHN;8.476;9.040000000000001
27/06/17 12:00;DEZ2661;Eurdep;air;53.56;11.27;0;Germany;0;0;0;WALSMÜHLEN;8.106;8.59
27/06/17 12:00;DEZ2663;Eurdep;air;53.44;11.49;0;Germany;0;0;0;FAHRBINDE;6.583;6.9799999999999995
27/06/17 12:00;DEZ2664;Eurdep;air;53.17;11.29;0;Germany;0;0;0;NEU KALIß;6.529999999999999;6.75
27/06/17 12:00;DEZ2665;Eurdep;air;53.43;10.93;0;Germany;0;0;0;RODENWALDE;7.234999999999999;7.470000000000001
27/06/17 12:00;DEZ2666;Eurdep;air;53.16;11.54;0;Germany;0;0;0;STEESOW;6.282;6.529999999999999
27/06/17 12:00;DEZ2669;Eurdep;air;53.46;13.58;0;Germany;0;0;0;WOLDEGK;9.645;9.870000000000001
27/06/17 12:00;DEZ2676;Eurdep;air;54.28;12.31;0;Germany;0;0;0;DIERHAGEN;5.571;5.82
27/06/17 12:00;DEZ2678;Eurdep;air;54.15;12.43;0;Germany;0;0;0;GRESENHORST;7.946;8.129999999999999
27/06/17 12:00;DEZ2680;Eurdep;air;54;11.44;0;Germany;0;0;0;KIRCHDORF / POEL;8.428;8.74
27/06/17 12:00;DEZ2681;Eurdep;air;54.3;12.73;0;Germany;0;0;0;LÖBNITZ;6.509;6.76
27/06/17 12:00;DEZ2682;Eurdep;air;54.21;12.82;0;Germany;0;0;0;MILLIENHAGEN;7.95;8.24
27/06/17 12:00;DEZ2683;Eurdep;air;54.2;13.19;0;Germany;0;0;0;REINKENHAGEN;8.059000000000001;8.28
27/06/17 14:00;DEZ2684;Eurdep;air;54.05;13.12;0;Germany;0;0;0;POGGENDORF;8.366;8.709999999999999
27/06/17 12:00;DEZ2687;Eurdep;air;53.76;10.93;0;Germany;0;0;0;CARLOW;8.037;8.43
27/06/17 12:00;DEZ2688;Eurdep;air;53.91;11.27;0;Germany;0;0;0;GROß WALMSTORF;7.837000000000001;8.09
27/06/17 12:00;DEZ2689;Eurdep;air;53.97;11.04;0;Germany;0;0;0;KALKHORST;8.908;9.26
26/06/17 21:00;DEZ2690;Eurdep;air;53.95;11.59;0;Germany;0;0;0;NEUBURG;7.7700000000000005;7.7700000000000005
27/06/17 12:00;DEZ2691;Eurdep;air;53.86;10.93;0;Germany;0;0;0;SCHÖNBERG;8.955;9.47
27/06/17 12:00;DEZ2694;Eurdep;air;54.04;13.3;0;Germany;0;0;0;DERSEKOW;7.970999999999999;8.32
26/06/17 21:00;DEZ2695;Eurdep;air;53.83;13.44;0;Germany;0;0;0;KRIEN;9.379999999999999;9.379999999999999
27/06/17 12:00;DEZ2696;Eurdep;air;53.52;11.64;0;Germany;0;0;0;TRAMM;7.645999999999999;7.909999999999999
27/06/17 12:00;DEZ2706;Eurdep;air;50.38;12.13;0;Germany;0;0;0;TRIEBEL;12.476;13
26/06/17 21:00;DEZ2708;Eurdep;air;50.43;12.95;0;Germany;0;0;0;OBERWIESENTHAL;15;15
27/06/17 12:00;DEZ2710;Eurdep;air;51.54;12.34;0;Germany;0;0;0;DELITZSCH;10.166;10
27/06/17 12:00;DEZ2712;Eurdep;air;51.31;12.52;0;Germany;0;0;0;ENGELSDORF OT KLEINPÖSNA;10.132;10
27/06/17 12:00;DEZ2713;Eurdep;air;51.22;12.32;0;Germany;0;0;0;ZWENKAU;10.544;10
27/06/17 12:00;DEZ2714;Eurdep;air;51.06;13.27;0;Germany;0;0;0;NOSSEN;10.940000000000001;11
27/06/17 12:00;DEZ2715;Eurdep;air;50.61;13.46;0;Germany;0;0;0;DEUTSCHNEUDORF;12.687999999999999;13
27/06/17 12:00;DEZ2716;Eurdep;air;50.56;13.22;0;Germany;0;0;0;REITZENHAIN;13.663999999999998;14
27/06/17 12:00;DEZ2717;Eurdep;air;50.6;13.3;0;Germany;0;0;0;RÜBENAU;11.552;12
26/06/17 21:00;DEZ2721;Eurdep;air;51.26;15.03;0;Germany;0;0;0;DESCHKA;10;10
26/06/17 21:00;DEZ2722;Eurdep;air;51.12;14.81;0;Germany;0;0;0;REICHENBACH/O.L.;9.58;9.58
27/06/17 08:00;DEZ2726;Eurdep;air;51.63;12.88;0;Germany;0;0;0;DOMMITZSCH;7.616;7.709999999999999
26/06/17 21:00;DEZ2728;Eurdep;air;50.44;12.59;0;Germany;0;0;0;CARLSFELD;11;11
26/06/17 21:00;DEZ2732;Eurdep;air;52.12;12.09;0;Germany;0;0;0;LOBURG;6.87;6.87
27/06/17 12:00;DEZ2734;Eurdep;air;51.72;12.62;0;Germany;0;0;0;ATERITZ;7.308;7.4799999999999995
27/06/17 12:00;DEZ2736;Eurdep;air;51.28;11.64;0;Germany;0;0;0;KARSDORF;11.084;11
26/06/17 21:00;DEZ2737;Eurdep;air;51.09;11.93;0;Germany;0;0;0;OSTERFELD;9;9
27/06/17 12:00;DEZ2739;Eurdep;air;51.3;11.79;0;Germany;0;0;0;MÜCHELN;9.489;9.790000000000001
27/06/17 12:00;DEZ2740;Eurdep;air;51.28;12.1;0;Germany;0;0;0;TOLLWITZ;9.286;9.64
27/06/17 12:00;DEZ2741;Eurdep;air;51.44;12.04;0;Germany;0;0;0;DIESKAU;9.33;9.61
27/06/17 11:00;DEZ2745;Eurdep;air;51.23;11.88;0;Germany;0;0;0;PETTSTÄDT;10.123000000000001;10
27/06/17 12:00;DEZ2748;Eurdep;air;52.07;11.37;0;Germany;0;0;0;KLEIN WANZLEBEN;10;11
27/06/17 12:00;DEZ2750;Eurdep;air;52.17;11.07;0;Germany;0;0;0;SOMMERSDORF;9.679;9.93
27/06/17 12:00;DEZ2752;Eurdep;air;52.32;11.15;0;Germany;0;0;0;BEHNSDORF;7.014;7.26
27/06/17 12:00;DEZ2758;Eurdep;air;52.99;11.67;0;Germany;0;0;0;WAHRENBERG;7.376;7.609999999999999
27/06/17 12:00;DEZ2759;Eurdep;air;51.74;11.23;0;Germany;0;0;0;BALLENSTEDT;9.623999999999999;9
27/06/17 14:00;DEZ2760;Eurdep;air;51.65;11.14;0;Germany;0;0;0;HARZGERODE;10.633;10
27/06/17 12:00;DEZ2762;Eurdep;air;51.69;10.85;0;Germany;0;0;0;HASSELFELDE;10.402;11
26/06/17 21:00;DEZ2764;Eurdep;air;52.51;11.18;0;Germany;0;0;0;PECKFITZ;7.43;7.43
26/06/17 21:00;DEZ2765;Eurdep;air;52.71;11.05;0;Germany;0;0;0;ROHRBERG;7.359999999999999;7.359999999999999
27/06/17 12:00;DEZ2766;Eurdep;air;52.43;11.4;0;Germany;0;0;0;ROXFÖRDE;6;6.74
26/06/17 21:00;DEZ2767;Eurdep;air;52.74;11.24;0;Germany;0;0;0;WINTERFELD;7.15;7.15
27/06/17 12:00;DEZ2771;Eurdep;air;51.44;10.57;0;Germany;0;0;0;BLEICHERODE;12.308;12
27/06/17 12:00;DEZ2772;Eurdep;air;50.76;10.08;0;Germany;0;0;0;GEHAUS;11.156;11
27/06/17 12:00;DEZ2776;Eurdep;air;50.72;10.45;0;Germany;0;0;0;SCHMALKALDEN;14.628;15
27/06/17 12:00;DEZ2779;Eurdep;air;50.41;10.73;0;Germany;0;0;0;HILDBURGHAUSEN;10.484;10
27/06/17 12:00;DEZ2782;Eurdep;air;50.78;11.39;0;Germany;0;0;0;NEUSITZ;12.379999999999999;12
27/06/17 12:00;DEZ2783;Eurdep;air;50.66;11.1;0;Germany;0;0;0;KÖNIGSEE;11.808;12
27/06/17 12:00;DEZ2785;Eurdep;air;50.86;11.87;0;Germany;0;0;0;REICHENBACH;9.97;10
26/06/17 21:00;DEZ2786;Eurdep;air;50.46;11.53;0;Germany;0;0;0;WURZBACH;13;13
27/06/17 12:00;DEZ2789;Eurdep;air;54.11;8.94;0;Germany;0;0;0;NORDERMELDORF;6.673;6.909999999999999
26/06/17 21:00;DEZ2790;Eurdep;air;53.73;10.72;0;Germany;0;0;0;KLEIN DISNACK;8.28;8.28
27/06/17 12:00;DEZ2791;Eurdep;air;54.43;9.2;0;Germany;0;0;0;WINNERT;6.945;7.32
27/06/17 12:00;DEZ2792;Eurdep;air;54.81;8.71;0;Germany;0;0;0;EMMELSBÜLL;8.096;8.290000000000001
27/06/17 12:00;DEZ2793;Eurdep;air;54.21;9.92;0;Germany;0;0;0;LANGWEDEL;7.706;7.970000000000001
27/06/17 12:00;DEZ2794;Eurdep;air;54.13;9.56;0;Germany;0;0;0;TODENBÜTTEL;7.384;7.55
27/06/17 12:00;DEZ2795;Eurdep;air;54.44;9.43;0;Germany;0;0;0;GROß RHEIDE;6.6129999999999995;6.970000000000001
27/06/17 12:00;DEZ2797;Eurdep;air;53.97;9.97;0;Germany;0;0;0;GROßENASPE;6.6450000000000005;6.83
27/06/17 12:00;DEZ2798;Eurdep;air;54.04;10.22;0;Germany;0;0;0;TRAPPENKAMP;7.384;7.640000000000001
27/06/17 14:00;DEZ2799;Eurdep;air;52.15;10.33;0;Germany;0;0;0;SALZGITTER-LEBENSTEDT;9.72;10
