date;id_station;id_network;type;latitude;longitude;altitude;country;area_adm_1;area_adm_2;area_adm_3;name;value;value_max
14/07/17 14:00;DEZ0001;Eurdep;air;54.78;9.38;0;Germany;0;0;0;FLENSBURG;7.331;7.58
14/07/17 14:00;DEZ0005;Eurdep;air;54.02;9.05;0;Germany;0;0;0;BARLT;7.864;8.03
14/07/17 14:00;DEZ0008;Eurdep;air;54.17;9.33;0;Germany;0;0;0;BUNSOH;6.69;6.88
14/07/17 14:00;DEZ0012;Eurdep;air;54.19;9.15;0;Germany;0;0;0;HEIDE;6.5569999999999995;6.75
14/07/17 14:00;DEZ0013;Eurdep;air;54.35;9.02;0;Germany;0;0;0;LEHE;6.991;7
14/07/17 14:00;DEZ0017;Eurdep;air;54.21;8.92;0;Germany;0;0;0;WESSELBUREN;7.37;7.7299999999999995
14/07/17 14:00;DEZ0032;Eurdep;air;53.39;10.49;0;Germany;0;0;0;SCHNAKENBEK;7.128;7.42
14/07/17 14:00;DEZ0034;Eurdep;air;53.44;10.45;0;Germany;0;0;0;WIERSHOP;8.367;8.67
14/07/17 14:00;DEZ0038;Eurdep;air;54.77;8.29;0;Germany;0;0;0;HÖRNUM / SYLT;4.915;5.26
14/07/17 14:00;DEZ0044;Eurdep;air;54.65;8.35;0;Germany;0;0;0;NEBEL / AMRUM;6.205;6.43
14/07/17 14:00;DEZ0048;Eurdep;air;54.52;8.67;0;Germany;0;0;0;PELLWORM;8.309000000000001;8.57
14/07/17 13:00;DEZ0055;Eurdep;air;54.86;9.01;0;Germany;0;0;0;WESTRE;6.215;6.36
14/07/17 14:00;DEZ0057;Eurdep;air;54.5;11.24;0;Germany;0;0;0;MARIENLEUCHTE / FEHMARN;8;8.67
14/07/17 14:00;DEZ0059;Eurdep;air;54.2;11.09;0;Germany;0;0;0;DAHME;7.545999999999999;7.859999999999999
14/07/17 14:00;DEZ0060;Eurdep;air;54.15;10.6;0;Germany;0;0;0;EUTIN;7.619;7.909999999999999
14/07/17 14:00;DEZ0062;Eurdep;air;54.38;10.95;0;Germany;0;0;0;HEILIGENHAFEN;8.293000000000001;8.58
14/07/17 14:00;DEZ0068;Eurdep;air;53.9;10.66;0;Germany;0;0;0;STOCKELSDORF;6.8790000000000004;7.24
14/07/17 14:00;DEZ0072;Eurdep;air;53.86;9.74;0;Germany;0;0;0;BOKEL;6.193;6.39
14/07/17 15:00;DEZ0074;Eurdep;air;54.17;7.89;0;Germany;0;0;0;HELGOLAND / UNTERLAND;7.4959999999999996;7.94
14/07/17 14:00;DEZ0080;Eurdep;air;54.3;10.23;0;Germany;0;0;0;KLAUSDORF;7.427;7.74
14/07/17 14:00;DEZ0082;Eurdep;air;54.18;10.2;0;Germany;0;0;0;NETTELSEE;6.874;7.24
14/07/17 14:00;DEZ0083;Eurdep;air;54.16;10.45;0;Germany;0;0;0;PLÖN;7.764;8.05
14/07/17 14:00;DEZ0086;Eurdep;air;54.29;10.42;0;Germany;0;0;0;SELENT;7.948;8.14
14/07/17 14:00;DEZ0087;Eurdep;air;54.44;9.7;0;Germany;0;0;0;ASCHEFFEL;7.76;8.01
14/07/17 14:00;DEZ0091;Eurdep;air;54.47;9.87;0;Germany;0;0;0;ECKERNFÖRDE;7.003;7.2700000000000005
14/07/17 14:00;DEZ0092;Eurdep;air;54.4;9.97;0;Germany;0;0;0;GETTORF;7.659000000000001;8.15
14/07/17 14:00;DEZ0095;Eurdep;air;54.21;9.71;0;Germany;0;0;0;JEVENSTEDT-OT NIENKATTBEK;5.439;5.99
14/07/17 14:00;DEZ0097;Eurdep;air;54.27;10.08;0;Germany;0;0;0;MOLFSEE;8.453;8.84
14/07/17 14:00;DEZ0102;Eurdep;air;54.08;9.9;0;Germany;0;0;0;WASBEK;6.099;6.220000000000001
14/07/17 14:00;DEZ0104;Eurdep;air;54.31;9.3;0;Germany;0;0;0;ERFDE;7.241;7.45
14/07/17 14:00;DEZ0107;Eurdep;air;54.65;9.94;0;Germany;0;0;0;KAPPELN;7.401999999999999;7.93
14/07/17 15:00;DEZ0111;Eurdep;air;54.53;9.55;0;Germany;0;0;0;SCHLESWIG;8.07;8.45
14/07/17 14:00;DEZ0112;Eurdep;air;54.64;9.76;0;Germany;0;0;0;SÜDERBRARUP;8.083;8.33
14/07/17 14:00;DEZ0116;Eurdep;air;54.83;9.55;0;Germany;0;0;0;GLÜCKSBURG;7.918000000000001;8.17
14/07/17 14:00;DEZ0119;Eurdep;air;54.73;9.74;0;Germany;0;0;0;STERUP;8.199;8
14/07/17 14:00;DEZ0123;Eurdep;air;53.91;10.17;0;Germany;0;0;0;BARK;7.813;8.11
14/07/17 14:00;DEZ0128;Eurdep;air;53.88;9.98;0;Germany;0;0;0;SCHMALFELD;5.589;5.7700000000000005
14/07/17 14:00;DEZ0131;Eurdep;air;53.79;10.08;0;Germany;0;0;0;WAKENDORF II;6.7700000000000005;6.959999999999999
14/07/17 14:00;DEZ0136;Eurdep;air;53.78;9.61;0;Germany;0;0;0;KIEBITZREIHE;5.536;5.87
11/07/17 00:00;DEZ0137;Eurdep;air;53.84;9.49;0;Germany;0;0;0;KREMPE;0;0
14/07/17 14:00;DEZ0139;Eurdep;air;53.94;9.4;0;Germany;0;0;0;MOORHUSEN;7.729000000000001;8.22
14/07/17 15:00;DEZ0140;Eurdep;air;53.92;9.58;0;Germany;0;0;0;OELIXDORF;6.872;7.159999999999999
14/07/17 14:00;DEZ0141;Eurdep;air;53.88;9.26;0;Germany;0;0;0;ST. MARGARETHEN;8.279;8.620000000000001
14/07/17 15:00;DEZ0143;Eurdep;air;53.73;9.48;0;Germany;0;0;0;KOLLMAR;8.125;8.459999999999999
14/07/17 14:00;DEZ0145;Eurdep;air;53.61;10.24;0;Germany;0;0;0;BRAAK;7.872;8.11
14/07/17 14:00;DEZ0147;Eurdep;air;53.81;10.44;0;Germany;0;0;0;MEDDEWADE;8.241;8.39
14/07/17 14:00;DEZ0151;Eurdep;air;53.53;10.14;0;Germany;0;0;0;HAMBURG-BILLSTEDT;6.9799999999999995;7.2299999999999995
14/07/17 15:00;DEZ0156;Eurdep;air;53.58;10.11;0;Germany;0;0;0;HAMBURG-JENFELD;7.845000000000001;8.190000000000001
14/07/17 15:00;DEZ0157;Eurdep;air;53.65;10.11;0;Germany;0;0;0;HAMBURG-SASEL;7.148000000000001;7.56
14/07/17 14:00;DEZ0158;Eurdep;air;53.47;10.19;0;Germany;0;0;0;HAMBURG-NETTELNBURG;8.064;8.39
14/07/17 14:00;DEZ0167;Eurdep;air;52.13;10.29;0;Germany;0;0;0;SALZGITTER-LICHTENBERG;8.664;8.97
14/07/17 14:00;DEZ0169;Eurdep;air;52.47;10.53;0;Germany;0;0;0;GIFHORN;6.825;7.109999999999999
14/07/17 14:00;DEZ0170;Eurdep;air;52.65;10.46;0;Germany;0;0;0;GROß OESINGEN;5.51;5.71
14/07/17 14:00;DEZ0172;Eurdep;air;52.38;10.53;0;Germany;0;0;0;MEINE;7.825;8.08
14/07/17 14:00;DEZ0173;Eurdep;air;52.48;10.36;0;Germany;0;0;0;MEINERSEN;7.115;7.409999999999999
14/07/17 14:00;DEZ0175;Eurdep;air;52.77;10.45;0;Germany;0;0;0;SPRAKENSEHL OT HAGEN;5.9399999999999995;6.21
14/07/17 14:00;DEZ0176;Eurdep;air;52.62;10.59;0;Germany;0;0;0;WAHRENHOLZ;6.756;7.029999999999999
14/07/17 13:00;DEZ0177;Eurdep;air;52.73;10.73;0;Germany;0;0;0;WITTINGEN;7.045;7.44
14/07/17 14:00;DEZ0178;Eurdep;air;52.62;10.81;0;Germany;0;0;0;WITTINGEN-BOITZENHAGEN;6.259;6.74
14/07/17 14:00;DEZ0180;Eurdep;air;51.5;9.76;0;Germany;0;0;0;DRANSFELD;10.681000000000001;11
14/07/17 14:00;DEZ0182;Eurdep;air;51.44;9.93;0;Germany;0;0;0;FRIEDLAND-GROß SCHNEEN;10.959;11
14/07/17 14:00;DEZ0183;Eurdep;air;51.61;10.21;0;Germany;0;0;0;GIEBOLDEHAUSEN;11.584999999999999;12
14/07/17 14:00;DEZ0185;Eurdep;air;51.48;10.11;0;Germany;0;0;0;RITTMARSHAUSEN;9.798;10
14/07/17 14:00;DEZ0186;Eurdep;air;51.52;9.93;0;Germany;0;0;0;GÖTTINGEN;9.062999999999999;9.68
14/07/17 14:00;DEZ0188;Eurdep;air;51.56;10.06;0;Germany;0;0;0;WAAKE;12.163;12
14/07/17 14:00;DEZ0189;Eurdep;air;51.81;10.54;0;Germany;0;0;0;TORFHAUS;10.023;10
14/07/17 15:00;DEZ0191;Eurdep;air;51.72;10.6;0;Germany;0;0;0;BRAUNLAGE;9.801;10
14/07/17 14:00;DEZ0195;Eurdep;air;52.02;10.44;0;Germany;0;0;0;LIEBENBURG;9.216;9.52
14/07/17 14:00;DEZ0197;Eurdep;air;51.95;10.54;0;Germany;0;0;0;VIENENBURG;9.598;9.91
14/07/17 14:00;DEZ0201;Eurdep;air;52.25;10.81;0;Germany;0;0;0;KÖNIGSLUTTER;6.773999999999999;7.2700000000000005
14/07/17 14:00;DEZ0205;Eurdep;air;51.88;10;0;Germany;0;0;0;BAD GANDERSHEIM;10.515;10
14/07/17 14:00;DEZ0208;Eurdep;air;51.79;10.06;0;Germany;0;0;0;ECHTE;9.613;10
14/07/17 14:00;DEZ0209;Eurdep;air;51.68;10.1;0;Germany;0;0;0;KATLENBURG-LINDAU;10.209999999999999;10
14/07/17 14:00;DEZ0210;Eurdep;air;51.73;9.79;0;Germany;0;0;0;FREDELSLOH;10.284;10
14/07/17 14:00;DEZ0212;Eurdep;air;51.62;9.66;0;Germany;0;0;0;USLAR OT SCHONINGEN;9.864;10
14/07/17 14:00;DEZ0213;Eurdep;air;51.63;10.47;0;Germany;0;0;0;BAD LAUTERBERG IM HARZ;10.696;10
14/07/17 14:00;DEZ0215;Eurdep;air;51.75;10.21;0;Germany;0;0;0;OSTERODE AM HARZ;9.693000000000001;9.95
14/07/17 14:00;DEZ0216;Eurdep;air;51.58;10.61;0;Germany;0;0;0;WALKENRIED;9.704;10
12/07/17 00:00;DEZ0218;Eurdep;air;52.27;10.23;0;Germany;0;0;0;GROSS ILSEDE;0;0
14/07/17 14:00;DEZ0220;Eurdep;air;52.32;10.24;0;Germany;0;0;0;PEINE;7.769;8.03
14/07/17 14:00;DEZ0222;Eurdep;air;52.32;10.39;0;Germany;0;0;0;WENDEBURG;7.687;8.17
14/07/17 14:00;DEZ0225;Eurdep;air;52.04;10.6;0;Germany;0;0;0;HORNBURG;10.704;11
14/07/17 14:00;DEZ0227;Eurdep;air;52.04;10.26;0;Germany;0;0;0;SEHLDE;9.244;9.709999999999999
14/07/17 14:00;DEZ0235;Eurdep;air;52.72;8.53;0;Germany;0;0;0;BARNSTORF;6.071;6.36
14/07/17 14:00;DEZ0236;Eurdep;air;52.85;8.73;0;Germany;0;0;0;BASSUM;6.817;7.140000000000001
14/07/17 14:00;DEZ0238;Eurdep;air;52.74;8.7;0;Germany;0;0;0;EHRENBURG;7.337000000000001;7
14/07/17 14:00;DEZ0239;Eurdep;air;52.62;8.65;0;Germany;0;0;0;FREISTATT;6.587999999999999;6.95
14/07/17 14:00;DEZ0240;Eurdep;air;52.59;8.84;0;Germany;0;0;0;KIRCHDORF;6.7299999999999995;6.95
14/07/17 14:00;DEZ0242;Eurdep;air;52.88;9.06;0;Germany;0;0;0;MARTFELD;6.369;6.74
14/07/17 14:00;DEZ0244;Eurdep;air;52.79;8.84;0;Germany;0;0;0;SCHWAFÖRDEN-SUDWALDE;8.068000000000001;8
14/07/17 14:00;DEZ0245;Eurdep;air;52.69;8.82;0;Germany;0;0;0;SULINGEN;6.246;6.590000000000001
14/07/17 14:00;DEZ0246;Eurdep;air;52.93;8.82;0;Germany;0;0;0;SYKE-BARRIEN;7.131;7.42
14/07/17 14:00;DEZ0248;Eurdep;air;52.06;9.33;0;Germany;0;0;0;AERZEN/GR.BERKEL;9.665000000000001;10
14/07/17 14:00;DEZ0250;Eurdep;air;51.97;9.3;0;Germany;0;0;0;BAD PYRMONT;8.711;9
14/07/17 14:00;DEZ0251;Eurdep;air;52.11;9.55;0;Germany;0;0;0;COPPENBRÜGGE;8.967;9.26
14/07/17 14:00;DEZ0253;Eurdep;air;52.15;9.39;0;Germany;0;0;0;UNSEN - HAMELN;8.894;9
14/07/17 14:00;DEZ0254;Eurdep;air;52.17;9.24;0;Germany;0;0;0;HESSISCH-OLDENDORF;8.546;8.93
14/07/17 14:00;DEZ0255;Eurdep;air;52.07;9.58;0;Germany;0;0;0;SALZHEMMENDORF;9;9.379999999999999
14/07/17 14:00;DEZ0256;Eurdep;air;52.45;10;0;Germany;0;0;0;BURGDORF;7.554;7.85
14/07/17 14:00;DEZ0258;Eurdep;air;52.46;9.6;0;Germany;0;0;0;OSTERWALD/STADT GARBSEN;6.515000000000001;6.93
14/07/17 14:00;DEZ0259;Eurdep;air;52.3;9.6;0;Germany;0;0;0;GEHRDEN;8.65;8.93
14/07/17 14:00;DEZ0262;Eurdep;air;52.37;9.97;0;Germany;0;0;0;LEHRTE;7.31;7.51
14/07/17 14:00;DEZ0271;Eurdep;air;52.42;9.43;0;Germany;0;0;0;WUNSTORF;7.659000000000001;8.059999999999999
14/07/17 14:00;DEZ0272;Eurdep;air;51.95;9.84;0;Germany;0;0;0;ALFELD-WISPENSTEIN;8.758;9.11
14/07/17 14:00;DEZ0274;Eurdep;air;52.13;9.73;0;Germany;0;0;0;ELZE;9.787;10
14/07/17 14:00;DEZ0278;Eurdep;air;52.15;10.09;0;Germany;0;0;0;OTTBERGEN;8.601;8.870000000000001
14/07/17 14:00;DEZ0279;Eurdep;air;52.05;9.9;0;Germany;0;0;0;SIBBESSE;9.876000000000001;10
14/07/17 14:00;DEZ0281;Eurdep;air;52.01;9.7;0;Germany;0;0;0;DUINGEN;9.411;9.74
14/07/17 14:00;DEZ0284;Eurdep;air;51.84;9.44;0;Germany;0;0;0;HOLZMINDEN;10.046;10
14/07/17 14:00;DEZ0285;Eurdep;air;51.75;9.52;0;Germany;0;0;0;NEUHAUS - HOLZMINDEN;9.24;9.52
14/07/17 14:00;DEZ0286;Eurdep;air;51.95;9.41;0;Germany;0;0;0;OTTENSTEIN;9.261;9
14/07/17 14:00;DEZ0287;Eurdep;air;51.89;9.63;0;Germany;0;0;0;STADTOLDENDORF;8.838;9.15
14/07/17 14:00;DEZ0290;Eurdep;air;52.6;9.09;0;Germany;0;0;0;LIEBENAU;6.6530000000000005;7.05
14/07/17 14:00;DEZ0292;Eurdep;air;52.47;9.23;0;Germany;0;0;0;REHBURG-LOCCUM;7.731999999999999;8.08
14/07/17 14:00;DEZ0297;Eurdep;air;52.23;9.24;0;Germany;0;0;0;REHREN-AUETAL;8.625;9.18
14/07/17 14:00;DEZ0298;Eurdep;air;52.26;9.03;0;Germany;0;0;0;BÜCKEBURG;7.611;7
14/07/17 14:00;DEZ0302;Eurdep;air;52.61;10.29;0;Germany;0;0;0;AHNSBECK;7.7459999999999996;8
14/07/17 14:00;DEZ0303;Eurdep;air;52.82;9.97;0;Germany;0;0;0;BERGEN;7.226999999999999;7.4799999999999995
14/07/17 14:00;DEZ0309;Eurdep;air;52.65;9.86;0;Germany;0;0;0;WIETZE;6.147;6.32
14/07/17 14:00;DEZ0310;Eurdep;air;52.73;9.85;0;Germany;0;0;0;MEIßENDORF;6.090999999999999;6.32
14/07/17 14:00;DEZ0317;Eurdep;air;53.69;8.56;0;Germany;0;0;0;DORUM;8.027;8
14/07/17 14:00;DEZ0320;Eurdep;air;53.63;9.1;0;Germany;0;0;0;LAMSTEDT;6.767;6.9799999999999995
14/07/17 14:00;DEZ0321;Eurdep;air;53.45;8.63;0;Germany;0;0;0;LOXSTEDT-NESSE;6.9239999999999995;7.12
14/07/17 15:00;DEZ0324;Eurdep;air;53.81;8.9;0;Germany;0;0;0;OTTERNDORF;7.784999999999999;8.17
14/07/17 14:00;DEZ0325;Eurdep;air;53.51;8.81;0;Germany;0;0;0;WEHDEL;6.476999999999999;6.76
14/07/17 14:00;DEZ0326;Eurdep;air;53.74;8.8;0;Germany;0;0;0;WANNA;6.5040000000000004;6.93
14/07/17 14:00;DEZ0327;Eurdep;air;53.64;8.57;0;Germany;0;0;0;WREMEN;8.054;8.42
14/07/17 14:00;DEZ0328;Eurdep;air;53.3;10.05;0;Germany;0;0;0;HANSTEDT/BRACKEL;7.122;7.340000000000001
14/07/17 14:00;DEZ0330;Eurdep;air;53.43;10.31;0;Germany;0;0;0;DRAGE;7.185;7.470000000000001
14/07/17 14:00;DEZ0331;Eurdep;air;53.25;9.83;0;Germany;0;0;0;HANDELOH;7.062;7.279999999999999
14/07/17 14:00;DEZ0332;Eurdep;air;53.2;10.05;0;Germany;0;0;0;EGESTORF-SG HANSTEDT;6.62;6.859999999999999
14/07/17 14:00;DEZ0335;Eurdep;air;53.4;10.41;0;Germany;0;0;0;TESPE;6.937;7.2700000000000005
14/07/17 14:00;DEZ0336;Eurdep;air;53.36;10.2;0;Germany;0;0;0;WINSEN (LUHE);7.2010000000000005;7.390000000000001
14/07/17 14:00;DEZ0341;Eurdep;air;53.14;11.04;0;Germany;0;0;0;HITZACKER;8.344;8.68
14/07/17 14:00;DEZ0342;Eurdep;air;53.07;11.44;0;Germany;0;0;0;HÖHBECK;5.931;6.2299999999999995
14/07/17 14:00;DEZ0343;Eurdep;air;52.98;11.07;0;Germany;0;0;0;KÜSTEN;6.987;7.4799999999999995
14/07/17 14:00;DEZ0344;Eurdep;air;52.92;11.28;0;Germany;0;0;0;SCHWESKAU;6.7620000000000005;6.959999999999999
14/07/17 14:00;DEZ0346;Eurdep;air;53.24;10.87;0;Germany;0;0;0;KATEMIN;6.706;7.06
14/07/17 14:00;DEZ0347;Eurdep;air;52.88;10.89;0;Germany;0;0;0;SCHNEGA;6.726000000000001;7.17
14/07/17 14:00;DEZ0348;Eurdep;air;53;11.32;0;Germany;0;0;0;TREBEL;6.317;6.640000000000001
14/07/17 14:00;DEZ0349;Eurdep;air;53.07;10.88;0;Germany;0;0;0;ZERNIEN;6.404000000000001;6.640000000000001
14/07/17 14:00;DEZ0352;Eurdep;air;53.18;10.75;0;Germany;0;0;0;DAHLENBURG;6.927;7.18
14/07/17 11:00;DEZ0357;Eurdep;air;53.1;10.22;0;Germany;0;0;0;REHLINGEN;6.3420000000000005;6.4799999999999995
14/07/17 14:00;DEZ0362;Eurdep;air;53.5;9.17;0;Germany;0;0;0;BREMERVÖRDE;5.724;6.08
14/07/17 14:00;DEZ0363;Eurdep;air;53.17;9.67;0;Germany;0;0;0;FINTEL;6.819;7.090000000000001
14/07/17 14:00;DEZ0365;Eurdep;air;53.5;8.97;0;Germany;0;0;0;HIPSTEDT;5.877000000000001;6.09
14/07/17 14:00;DEZ0366;Eurdep;air;53.02;9.39;0;Germany;0;0;0;KIRCHWALSEDE;7.162999999999999;7.390000000000001
14/07/17 14:00;DEZ0367;Eurdep;air;53.11;9.4;0;Germany;0;0;0;ROTENBURG;5.939;6.12
14/07/17 14:00;DEZ0372;Eurdep;air;52.99;9.58;0;Germany;0;0;0;VISSELHÖVEDE;6.606999999999999;6.95
14/07/17 14:00;DEZ0374;Eurdep;air;53.11;10.08;0;Germany;0;0;0;STEINBECK;5.68;6.0200000000000005
14/07/17 14:00;DEZ0381;Eurdep;air;53.12;9.8;0;Germany;0;0;0;SCHNEVERDINGEN;7.465999999999999;7.82
14/07/17 14:00;DEZ0383;Eurdep;air;52.9;9.46;0;Germany;0;0;0;WALSRODE OT HAMWIEDE;8.236;8.49
14/07/17 14:00;DEZ0384;Eurdep;air;52.92;9.97;0;Germany;0;0;0;WIETZENDORF;5.763;6.05
14/07/17 14:00;DEZ0385;Eurdep;air;53.83;9.13;0;Germany;0;0;0;BALJE / STADE;7.456999999999999;7
14/07/17 14:00;DEZ0387;Eurdep;air;53.69;9.43;0;Germany;0;0;0;DROCHTERSEN-ASSEL;7.617;7.909999999999999
14/07/17 14:00;DEZ0388;Eurdep;air;53.52;9.4;0;Germany;0;0;0;FREDENBECK;7.196;7.470000000000001
14/07/17 14:00;DEZ0390;Eurdep;air;53.63;9.32;0;Germany;0;0;0;HIMMELPFORTEN;6.759;7.029999999999999
14/07/17 14:00;DEZ0391;Eurdep;air;53.59;9.55;0;Germany;0;0;0;HOLLERN-TWIELENFLETH;7.684;8.01
14/07/17 14:00;DEZ0392;Eurdep;air;53.45;9.51;0;Germany;0;0;0;HARSEFELD;7.329000000000001;7.659999999999999
14/07/17 15:00;DEZ0394;Eurdep;air;53.62;9.53;0;Germany;0;0;0;STADE KKW;7.3549999999999995;7.709999999999999
14/07/17 14:00;DEZ0396;Eurdep;air;53.77;9.32;0;Germany;0;0;0;WISCHHAFEN;7.151000000000001;7.43
14/07/17 14:00;DEZ0397;Eurdep;air;53.09;10.57;0;Germany;0;0;0;BAD BEVENSEN OT MEDINGEN;6.83;7.040000000000001
14/07/17 14:00;DEZ0398;Eurdep;air;53.15;10.49;0;Germany;0;0;0;BIENENBÜTTEL;7.314;7
14/07/17 14:00;DEZ0401;Eurdep;air;53.05;10.38;0;Germany;0;0;0;HANSTEDT 1;5.91;6.15
14/07/17 14:00;DEZ0402;Eurdep;air;52.8;10.76;0;Germany;0;0;0;LÜDER/LANGENBRÜGGE;6.5040000000000004;6.74
14/07/17 14:00;DEZ0407;Eurdep;air;53.05;9.04;0;Germany;0;0;0;OYTEN;7.178;7.37
14/07/17 14:00;DEZ0410;Eurdep;air;53.04;8.59;0;Germany;0;0;0;DELMENHORST;6.848999999999999;7.090000000000001
14/07/17 14:00;DEZ0411;Eurdep;air;53.36;7.16;0;Germany;0;0;0;EMDEN / LARRELT;7.786;8.290000000000001
14/07/17 14:00;DEZ0413;Eurdep;air;53.14;8.24;0;Germany;0;0;0;OLDENBURG;6.0840000000000005;6.42
14/07/17 14:00;DEZ0414;Eurdep;air;52.26;8.11;0;Germany;0;0;0;OSNABRÜCK-DÜSTRUP;6.559;6.959999999999999
14/07/17 14:00;DEZ0416;Eurdep;air;53.6;8.05;0;Germany;0;0;0;WILHELMSHAVEN-SENGWARDEN;7.489;7.720000000000001
14/07/17 14:00;DEZ0418;Eurdep;air;53.25;7.94;0;Germany;0;0;0;WESTERSTEDE;6.29;6.69
14/07/17 14:00;DEZ0420;Eurdep;air;53.47;7.5;0;Germany;0;0;0;AURICH;6.840000000000001;7.57
14/07/17 14:00;DEZ0421;Eurdep;air;53.54;7.62;0;Germany;0;0;0;AURICH-MIDDELS;5.99;6.63
14/07/17 14:00;DEZ0422;Eurdep;air;53.73;7.37;0;Germany;0;0;0;BALTRUM;7.491;8.16
14/07/17 14:00;DEZ0425;Eurdep;air;53.67;7.28;0;Germany;0;0;0;HAGERMARSCH AS HILGENRIEDERSIEL;7.465000000000001;8
14/07/17 14:00;DEZ0427;Eurdep;air;53.5;7.1;0;Germany;0;0;0;KRUMMHÖRN-GREETSIEL;6.976000000000001;7.74
14/07/17 14:00;DEZ0428;Eurdep;air;53.41;7.02;0;Germany;0;0;0;KRUMMHÖRN-CAMPEN;8.343;8.85
14/07/17 14:00;DEZ0429;Eurdep;air;53.5;7.3;0;Germany;0;0;0;MARIENHAFE/SIEGELSUM;6.4430000000000005;6.93
14/07/17 15:00;DEZ0433;Eurdep;air;53.71;7.15;0;Germany;0;0;0;NORDERNEY;6.162;7.0200000000000005
14/07/17 14:00;DEZ0434;Eurdep;air;53.17;7.74;0;Germany;0;0;0;BARßEL-BARßELERMOOR;6.886;7.15
14/07/17 14:00;DEZ0435;Eurdep;air;52.84;8.01;0;Germany;0;0;0;CLOPPENBURG;6.517;6.92
14/07/17 14:00;DEZ0438;Eurdep;air;52.92;7.89;0;Germany;0;0;0;Friesoythe-Augustendorf;6.013;6.659999999999999
14/07/17 14:00;DEZ0439;Eurdep;air;52.96;8.03;0;Germany;0;0;0;GARREL;5.837;6.15
14/07/17 14:00;DEZ0441;Eurdep;air;52.6;7.4;0;Germany;0;0;0;BAWINKEL;5.671;6.17
14/07/17 14:00;DEZ0442;Eurdep;air;52.43;7.51;0;Germany;0;0;0;BEESTEN;6.154999999999999;6.49
14/07/17 14:00;DEZ0446;Eurdep;air;52.45;7.31;0;Germany;0;0;0;ELBERGEN-EMSBÜREN;6.555;7.15
14/07/17 14:00;DEZ0448;Eurdep;air;52.84;7.1;0;Germany;0;0;0;HAREN/EMS OT RÜTENBROCK;5.961;6.890000000000001
14/07/17 14:00;DEZ0449;Eurdep;air;52.68;7.6;0;Germany;0;0;0;HERZLAKE;6.49;7.06
14/07/17 14:00;DEZ0450;Eurdep;air;52.77;7.46;0;Germany;0;0;0;KLEIN BERßEN;7.236;7.94
14/07/17 14:00;DEZ0451;Eurdep;air;52.87;7.33;0;Germany;0;0;0;LATHEN;6.2780000000000005;6.87
14/07/17 14:00;DEZ0453;Eurdep;air;52.56;7.53;0;Germany;0;0;0;LENGERICH;6.745;7
14/07/17 14:00;DEZ0455;Eurdep;air;52.46;7.37;0;Germany;0;0;0;LINGEN-BRAMSCHE;7.604000000000001;8.190000000000001
14/07/17 14:00;DEZ0456;Eurdep;air;52.51;7.29;0;Germany;0;0;0;LINGEN-SCHEPSDORF;5.599;6.029999999999999
14/07/17 14:00;DEZ0458;Eurdep;air;53;7.4;0;Germany;0;0;0;NEULEHE;6.625;7.390000000000001
14/07/17 14:00;DEZ0467;Eurdep;air;53.79;7.91;0;Germany;0;0;0;WANGEROOGE;6.067;6.45
14/07/17 14:00;DEZ0469;Eurdep;air;53.38;7.96;0;Germany;0;0;0;ZETEL-NEUENBURG;7.167;7.55
14/07/17 14:00;DEZ0470;Eurdep;air;52.32;7.17;0;Germany;0;0;0;BAD BENTHEIM;6.266;6.65
09/07/17 00:00;DEZ0474;Eurdep;air;52.57;7.08;0;Germany;0;0;0;GEORGSDORF;0;0
14/07/17 14:00;DEZ0478;Eurdep;air;52.46;7.18;0;Germany;0;0;0;NORDHORN-KLAUSHEIDE;6.615;7.5200000000000005
14/07/17 14:00;DEZ0479;Eurdep;air;52.47;7.02;0;Germany;0;0;0;NORDHORN-FRENSWEGEN;5.851;6
14/07/17 14:00;DEZ0482;Eurdep;air;53.6;6.7;0;Germany;0;0;0;BORKUM;6.537000000000001;7.220000000000001
14/07/17 14:00;DEZ0487;Eurdep;air;53.33;7.34;0;Germany;0;0;0;MOORMERLAND-OLDERSUM;7.2299999999999995;8.08
14/07/17 14:00;DEZ0490;Eurdep;air;53.13;7.23;0;Germany;0;0;0;WYMEER;5.221;6.09
14/07/17 14:00;DEZ0491;Eurdep;air;52.96;8.63;0;Germany;0;0;0;GROß IPPENER;6.603;6.81
14/07/17 14:00;DEZ0492;Eurdep;air;52.94;8.26;0;Germany;0;0;0;GROßENKNETEN;7.151000000000001;7.49
14/07/17 14:00;DEZ0493;Eurdep;air;53.02;8.35;0;Germany;0;0;0;KIRCHHATTEN;6.012;6.26
14/07/17 14:00;DEZ0494;Eurdep;air;53.11;8.46;0;Germany;0;0;0;HUDE;6.384;6.62
14/07/17 14:00;DEZ0495;Eurdep;air;53.06;8.21;0;Germany;0;0;0;WARDENBURG;6.69;6.95
14/07/17 14:00;DEZ0496;Eurdep;air;52.9;8.43;0;Germany;0;0;0;WILDESHAUSEN;6.706;6.890000000000001
14/07/17 13:00;DEZ0498;Eurdep;air;52.32;8.34;0;Germany;0;0;0;BAD ESSEN;8.859;9.040000000000001
28/06/17 00:00;DEZ0501;Eurdep;air;52.45;7.96;0;Germany;0;0;0;BRAMSCHE-HESEPE;0;0
14/07/17 14:00;DEZ0503;Eurdep;air;52.62;7.74;0;Germany;0;0;0;BERGE;7.506;7
14/07/17 14:00;DEZ0505;Eurdep;air;52.38;8.2;0;Germany;0;0;0;OSTERCAPPELN-SCHWAGSTORF;7.4159999999999995;7.859999999999999
14/07/17 14:00;DEZ0506;Eurdep;air;52.67;7.94;0;Germany;0;0;0;QUAKENBRÜCK;6.816;7.109999999999999
14/07/17 14:00;DEZ0510;Eurdep;air;52.71;8.29;0;Germany;0;0;0;VECHTA;7.545;7.7700000000000005
14/07/17 15:00;DEZ0511;Eurdep;air;53.33;8.48;0;Germany;0;0;0;BRAKE-UNTERWESER;7.88;8.23
14/07/17 14:00;DEZ0512;Eurdep;air;53.57;8.36;0;Germany;0;0;0;BUTJADINGEN-BURHAVE;8.258;8.76
14/07/17 14:00;DEZ0514;Eurdep;air;53.25;8.47;0;Germany;0;0;0;ELSFLETH-LIENEN;8.407;8.66
14/07/17 15:00;DEZ0515;Eurdep;air;53.34;8.19;0;Germany;0;0;0;JADE-JADERBERG;6.38;6
19/06/17 00:00;DEZ0516;Eurdep;air;53.48;8.47;0;Germany;0;0;0;NORDENHAM;0;0
14/07/17 14:00;DEZ0518;Eurdep;air;53.27;8.32;0;Germany;0;0;0;OVELGÖNNE-GROßENMEER;7.33;7.609999999999999
14/07/17 14:00;DEZ0519;Eurdep;air;53.46;8.36;0;Germany;0;0;0;STADLAND-SEEFELD;8.295;8.58
14/07/17 14:00;DEZ0521;Eurdep;air;53.65;7.61;0;Germany;0;0;0;ESENS;5.881;6.68
14/07/17 14:00;DEZ0525;Eurdep;air;53.77;7.69;0;Germany;0;0;0;SPIEKEROOG;6.259;6.87
14/07/17 14:00;DEZ0531;Eurdep;air;53.6;8.53;0;Germany;0;0;0;BREMERHAVEN-WEDDEWARDEN;7.742;8.03
14/07/17 14:00;DEZ0532;Eurdep;air;53.5;8.57;0;Germany;0;0;0;BREMERHAVEN-LUNEPLATE;5.904;6.25
14/07/17 14:00;DEZ0533;Eurdep;air;53.55;8.6;0;Germany;0;0;0;BREMERHAVEN-GEESTEMÜNDE;6;6.76
14/07/17 14:00;DEZ0540;Eurdep;air;51.3;6.54;0;Germany;0;0;0;KREFELD-FISCHELN;8.635;9.02
14/07/17 15:00;DEZ0541;Eurdep;air;51.18;6.4;0;Germany;0;0;0;MÖNCHENGLADBACH;8.054;8
14/07/17 14:00;DEZ0543;Eurdep;air;51.19;7.27;0;Germany;0;0;0;REMSCHEID-LENNEP;10.593;11
14/07/17 14:00;DEZ0545;Eurdep;air;51.3;7.2;0;Germany;0;0;0;WUPPERTAL-BARMEN;9.689;10
14/07/17 14:00;DEZ0553;Eurdep;air;51.59;6.21;0;Germany;0;0;0;KEVELAER;7.244;7.470000000000001
14/07/17 14:00;DEZ0560;Eurdep;air;51.28;7.03;0;Germany;0;0;0;WÜLFRATH;9.132;9.559999999999999
14/07/17 14:00;DEZ0562;Eurdep;air;51.1;6.5600000000000005;0;Germany;0;0;0;GREVENBROICH-FÜRTH;10.187000000000001;10
14/07/17 14:00;DEZ0566;Eurdep;air;51.24;6.18;0;Germany;0;0;0;BRÜGGEN;6.965999999999999;7.18
14/07/17 14:00;DEZ0567;Eurdep;air;51.34;6.33;0;Germany;0;0;0;GREFRATH;8.68;8.99
14/07/17 14:00;DEZ0572;Eurdep;air;51.73;6.73;0;Germany;0;0;0;HAMMINKELN-MARIENTHAL;6.9430000000000005;7.279999999999999
14/07/17 14:00;DEZ0582;Eurdep;air;50.99;6.95;0;Germany;0;0;0;KÖLN-WEIDENPESCH;8.84;9.09
14/07/17 14:00;DEZ0585;Eurdep;air;50.6;6.29;0;Germany;0;0;0;SIMMERATH;9.418000000000001;9.64
14/07/17 14:00;DEZ0588;Eurdep;air;50.92;6.33;0;Germany;0;0;0;JÜLICH-KOSLAR;10;10
14/07/17 14:00;DEZ0589;Eurdep;air;50.96;6.43;0;Germany;0;0;0;JÜLICH-GÜSTEN;9.97;10
14/07/17 14:00;DEZ0594;Eurdep;air;51.01;6.43;0;Germany;0;0;0;TITZ;10.57;10
14/07/17 14:00;DEZ0599;Eurdep;air;51.01;6.82;0;Germany;0;0;0;PULHEIM-SINNERSDORF;8.327;8.879999999999999
10/07/17 00:00;DEZ0606;Eurdep;air;51.01;6.04;0;Germany;0;0;0;GANGELT-BIRGDEN;0;0
14/07/17 14:00;DEZ0607;Eurdep;air;51.04;6.13;0;Germany;0;0;0;HEINSBERG-HÜLHOVEN;9.617;10
11/07/17 00:00;DEZ0613;Eurdep;air;51.05;7.26;0;Germany;0;0;0;KÜRTEN;0;0
14/07/17 14:00;DEZ0615;Eurdep;air;50.63;7.22;0;Germany;0;0;0;BAD HONNEF;8;8.85
14/07/17 14:00;DEZ0616;Eurdep;air;50.78;7.01;0;Germany;0;0;0;BORNHEIM;8.312000000000001;8.77
14/07/17 14:00;DEZ0618;Eurdep;air;50.79;7.28;0;Germany;0;0;0;HENNEF/SIEG;8.305;8.64
14/07/17 14:00;DEZ0623;Eurdep;air;51.56;7.07;0;Germany;0;0;0;GELSENKIRCHEN;7.476000000000001;7
14/07/17 14:00;DEZ0624;Eurdep;air;52;7.59;0;Germany;0;0;0;MÜNSTER-KINDERHAUS;8.094;8.36
14/07/17 14:00;DEZ0627;Eurdep;air;52.13;6.91;0;Germany;0;0;0;AHAUS-ALSTÄTTE;6.561;7
14/07/17 14:00;DEZ0628;Eurdep;air;52.04;6.93;0;Germany;0;0;0;AHAUS-OTTENSTEIN;6.659000000000001;7.33
14/07/17 14:00;DEZ0632;Eurdep;air;51.83;6.79;0;Germany;0;0;0;BORKEN-RHEDEBRÜGGE;6.768000000000001;7.18
14/07/17 14:00;DEZ0633;Eurdep;air;51.95;6.99;0;Germany;0;0;0;GESCHER;7.170999999999999;7.68
14/07/17 14:00;DEZ0634;Eurdep;air;52.2;7.03;0;Germany;0;0;0;GRONAU;7;7
14/07/17 13:00;DEZ0635;Eurdep;air;52.22;7.01;0;Germany;0;0;0;GRONAU-SPECHTHOLTSHOOK;7.017;7.26
14/07/17 14:00;DEZ0636;Eurdep;air;52.17;7.06;0;Germany;0;0;0;GRONAU-EPE;6.107;6.7299999999999995
14/07/17 14:00;DEZ0637;Eurdep;air;52.13;7.1;0;Germany;0;0;0;HEEK;6.7090000000000005;7.08
14/07/17 14:00;DEZ0638;Eurdep;air;52.12;7.05;0;Germany;0;0;0;HEEK-AHLE;5.673;6
14/07/17 14:00;DEZ0640;Eurdep;air;52.05;7.15;0;Germany;0;0;0;LEGDEN-ASBECK;7.3469999999999995;7.65
14/07/17 14:00;DEZ0644;Eurdep;air;51.94;6.8100000000000005;0;Germany;0;0;0;SÜDLOHN-OEDING;7.904000000000001;8.58
14/07/17 14:00;DEZ0646;Eurdep;air;52.1;6.85;0;Germany;0;0;0;VREDEN-LÜNTEN;7.945;8.45
14/07/17 14:00;DEZ0647;Eurdep;air;51.79;7.62;0;Germany;0;0;0;ASCHEBERG;6.659999999999999;6.99
14/07/17 14:00;DEZ0651;Eurdep;air;52.03;7.27;0;Germany;0;0;0;ROSENDAHL-DARFELD;6.644;7.090000000000001
14/07/17 14:00;DEZ0652;Eurdep;air;51.85;7.48;0;Germany;0;0;0;SENDEN;6.976999999999999;7.25
14/07/17 14:00;DEZ0653;Eurdep;air;51.54;7.33;0;Germany;0;0;0;CASTROP-RAUXEL;9.202;9.47
14/07/17 14:00;DEZ0654;Eurdep;air;51.67;7.36;0;Germany;0;0;0;DATTELN;6.689;7.040000000000001
14/07/17 14:00;DEZ0655;Eurdep;air;51.66;7;0;Germany;0;0;0;DORSTEN;6.7219999999999995;6.99
14/07/17 14:00;DEZ0656;Eurdep;air;51.73;7.2;0;Germany;0;0;0;HALTERN;6.731;7.18
14/07/17 14:00;DEZ0657;Eurdep;air;51.65;7.16;0;Germany;0;0;0;MARL;6.997;7.459999999999999
14/07/17 15:00;DEZ0660;Eurdep;air;52.13;7.7;0;Germany;0;0;0;GREVEN FLUGHAFEN MS OS;8.516;8.940000000000001
14/07/17 14:00;DEZ0661;Eurdep;air;52.33;7.5;0;Germany;0;0;0;HÖRSTEL-DREIERWALDE;7.0920000000000005;7
14/07/17 14:00;DEZ0664;Eurdep;air;52.11;7.88;0;Germany;0;0;0;LIENEN-KATTENVENNE;8.421;8.73
14/07/17 14:00;DEZ0666;Eurdep;air;52.21;7.19;0;Germany;0;0;0;OCHTRUP;7.276000000000001;7.5200000000000005
14/07/17 14:00;DEZ0668;Eurdep;air;52.16;7.33;0;Germany;0;0;0;STEINFURT-BURGSTEINFURT;7.656999999999999;7.94
14/07/17 14:00;DEZ0672;Eurdep;air;51.89;8.04;0;Germany;0;0;0;ENNIGERLOH-WESTKIRCHEN;7.5329999999999995;7.840000000000001
14/07/17 14:00;DEZ0673;Eurdep;air;51.91;7.8100000000000005;0;Germany;0;0;0;EVERSWINKEL-ALVERSKIRCHEN;6.44;6.659999999999999
14/07/17 14:00;DEZ0674;Eurdep;air;51.8;8.2;0;Germany;0;0;0;OELDE-STROMBERG;7.516;7.69
14/07/17 14:00;DEZ0675;Eurdep;air;52.05;8.03;0;Germany;0;0;0;SASSENBERG-FÜCHTORF;6.5200000000000005;6.74
14/07/17 14:00;DEZ0679;Eurdep;air;52.05;8.3;0;Germany;0;0;0;HALLE-HÖRSTE;6.8629999999999995;7.12
14/07/17 14:00;DEZ0680;Eurdep;air;51.97;8.22;0;Germany;0;0;0;HARSEWINKEL;6.168;6.37
14/07/17 14:00;DEZ0682;Eurdep;air;51.92;8.66;0;Germany;0;0;0;SCHLOß HOLTE-STUKENBROCK;6.371;6.57
14/07/17 14:00;DEZ0685;Eurdep;air;52.23;8.47;0;Germany;0;0;0;RÖDINGHAUSEN;8.592;8.940000000000001
14/07/17 14:00;DEZ0686;Eurdep;air;52.12;8.49;0;Germany;0;0;0;SPENGE-LENZINGHAUSEN;8.544;8.76
14/07/17 14:00;DEZ0687;Eurdep;air;52.17;8.86;0;Germany;0;0;0;VLOTHO;9.809999999999999;10
14/07/17 14:00;DEZ0688;Eurdep;air;51.74;9.01;0;Germany;0;0;0;BAD DRIBURG;9.797;10
14/07/17 14:00;DEZ0692;Eurdep;air;51.79;9.4;0;Germany;0;0;0;HÖXTER;9.946;10
14/07/17 14:00;DEZ0693;Eurdep;air;51.82;9.24;0;Germany;0;0;0;MARIENMÜNSTER-VÖRDEN;11.278;11
14/07/17 14:00;DEZ0694;Eurdep;air;51.88;9.08;0;Germany;0;0;0;STEINHEIM;9.108;9.620000000000001
15/06/17 00:00;DEZ0698;Eurdep;air;51.93;8.89;0;Germany;0;0;0;DETMOLD;0;0
14/07/17 14:00;DEZ0702;Eurdep;air;52.02;8.91;0;Germany;0;0;0;LEMGO;7.074;7.56
14/07/17 14:00;DEZ0705;Eurdep;air;52.26;8.75;0;Germany;0;0;0;BAD OEYNHAUSEN-WULFERD.;8.093;8.32
14/07/17 14:00;DEZ0707;Eurdep;air;52.31;8.61;0;Germany;0;0;0;LÜBBECKE;8.724;9.05
14/07/17 14:00;DEZ0708;Eurdep;air;52.38;8.99;0;Germany;0;0;0;PETERSHAGEN-LAHDE;8.493;8.870000000000001
14/07/17 14:00;DEZ0709;Eurdep;air;52.43;8.6;0;Germany;0;0;0;RAHDEN;6.446;6.69
14/07/17 14:00;DEZ0710;Eurdep;air;52.37;8.46;0;Germany;0;0;0;STEMWEDE-LEVERN;6.965000000000001;7.220000000000001
14/07/17 14:00;DEZ0711;Eurdep;air;51.55;8.55;0;Germany;0;0;0;BÜREN;7.869;8.209999999999999
14/07/17 14:00;DEZ0712;Eurdep;air;51.76;8.56;0;Germany;0;0;0;DELBRÜCK;5.944;6.2299999999999995
14/07/17 14:00;DEZ0714;Eurdep;air;51.62;8.89;0;Germany;0;0;0;LICHTENAU;8.451;8.99
14/07/17 14:00;DEZ0719;Eurdep;air;51.43;7.19;0;Germany;0;0;0;BOCHUM;9.812999999999999;10
14/07/17 14:00;DEZ0721;Eurdep;air;51.47;7.6;0;Germany;0;0;0;DORTMUND-LICHTENDORF;9.825;10
14/07/17 14:00;DEZ0726;Eurdep;air;51.36;7.3;0;Germany;0;0;0;SPROCKHÖVEL-HIDDINGHAUSEN;8.883;9.33
14/07/17 14:00;DEZ0730;Eurdep;air;51.39;8.58;0;Germany;0;0;0;BRILON;8.92;9.209999999999999
14/07/17 14:00;DEZ0733;Eurdep;air;51.47;8.85;0;Germany;0;0;0;MARSBERG;10.261;10
14/07/17 15:00;DEZ0737;Eurdep;air;51.16;8.29;0;Germany;0;0;0;SCHMALLENBERG;11.725;12
14/07/17 14:00;DEZ0739;Eurdep;air;51.32;8;0;Germany;0;0;0;SUNDERN;8.805;9.11
14/07/17 14:00;DEZ0748;Eurdep;air;51.12;7.88;0;Germany;0;0;0;ATTENDORN-NEULISTERNOHL;10.073;10
14/07/17 14:00;DEZ0750;Eurdep;air;51.08;8.1;0;Germany;0;0;0;KIRCHHUNDEM;11.826;12
14/07/17 14:00;DEZ0752;Eurdep;air;50.98;7.85;0;Germany;0;0;0;WENDEN-GERLINGEN;11.093;11
14/07/17 14:00;DEZ0753;Eurdep;air;51.08;8.42;0;Germany;0;0;0;BAD BERLEBURG-WEMLIGHAUSEN;10.404;10
14/07/17 14:00;DEZ0761;Eurdep;air;51.66;8.05;0;Germany;0;0;0;LIPPETAL-LIPPBORG;6.872;7.209999999999999
14/07/17 14:00;DEZ0763;Eurdep;air;51.69;8.44;0;Germany;0;0;0;LIPPSTADT-HÖRSTE;6.12;6
14/07/17 14:00;DEZ0766;Eurdep;air;51.5;8.44;0;Germany;0;0;0;RÜTHEN;8.081;8.39
14/07/17 14:00;DEZ0767;Eurdep;air;51.43;8.34;0;Germany;0;0;0;WARSTEIN;9.047;9.35
14/07/17 14:00;DEZ0771;Eurdep;air;51.62;7.52;0;Germany;0;0;0;LÜNEN;7.390000000000001;7.7299999999999995
14/07/17 14:00;DEZ0772;Eurdep;air;51.54;7.73;0;Germany;0;0;0;UNNA-MÜHLHAUSEN;8.775;9.36
14/07/17 13:00;DEZ0775;Eurdep;air;50.16;8.65;0;Germany;0;0;0;FRANKFURT A.M. ST ESCHERSHEIM;9.199;9.67
14/07/17 14:00;DEZ0778;Eurdep;air;50.02;8.53;0;Germany;0;0;0;FRANKFURT A.M.;7.397;7.909999999999999
14/07/17 14:00;DEZ0781;Eurdep;air;50.09;8.22;0;Germany;0;0;0;WIESBADEN;9.868;10
14/07/17 14:00;DEZ0786;Eurdep;air;49.67;8.53;0;Germany;0;0;0;EINHAUSEN;8.456999999999999;8.84
14/07/17 14:00;DEZ0790;Eurdep;air;49.59;8.81;0;Germany;0;0;0;WALDMICHELBACH ST GADERN;11.251999999999999;11
14/07/17 14:00;DEZ0791;Eurdep;air;49.74;8.62;0;Germany;0;0;0;ALSBACH-HÄHNLEIN;9.268;9.65
14/07/17 14:00;DEZ0794;Eurdep;air;49.8;8.64;0;Germany;0;0;0;PFUNGSTADT;9.203;9.540000000000001
14/07/17 14:00;DEZ0796;Eurdep;air;49.77;8.48;0;Germany;0;0;0;BIEBESHEIM;9.119;9.559999999999999
14/07/17 14:00;DEZ0797;Eurdep;air;49.91;8.48;0;Germany;0;0;0;GROß-GERAU;9.43;9
14/07/17 14:00;DEZ0798;Eurdep;air;49.97;8.58;0;Germany;0;0;0;MÖRFELDEN-WALLDORF;7.672;8.040000000000001
14/07/17 14:00;DEZ0799;Eurdep;air;49.84;8.45;0;Germany;0;0;0;RIEDSTADT;8.836;9.18
14/07/17 14:00;DEZ0803;Eurdep;air;50.31;8.56;0;Germany;0;0;0;WEHRHEIM;9.742;10
14/07/17 14:00;DEZ0805;Eurdep;air;50.12;9.47;0;Germany;0;0;0;FLÖRSBACHTAL OT LOHRHAUPTEN;9.603;10
14/07/17 14:00;DEZ0807;Eurdep;air;50.2;9.18;0;Germany;0;0;0;GELNHAUSEN;9.704;10
14/07/17 14:00;DEZ0811;Eurdep;air;50.35;9.53;0;Germany;0;0;0;SCHLÜCHTERN;10.806999999999999;11
14/07/17 14:00;DEZ0812;Eurdep;air;50.26;9.52;0;Germany;0;0;0;STEINAU A.D.STR. OT MARJOß;9.011;9.959999999999999
14/07/17 14:00;DEZ0813;Eurdep;air;50.27;9.32;0;Germany;0;0;0;WÄCHTERSBACH;9.848;10
14/07/17 14:00;DEZ0814;Eurdep;air;50.06;8.37;0;Germany;0;0;0;HOFHEIM A.T. /WALLAU;9.918000000000001;10
14/07/17 14:00;DEZ0816;Eurdep;air;49.81;9.05;0;Germany;0;0;0;BREUBERG OT RAI-BREITENBACH;10.034;10
14/07/17 14:00;DEZ0818;Eurdep;air;49.72;8.84;0;Germany;0;0;0;REICHELSHEIM (ODW);11.47;11
14/07/17 14:00;DEZ0819;Eurdep;air;49.5;8.92;0;Germany;0;0;0;ROTHENBERG;8.336;8.75
14/07/17 14:00;DEZ0820;Eurdep;air;50.02;8.8;0;Germany;0;0;0;DIETZENBACH;7.978;8.25
14/07/17 14:00;DEZ0821;Eurdep;air;49.96;8.66;0;Germany;0;0;0;EGELSBACH;9.173;9.43
14/07/17 14:00;DEZ0823;Eurdep;air;50.05;8.97;0;Germany;0;0;0;SELIGENSTADT;9.247;9.52
14/07/17 14:00;DEZ0824;Eurdep;air;50.16;8.06;0;Germany;0;0;0;BAD SCHWALBACH;10;10
21/06/17 00:00;DEZ0828;Eurdep;air;50.05;7.8;0;Germany;0;0;0;LORCH;0;0
06/07/17 00:00;DEZ0830;Eurdep;air;50.29;8.95;0;Germany;0;0;0;ALTENSTADT;0;0
14/07/17 14:00;DEZ0832;Eurdep;air;50.29;9.11;0;Germany;0;0;0;BÜDINGEN;9.83;10
14/07/17 14:00;DEZ0835;Eurdep;air;50.32;8.75;0;Germany;0;0;0;FRIEDBERG (HESSEN);9.273;9.790000000000001
14/07/17 14:00;DEZ0836;Eurdep;air;50.39;9.14;0;Germany;0;0;0;HIRZENHAIN;9.498999999999999;9.98
14/07/17 14:00;DEZ0840;Eurdep;air;50.47;8.89;0;Germany;0;0;0;HUNGEN;9.756;10
14/07/17 14:00;DEZ0847;Eurdep;air;50.58;8.29;0;Germany;0;0;0;GREIFENSTEIN;9.866;10
14/07/17 14:00;DEZ0850;Eurdep;air;50.3;8.27;0;Germany;0;0;0;BAD CAMBERG;10.253;10
14/07/17 14:00;DEZ0851;Eurdep;air;50.44;8.03;0;Germany;0;0;0;HADAMAR;10.067;10
14/07/17 14:00;DEZ0853;Eurdep;air;50.48;8.24;0;Germany;0;0;0;WEILBURG;9.946;10
14/07/17 14:00;DEZ0854;Eurdep;air;50.43;8.38;0;Germany;0;0;0;WEILMÜNSTER;9.965;10
14/07/17 14:00;DEZ0858;Eurdep;air;50.69;8.61;0;Germany;0;0;0;LOHRA OT KIRCHVERS;9.651;10
14/07/17 14:00;DEZ0859;Eurdep;air;50.79;8.77;0;Germany;0;0;0;MARBURG;8.952;9.57
14/07/17 14:00;DEZ0860;Eurdep;air;50.82;8.99;0;Germany;0;0;0;STADTALLENDORF;8.736;9.09
14/07/17 14:00;DEZ0862;Eurdep;air;50.72;9.25;0;Germany;0;0;0;ALSFELD;11.548;12
14/07/17 14:00;DEZ0864;Eurdep;air;50.69;9.05;0;Germany;0;0;0;GEMÜNDEN (FELDA);8.143;8.48
14/07/17 14:00;DEZ0865;Eurdep;air;50.63;9.39;0;Germany;0;0;0;LAUTERBACH;8.57;8
14/07/17 14:00;DEZ0866;Eurdep;air;50.67;9.57;0;Germany;0;0;0;SCHLITZ;10;10
14/07/17 15:00;DEZ0874;Eurdep;air;50.5;9.94;0;Germany;0;0;0;GERSFELD/RHÖN;9.062000000000001;9.42
14/07/17 14:00;DEZ0882;Eurdep;air;50.65;10.02;0;Germany;0;0;0;TANN (RHÖN);10.626000000000001;10
14/07/17 14:00;DEZ0893;Eurdep;air;51.25;9.37;0;Germany;0;0;0;BAUNATAL OT GROßENRITTE;9.645999999999999;10
14/07/17 14:00;DEZ0899;Eurdep;air;51.49;9.59;0;Germany;0;0;0;REINHARDSHAGEN OT VECKERHAGEN;8.703;8.93
14/07/17 14:00;DEZ0903;Eurdep;air;51.37;9.3;0;Germany;0;0;0;ZIERENBERG;10;10
14/07/17 14:00;DEZ0905;Eurdep;air;51.02;9.41;0;Germany;0;0;0;HOMBERG (EFZE);11.03;11
14/07/17 14:00;DEZ0911;Eurdep;air;51.38;9;0;Germany;0;0;0;BAD AROLSEN;9.956;10
14/07/17 14:00;DEZ0913;Eurdep;air;51.01;8.63;0;Germany;0;0;0;BATTENBERG (EDER);10.663;11
14/07/17 14:00;DEZ0914;Eurdep;air;51.36;8.81;0;Germany;0;0;0;DIEMELSEE OT ADORF;9.961;10
14/07/17 14:00;DEZ0918;Eurdep;air;50.97;8.98;0;Germany;0;0;0;GEMÜNDEN (WOHRA);10.663;11
14/07/17 14:00;DEZ0920;Eurdep;air;51.2;8.8;0;Germany;0;0;0;LICHTENFELS ST GODDELSHEIM;9.714;10
14/07/17 14:00;DEZ0921;Eurdep;air;51.23;9.09;0;Germany;0;0;0;WALDECK OT NETZE;10.211;10
14/07/17 14:00;DEZ0922;Eurdep;air;51.28;8.66;0;Germany;0;0;0;WILLINGEN OT USSELN;10.952;11
14/07/17 14:00;DEZ0926;Eurdep;air;51.04;10.15;0;Germany;0;0;0;HERLESHAUSEN;9.983;10
14/07/17 14:00;DEZ0927;Eurdep;air;51.2;9.65;0;Germany;0;0;0;HESSISCH LICHTENAU OT QUENTEL;10.873999999999999;11
14/07/17 14:00;DEZ0928;Eurdep;air;51.24;10.06;0;Germany;0;0;0;MEINHARD OT HITZELRODE;10.346;10
14/07/17 14:00;DEZ0931;Eurdep;air;51.19;10.18;0;Germany;0;0;0;WANFRIED;11.693000000000001;12
14/07/17 14:00;DEZ0932;Eurdep;air;51.35;9.86;0;Germany;0;0;0;WITZENHAUSEN;11.244;11
14/07/17 14:00;DEZ0933;Eurdep;air;50.51;6.99;0;Germany;0;0;0;ALTENAHR-ALTENBURG;10.97;11
14/07/17 14:00;DEZ0935;Eurdep;air;50.46;7.21;0;Germany;0;0;0;NIEDERZISSEN;11.589;12
14/07/17 14:00;DEZ0942;Eurdep;air;49.79;7.49;0;Germany;0;0;0;KIRN/NAHE;10.311;10
14/07/17 14:00;DEZ0943;Eurdep;air;49.95;7.79;0;Germany;0;0;0;STROMBERG;10.22;10
14/07/17 14:00;DEZ0945;Eurdep;air;49.88;7.63;0;Germany;0;0;0;WINTERBACH;10.83;11
14/07/17 14:00;DEZ0949;Eurdep;air;49.7;7.35;0;Germany;0;0;0;IDAR-OBERSTEIN;10.318999999999999;10
14/07/17 14:00;DEZ0950;Eurdep;air;49.86;7.34;0;Germany;0;0;0;RHAUNEN/HUNSRÜCK;11.652;12
14/07/17 14:00;DEZ0954;Eurdep;air;50.22;6.98;0;Germany;0;0;0;ULMEN;10;11
14/07/17 14:00;DEZ0957;Eurdep;air;50.32;7.22;0;Germany;0;0;0;MAYEN;11.706999999999999;12
14/07/17 14:00;DEZ0959;Eurdep;air;50.41;7.55;0;Germany;0;0;0;KALTENENGERS;10.344;10
14/07/17 14:00;DEZ0960;Eurdep;air;50.39;7.5;0;Germany;0;0;0;MÜLHEIM-KÄRLICH;12.385;13
14/07/17 14:00;DEZ0961;Eurdep;air;50.34;7.46;0;Germany;0;0;0;WOLKEN;11.937000000000001;12
14/07/17 14:00;DEZ0962;Eurdep;air;50.24;7.36;0;Germany;0;0;0;MÜNSTERMAIFELD;11;11
14/07/17 14:00;DEZ0965;Eurdep;air;50.56;7.29;0;Germany;0;0;0;LINZ AM RHEIN;9.456999999999999;9.86
14/07/17 14:00;DEZ0966;Eurdep;air;50.43;7.48;0;Germany;0;0;0;NEUWIED;10.856;11
14/07/17 14:00;DEZ0967;Eurdep;air;50.17;7.5600000000000005;0;Germany;0;0;0;HALSENBACH;11.663;11
14/07/17 14:00;DEZ0968;Eurdep;air;50.07;7.45;0;Germany;0;0;0;KASTELLAUN;11.870000000000001;12
14/07/17 14:00;DEZ0969;Eurdep;air;49.91;7.51;0;Germany;0;0;0;MENGERSCHIED;11.326;11
14/07/17 14:00;DEZ0970;Eurdep;air;49.98;7.52;0;Germany;0;0;0;SIMMERN;11.241;11
14/07/17 14:00;DEZ0973;Eurdep;air;50.35;7.89;0;Germany;0;0;0;HOLZAPPEL;11.141;11
14/07/17 14:00;DEZ0974;Eurdep;air;50.27;7.98;0;Germany;0;0;0;KATZENELNBOGEN;12.222;12
14/07/17 14:00;DEZ0975;Eurdep;air;50.32;7.59;0;Germany;0;0;0;LAHNSTEIN;10;10
14/07/17 14:00;DEZ0976;Eurdep;air;50.2;7.86;0;Germany;0;0;0;NASTÄTTEN;9.793000000000001;10
14/07/17 14:00;DEZ0977;Eurdep;air;50.15;7.73;0;Germany;0;0;0;ST. GOARSHAUSEN;11.356;11
14/07/17 14:00;DEZ0978;Eurdep;air;50.27;7.83;0;Germany;0;0;0;SINGHOFEN;10.306999999999999;10
14/07/17 14:00;DEZ0984;Eurdep;air;50.65;7.72;0;Germany;0;0;0;WAHLROD;9.72;9.98
14/07/17 15:00;DEZ0985;Eurdep;air;49.75;6.66;0;Germany;0;0;0;TRIER;10.725;11
14/07/17 14:00;DEZ0988;Eurdep;air;50.09;6.8100000000000005;0;Germany;0;0;0;MANDERSCHEID;10.198;10
14/07/17 14:00;DEZ0989;Eurdep;air;49.86;6.9;0;Germany;0;0;0;NEUMAGEN-DHRON;11.067;11
14/07/17 14:00;DEZ0994;Eurdep;air;50.02;6.23;0;Germany;0;0;0;KARLSHAUSEN;10.926;11
14/07/17 14:00;DEZ0997;Eurdep;air;49.94;6.64;0;Germany;0;0;0;SPEICHER;10.933;11
14/07/17 14:00;DEZ0998;Eurdep;air;49.97;6.19;0;Germany;0;0;0;WALDHOF-FALKENSTEIN;10.24;10
14/07/17 14:00;DEZ1000;Eurdep;air;50.3;6.34;0;Germany;0;0;0;AUW BEI PRÜM;9.657;10
14/07/17 14:00;DEZ1003;Eurdep;air;50.1;6.45;0;Germany;0;0;0;FEUERSCHEID;9.461;9.879999999999999
14/07/17 14:00;DEZ1004;Eurdep;air;50.16;6.22;0;Germany;0;0;0;GROßKAMPENBERG;10.190999999999999;10
14/07/17 14:00;DEZ1006;Eurdep;air;50.21;6.42;0;Germany;0;0;0;PRÜM;10.556000000000001;10
14/07/17 14:00;DEZ1008;Eurdep;air;50.29;6.67;0;Germany;0;0;0;HILLESHEIM;10.077;10
14/07/17 14:00;DEZ1009;Eurdep;air;50.35;6.57;0;Germany;0;0;0;JÜNKERATH;10.937000000000001;11
14/07/17 14:00;DEZ1011;Eurdep;air;50.33;6.45;0;Germany;0;0;0;ORMONT;9.497;9.84
14/07/17 14:00;DEZ1016;Eurdep;air;49.6;6.5600000000000005;0;Germany;0;0;0;SAARBURG;10.433;10
14/07/17 14:00;DEZ1019;Eurdep;air;49.67;6.52;0;Germany;0;0;0;TAWERN;10.058;10
14/07/17 14:00;DEZ1021;Eurdep;air;49.6;6.42;0;Germany;0;0;0;WINCHERINGEN;11.119;11
14/07/17 14:00;DEZ1022;Eurdep;air;49.6;6.69;0;Germany;0;0;0;ZERF;9.918000000000001;10
14/07/17 14:00;DEZ1028;Eurdep;air;49.2;7.62;0;Germany;0;0;0;PIRMASENS;11.404;11
14/07/17 14:00;DEZ1030;Eurdep;air;49.67;8.35;0;Germany;0;0;0;WORMS;8.979000000000001;9.379999999999999
14/07/17 14:00;DEZ1032;Eurdep;air;49.74;8.12;0;Germany;0;0;0;ALZEY;12;13
14/07/17 14:00;DEZ1034;Eurdep;air;49.77;7.95;0;Germany;0;0;0;STEIN-BOCKENHEIM;10.811;11
14/07/17 14:00;DEZ1036;Eurdep;air;49.47;8.19;0;Germany;0;0;0;BAD DÜRKHEIM;9.407;9.61
14/07/17 14:00;DEZ1037;Eurdep;air;49.35;7.94;0;Germany;0;0;0;ELMSTEIN;9.893;10
14/07/17 14:00;DEZ1038;Eurdep;air;49.57;8.18;0;Germany;0;0;0;GRÜNSTADT;9.554;9.85
14/07/17 14:00;DEZ1039;Eurdep;air;49.41;8.01;0;Germany;0;0;0;WEIDENTHAL;9.265;9.629999999999999
14/07/17 14:00;DEZ1041;Eurdep;air;49.66;8.01;0;Germany;0;0;0;KIRCHHEIMBOLANDEN;12.481;12
14/07/17 14:00;DEZ1042;Eurdep;air;49.73;7.78;0;Germany;0;0;0;OBERMOSCHEL;12.574;13
14/07/17 14:00;DEZ1043;Eurdep;air;49.6;7.78;0;Germany;0;0;0;GUNDERSWEILER;11.704;12
14/07/17 14:00;DEZ1045;Eurdep;air;49.21;8.36;0;Germany;0;0;0;GERMERSHEIM;8.925;9.24
14/07/17 14:00;DEZ1046;Eurdep;air;48.99;8.24;0;Germany;0;0;0;NEUBURG AM RHEIN;8.859;9.690000000000001
14/07/17 14:00;DEZ1049;Eurdep;air;49.05;8.25;0;Germany;0;0;0;WÖRTH AM RHEIN;8.107;8.34
14/07/17 14:00;DEZ1051;Eurdep;air;49.49;7.89;0;Germany;0;0;0;ENKENBACH-ALSENBORN;9.408;9.68
14/07/17 14:00;DEZ1058;Eurdep;air;49.28;8.23;0;Germany;0;0;0;BÖBINGEN;9.370000000000001;9.77
14/07/17 14:00;DEZ1059;Eurdep;air;49.05;8.03;0;Germany;0;0;0;STEINFELD;9.743;10
14/07/17 14:00;DEZ1060;Eurdep;air;49.26;8.4;0;Germany;0;0;0;RÖMERBERG-MECHTERSHEIM;9.046;9.26
14/07/17 14:00;DEZ1061;Eurdep;air;49.4;8.39;0;Germany;0;0;0;SCHIFFERSTADT;9.33;9.66
14/07/17 14:00;DEZ1065;Eurdep;air;49.97;8.26;0;Germany;0;0;0;MAINZ-HECHTSHEIM;11.193000000000001;11
14/07/17 14:00;DEZ1071;Eurdep;air;49.32;7.7;0;Germany;0;0;0;HELTERSBERG;8.614;8.84
14/07/17 14:00;DEZ1072;Eurdep;air;49.26;7.5600000000000005;0;Germany;0;0;0;THALEISCHWEILER-FRÖSCHEN;10.196;10
14/07/17 14:00;DEZ1073;Eurdep;air;49.22;7.9;0;Germany;0;0;0;WILGARTSWIESEN;9.34;9.74
14/07/17 14:00;DEZ1075;Eurdep;air;49.19;7.44;0;Germany;0;0;0;DIETRICHINGEN;11.993;12
14/07/17 14:00;DEZ1078;Eurdep;air;48.78;9.18;0;Germany;0;0;0;STUTTGART;11.267;11
14/07/17 14:00;DEZ1079;Eurdep;air;48.69;9.04;0;Germany;0;0;0;BÖBLINGEN;10.433;11
14/07/17 14:00;DEZ1080;Eurdep;air;48.6;8.86;0;Germany;0;0;0;HERRENBERG;10.693000000000001;11
14/07/17 13:00;DEZ1081;Eurdep;air;48.8;9;0;Germany;0;0;0;LEONBERG;11.645;11
14/07/17 14:00;DEZ1082;Eurdep;air;48.72;8.98;0;Germany;0;0;0;SINDELFINGEN;11.133;11
14/07/17 14:00;DEZ1084;Eurdep;air;48.75;9.32;0;Germany;0;0;0;ESSLINGEN;10.404;10
14/07/17 14:00;DEZ1086;Eurdep;air;48.74;9.48;0;Germany;0;0;0;LICHTENWALD;8.743;9.15
14/07/17 14:00;DEZ1087;Eurdep;air;48.55;9.37;0;Germany;0;0;0;NEUFFEN;9.615;10
14/07/17 14:00;DEZ1090;Eurdep;air;48.72;9.26;0;Germany;0;0;0;OSTFILDERN ST RUIT;8.916;9.24
14/07/17 14:00;DEZ1091;Eurdep;air;48.68;9.93;0;Germany;0;0;0;BÖHMENKIRCH;9.299;9.65
14/07/17 14:00;DEZ1092;Eurdep;air;48.74;9.72;0;Germany;0;0;0;GÖPPINGEN ST HOHENSTAUF.;10.149;10
14/07/17 14:00;DEZ1104;Eurdep;air;48.99;9.55;0;Germany;0;0;0;MURRHARDT;11;11
14/07/17 14:00;DEZ1109;Eurdep;air;49.18;8.83;0;Germany;0;0;0;EPPINGEN ST ELSENZ;11.084999999999999;11
14/07/17 14:00;DEZ1117;Eurdep;air;49.28;9.8;0;Germany;0;0;0;KÜNZELSAU ST NITZENHAUSEN;11.159;11
14/07/17 14:00;DEZ1118;Eurdep;air;49.3;9.62;0;Germany;0;0;0;NIEDERNHALL;12.341;12
14/07/17 14:00;DEZ1121;Eurdep;air;49.29;10.04;0;Germany;0;0;0;BLAUFELDEN OT WIESENBACH;10.452;10
14/07/17 14:00;DEZ1126;Eurdep;air;49.08;9.55;0;Germany;0;0;0;MAINHARDT;9.446;10
14/07/17 14:00;DEZ1127;Eurdep;air;49.1;9.73;0;Germany;0;0;0;SCHWÄBISCH HALL;11.940999999999999;12
14/07/17 14:00;DEZ1129;Eurdep;air;49.08;9.98;0;Germany;0;0;0;FRANKENHARDT OT GRÜNDELH.;9.527;10
14/07/17 14:00;DEZ1130;Eurdep;air;49.41;9.83;0;Germany;0;0;0;BAD MERGENTHEIM ST HERBSTHAUSEN;10.393;10
14/07/17 14:00;DEZ1132;Eurdep;air;49.67;9.74;0;Germany;0;0;0;GROßRINDERFELD;9.692;10
14/07/17 11:00;DEZ1133;Eurdep;air;49.53;9.85;0;Germany;0;0;0;IGERSHEIM OT HARTHAUSEN;9.701;10
14/07/17 14:00;DEZ1140;Eurdep;air;48.86;9.79;0;Germany;0;0;0;DURLANGEN;10.674;11
14/07/17 14:00;DEZ1144;Eurdep;air;48.76;10.33;0;Germany;0;0;0;NERESHEIM;7.654999999999999;7.9799999999999995
14/07/17 14:00;DEZ1145;Eurdep;air;48.94;10.37;0;Germany;0;0;0;UNTERSCHNEIDHEIM;9.364;9.98
14/07/17 14:00;DEZ1146;Eurdep;air;48.83;10.12;0;Germany;0;0;0;AALEN ST UNTERKOCHEN;7.753;8.08
14/07/17 14:00;DEZ1154;Eurdep;air;49.12;8.73;0;Germany;0;0;0;KRAICHTAL ST MÜNZESHEIM;11.511;12
14/07/17 14:00;DEZ1156;Eurdep;air;49.13;8.53;0;Germany;0;0;0;KARLSDORF-NEUTHARD OT K.;8.989;9.620000000000001
14/07/17 14:00;DEZ1160;Eurdep;air;49.09;8.48;0;Germany;0;0;0;STUTENSEE OT FRIEDRICHST.;8.965;9.459999999999999
14/07/17 14:00;DEZ1163;Eurdep;air;48.69;8.13;0;Germany;0;0;0;BÜHL;11.440999999999999;11
14/07/17 14:00;DEZ1164;Eurdep;air;48.69;8.36;0;Germany;0;0;0;FORBACH OT GAUSBACH;12.922;13
14/07/17 14:00;DEZ1165;Eurdep;air;48.61;8.28;0;Germany;0;0;0;FORBACH OT HUNDSBACH;13.763;14
14/07/17 13:00;DEZ1166;Eurdep;air;48.79;8.33;0;Germany;0;0;0;GAGGENAU ST OTTENAU;10.464;11
14/07/17 14:00;DEZ1170;Eurdep;air;48.75;8;0;Germany;0;0;0;RHEINMÜNSTER OT GREFFERN;8.714;9
14/07/17 14:00;DEZ1174;Eurdep;air;49.37;9.42;0;Germany;0;0;0;ADELSHEIM ST LEIBENSTADT;11.515;12
14/07/17 14:00;DEZ1176;Eurdep;air;49.52;9.33;0;Germany;0;0;0;BUCHEN;9.937000000000001;10
14/07/17 14:00;DEZ1177;Eurdep;air;49.61;9.47;0;Germany;0;0;0;HARDHEIM;11.007;11
14/07/17 14:00;DEZ1196;Eurdep;air;48.66;8.6;0;Germany;0;0;0;NEUWEILER;10.495999999999999;11
14/07/17 14:00;DEZ1197;Eurdep;air;48.57;8.69;0;Germany;0;0;0;ROHRDORF;11.196;11
14/07/17 14:00;DEZ1199;Eurdep;air;48.7;8.53;0;Germany;0;0;0;BAD WILDBAD;8.32;8.84
14/07/17 14:00;DEZ1200;Eurdep;air;48.71;8.76;0;Germany;0;0;0;CALW ST HEUMADEN;10.863;11
14/07/17 14:00;DEZ1203;Eurdep;air;48.85;8.58;0;Germany;0;0;0;NEUENBÜRG;12.033;12
14/07/17 14:00;DEZ1206;Eurdep;air;48.35;8.39;0;Germany;0;0;0;ALPIRSBACH;14.315000000000001;14
14/07/17 14:00;DEZ1210;Eurdep;air;48.52;8.56;0;Germany;0;0;0;PFALZGRAFENWEILER;11.733;12
14/07/17 14:00;DEZ1211;Eurdep;air;48.59;8.42;0;Germany;0;0;0;SEEWALD OT BESENFELD;10.67;11
14/07/17 15:00;DEZ1213;Eurdep;air;47.92;7.91;0;Germany;0;0;0;SCHAUINSLAND FREIBURG;11.331999999999999;12
14/07/17 14:00;DEZ1218;Eurdep;air;47.98;7.91;0;Germany;0;0;0;FREIBURG ST EBNET;11.019;13
14/07/17 14:00;DEZ1223;Eurdep;air;47.86;8.11;0;Germany;0;0;0;FELDBERG OT ALTGLASHÜTTEN;12.281;13
14/07/17 14:00;DEZ1229;Eurdep;air;48.17;8.06;0;Germany;0;0;0;ELZACH;11.507;12
14/07/17 14:00;DEZ1232;Eurdep;air;48.16;7.64;0;Germany;0;0;0;WYHL;10.726;11
14/07/17 14:00;DEZ1235;Eurdep;air;48.66;8.02;0;Germany;0;0;0;ACHERN OT GAMSHURST;10.337;10
14/07/17 14:00;DEZ1236;Eurdep;air;48.43;8.21;0;Germany;0;0;0;BAD PETERSTAL-GRIEßBACH;12;12
14/07/17 14:00;DEZ1241;Eurdep;air;48.53;8.07;0;Germany;0;0;0;OBERKIRCH;11.381;11
14/07/17 14:00;DEZ1244;Eurdep;air;48.27;7.95;0;Germany;0;0;0;SCHUTTERTAL;10.748000000000001;11
14/07/17 14:00;DEZ1245;Eurdep;air;48.45;7.89;0;Germany;0;0;0;SCHUTTERWALD;12.293000000000001;12
14/07/17 14:00;DEZ1248;Eurdep;air;48.35;7.76;0;Germany;0;0;0;SCHWANAU OT NONNENWEIER;9.077;9.53
14/07/17 14:00;DEZ1249;Eurdep;air;48.47;7.8;0;Germany;0;0;0;NEURIED OT ALTENHEIM;8.709;9.15
14/07/17 14:00;DEZ1252;Eurdep;air;48.29;8.56;0;Germany;0;0;0;OBERNDORF/N. ST LINDENHOF;13.748;14
14/07/17 14:00;DEZ1253;Eurdep;air;48.25;8.44;0;Germany;0;0;0;SCHRAMBERG ST BRAMBACH;11.83;12
14/07/17 14:00;DEZ1258;Eurdep;air;48.12;8.39;0;Germany;0;0;0;ST. GEORGEN;12.367;13
14/07/17 14:00;DEZ1260;Eurdep;air;48;8.32;0;Germany;0;0;0;VÖHRENBACH ST HAMMEREIS.;14.626;15
14/07/17 14:00;DEZ1263;Eurdep;air;48.01;8.66;0;Germany;0;0;0;TALHEIM;10.856;11
14/07/17 14:00;DEZ1264;Eurdep;air;47.99;8.81;0;Germany;0;0;0;TUTTLINGEN;10.637;11
14/07/17 14:00;DEZ1265;Eurdep;air;47.86;8.78;0;Germany;0;0;0;ENGEN;8.912;9.98
14/07/17 15:00;DEZ1268;Eurdep;air;47.68;9.19;0;Germany;0;0;0;KONSTANZ;9.387;11
14/07/17 14:00;DEZ1269;Eurdep;air;47.66;8.89;0;Germany;0;0;0;ÖHNINGEN;8.644;10
14/07/17 14:00;DEZ1270;Eurdep;air;47.74;8.98;0;Germany;0;0;0;RADOLFZELL;8.564;10
14/07/17 14:00;DEZ1273;Eurdep;air;47.86;9.01;0;Germany;0;0;0;STOCKACH;9.974;10
14/07/17 14:00;DEZ1274;Eurdep;air;47.82;8.66;0;Germany;0;0;0;TENGEN;9.92;10
14/07/17 14:00;DEZ1275;Eurdep;air;47.74;7.55;0;Germany;0;0;0;BAD BELLINGEN;9.004000000000001;9.35
14/07/17 14:00;DEZ1276;Eurdep;air;47.66;7.54;0;Germany;0;0;0;EFRINGEN-KIRCHEN OT ISTEIN;9.172;9.86
14/07/17 14:00;DEZ1277;Eurdep;air;47.74;7.8100000000000005;0;Germany;0;0;0;ELBENSCHWAND OT LANGENSEE;14.052000000000001;14
14/07/17 14:00;DEZ1278;Eurdep;air;47.71;7.61;0;Germany;0;0;0;KANDERN ST TANNENKIRCH;11.943999999999999;12
14/07/17 14:00;DEZ1279;Eurdep;air;47.56;7.78;0;Germany;0;0;0;RHEINFELDEN;9.516;10
14/07/17 14:00;DEZ1280;Eurdep;air;47.65;7.83;0;Germany;0;0;0;SCHOPFHEIM;12.348;12
14/07/17 14:00;DEZ1283;Eurdep;air;47.84;7.88;0;Germany;0;0;0;WIEDEN;12.452;13
14/07/17 14:00;DEZ1284;Eurdep;air;47.54;7.67;0;Germany;0;0;0;GRENZACH-WYHLEN OT GRENZ.;7.9159999999999995;8.32
14/07/17 14:00;DEZ1286;Eurdep;air;47.82;8.34;0;Germany;0;0;0;BONNDORF;10.763;11
14/07/17 14:00;DEZ1293;Eurdep;air;47.74;8.44;0;Germany;0;0;0;STÜHLINGEN;9.286;11
14/07/17 14:00;DEZ1298;Eurdep;air;48.28;9.48;0;Germany;0;0;0;HAYINGEN;9.403;9.77
14/07/17 15:00;DEZ1300;Eurdep;air;48.41;9.53;0;Germany;0;0;0;MÜNSINGEN ST AUINGEN;8.936;9.290000000000001
14/07/17 14:00;DEZ1301;Eurdep;air;48.48;9.23;0;Germany;0;0;0;PFULLINGEN;7.583;8
14/07/17 14:00;DEZ1302;Eurdep;air;48.48;9.4;0;Germany;0;0;0;BAD URACH;6.623;7.62
14/07/17 14:00;DEZ1303;Eurdep;air;48.35;9.33;0;Germany;0;0;0;HOHENSTEIN;10.395999999999999;10
14/07/17 14:00;DEZ1305;Eurdep;air;48.4;9.05;0;Germany;0;0;0;MÖSSINGEN;10.133;10
14/07/17 14:00;DEZ1309;Eurdep;air;48.27;8.85;0;Germany;0;0;0;BALINGEN;11.581;11
14/07/17 14:00;DEZ1310;Eurdep;air;48.29;9.14;0;Germany;0;0;0;BURLADINGEN;8.177;8.97
14/07/17 14:00;DEZ1311;Eurdep;air;48.35;8.78;0;Germany;0;0;0;HAIGERLOCH ST GRUOL;11.933;12
14/07/17 14:00;DEZ1313;Eurdep;air;48.21;8.77;0;Germany;0;0;0;SCHÖMBERG;11.052;11
14/07/17 14:00;DEZ1314;Eurdep;air;48.21;9;0;Germany;0;0;0;ALBSTADT ST EBINGEN;8.867;9.33
14/07/17 14:00;DEZ1317;Eurdep;air;48.47;9.94;0;Germany;0;0;0;DORNSTADT;10.169;10
14/07/17 14:00;DEZ1318;Eurdep;air;48.27;9.73;0;Germany;0;0;0;EHINGEN;8.914;9
14/07/17 14:00;DEZ1323;Eurdep;air;48.37;9.74;0;Germany;0;0;0;SCHELKLINGEN;7.196;7.4799999999999995
14/07/17 14:00;DEZ1327;Eurdep;air;48.11;9.42;0;Germany;0;0;0;ERTINGEN OT BINZWANGEN;8.891;9.16
14/07/17 14:00;DEZ1328;Eurdep;air;48.18;9.97;0;Germany;0;0;0;SCHWENDI;8.899;9
14/07/17 14:00;DEZ1331;Eurdep;air;48.2;9.78;0;Germany;0;0;0;SCHEMMERHOFEN OT INGERK.;10.956;11
14/07/17 14:00;DEZ1335;Eurdep;air;47.59;9.6;0;Germany;0;0;0;KRESSBRONN;8.47;9.43
14/07/17 14:00;DEZ1337;Eurdep;air;47.78;9.15;0;Germany;0;0;0;ÜBERLINGEN;9.434999999999999;10
14/07/17 14:00;DEZ1338;Eurdep;air;47.8;9.43;0;Germany;0;0;0;DEGGENHAUSERTAL OT LIMP.;9.01;9.39
14/07/17 14:00;DEZ1339;Eurdep;air;47.94;10.09;0;Germany;0;0;0;AITRACH;8.524;9.58
14/07/17 14:00;DEZ1345;Eurdep;air;47.82;10.02;0;Germany;0;0;0;LEUTKIRCH;8.834;9.540000000000001
14/07/17 14:00;DEZ1346;Eurdep;air;47.8;9.63;0;Germany;0;0;0;RAVENSBURG;8.867;9.55
14/07/17 14:00;DEZ1348;Eurdep;air;47.82;9.79;0;Germany;0;0;0;WOLFEGG;9.459;10
14/07/17 14:00;DEZ1349;Eurdep;air;48.05;8.97;0;Germany;0;0;0;BEURON;9.166;9.47
14/07/17 14:00;DEZ1351;Eurdep;air;48.02;9.23;0;Germany;0;0;0;KRAUCHENWIES OT ABLACH;8.797;9
14/07/17 14:00;DEZ1352;Eurdep;air;47.95;9.37;0;Germany;0;0;0;OSTRACH;9.14;10
14/07/17 14:00;DEZ1354;Eurdep;air;48.09;9.22;0;Germany;0;0;0;SIGMARINGEN;9;10
14/07/17 14:00;DEZ1355;Eurdep;air;48.12;9.08;0;Germany;0;0;0;STETTEN A.K.M.;9.093;9.47
14/07/17 14:00;DEZ1356;Eurdep;air;47.95;9.03;0;Germany;0;0;0;SAULDORF OT BOLL;9.641;10
14/07/17 14:00;DEZ1357;Eurdep;air;47.86;9.24;0;Germany;0;0;0;HERDWANGEN-SCHÖNACH;8.696;9
14/07/17 14:00;DEZ1360;Eurdep;air;48.15;11.45;0;Germany;0;0;0;MÜNCHEN-PASING;9.03;9.559999999999999
14/07/17 14:00;DEZ1361;Eurdep;air;48.09;11.66;0;Germany;0;0;0;München-Neuperlach;8.376999999999999;9.24
14/07/17 14:00;DEZ1365;Eurdep;air;48.21;12.88;0;Germany;0;0;0;HAIMING;9.506;9.940000000000001
14/07/17 14:00;DEZ1374;Eurdep;air;47.61;12.91;0;Germany;0;0;0;RAMSAU;10.293000000000001;11
14/07/17 14:00;DEZ1384;Eurdep;air;48.36;11.39;0;Germany;0;0;0;MARKT INDERSDORF;9.879999999999999;10
14/07/17 14:00;DEZ1386;Eurdep;air;48.08;11.96;0;Germany;0;0;0;EBERSBERG;9.633;10
14/07/17 14:00;DEZ1394;Eurdep;air;48.82;11.09;0;Germany;0;0;0;WELLHEIM;8.867;9.25
14/07/17 15:00;DEZ1409;Eurdep;air;47.48;11.06;0;Germany;0;0;0;GARMISCH-PARTENKIRCHEN;8.588;9.67
14/07/17 14:00;DEZ1419;Eurdep;air;48.07;11.03;0;Germany;0;0;0;WINDACH;9.934999999999999;10
14/07/17 14:00;DEZ1422;Eurdep;air;47.72;11.96;0;Germany;0;0;0;FISCHBACHAU;9.601;10
14/07/17 15:00;DEZ1430;Eurdep;air;48.36;12.51;0;Germany;0;0;0;NEUMARKT-ST.VEIT;9.665000000000001;10
14/07/17 14:00;DEZ1432;Eurdep;air;47.97;11.63;0;Germany;0;0;0;SAUERLACH;8.881;9
14/07/17 14:00;DEZ1438;Eurdep;air;48.5;11.36;0;Germany;0;0;0;GEROLSBACH;10.474;10
14/07/17 14:00;DEZ1445;Eurdep;air;47.74;12.12;0;Germany;0;0;0;BRANNENBURG;7.670999999999999;8.120000000000001
14/07/17 14:00;DEZ1447;Eurdep;air;47.8;12.29;0;Germany;0;0;0;FRASDORF;9.751000000000001;10
14/07/17 14:00;DEZ1450;Eurdep;air;47.98;12.05;0;Germany;0;0;0;KRONAU;9.773;10
14/07/17 14:00;DEZ1451;Eurdep;air;48.06;12.22;0;Germany;0;0;0;WASSERBURG AM INN;9.303;10
14/07/17 14:00;DEZ1453;Eurdep;air;48.07;11.25;0;Germany;0;0;0;WEßLING;8.761;9.690000000000001
14/07/17 14:00;DEZ1455;Eurdep;air;47.78;12.45;0;Germany;0;0;0;GRASSAU;8.870000000000001;9.24
14/07/17 14:00;DEZ1460;Eurdep;air;47.67;12.47;0;Germany;0;0;0;REIT IM WINKL;9.321;10
14/07/17 08:00;DEZ1461;Eurdep;air;47.73;12.66;0;Germany;0;0;0;RUHPOLDING OT LAUBAU;8.608;9.42
14/07/17 14:00;DEZ1462;Eurdep;air;47.7;12.4;0;Germany;0;0;0;SCHLECHING;10.359;11
14/07/17 14:00;DEZ1469;Eurdep;air;47.82;11.3;0;Germany;0;0;0;SEESHAUPT;9.09;9.59
14/07/17 14:00;DEZ1470;Eurdep;air;47.83;11.17;0;Germany;0;0;0;WEILHEIM OT DEUTENHAUSEN;9.881;10
14/07/17 14:00;DEZ1488;Eurdep;air;48.95;11.68;0;Germany;0;0;0;RIEDENBURG;8.783;9.23
14/07/17 14:00;DEZ1490;Eurdep;air;48.55;12.26;0;Germany;0;0;0;ADLKOFEN;11.674;11
14/07/17 14:00;DEZ1492;Eurdep;air;48.57;12.17;0;Germany;0;0;0;ERGOLDING;9.449;9.92
14/07/17 14:00;DEZ1497;Eurdep;air;48.47;12.27;0;Germany;0;0;0;GEISENHAUSEN;10.837;11
14/07/17 14:00;DEZ1498;Eurdep;air;48.51;12.42;0;Germany;0;0;0;GERZEN;12.667;13
14/07/17 14:00;DEZ1502;Eurdep;air;48.65;12.33;0;Germany;0;0;0;POSTAU;9.931999999999999;10
14/07/17 14:00;DEZ1507;Eurdep;air;48.52;12;0;Germany;0;0;0;BRUCKBERG;10.081999999999999;10
14/07/17 14:00;DEZ1511;Eurdep;air;48.72;13.33;0;Germany;0;0;0;FÜRSTENSTEIN;15;16
14/07/17 14:00;DEZ1523;Eurdep;air;49.04;12.99;0;Germany;0;0;0;TEISNACH;15.322;16
14/07/17 14:00;DEZ1530;Eurdep;air;48.44;12.57;0;Germany;0;0;0;GANGKOFEN;10.537;11
14/07/17 14:00;DEZ1531;Eurdep;air;48.24;12.98;0;Germany;0;0;0;KIRCHDORF AM INN;10;10
14/07/17 14:00;DEZ1532;Eurdep;air;48.48;12.84;0;Germany;0;0;0;SCHÖNAU 1;12.785;13
14/07/17 14:00;DEZ1537;Eurdep;air;48.94;12.72;0;Germany;0;0;0;HUNDERDORF;13.893;14
14/07/17 14:00;DEZ1544;Eurdep;air;48.63;12.86;0;Germany;0;0;0;EICHENDORF;9.284;9.95
14/07/17 14:00;DEZ1550;Eurdep;air;48.74;12.75;0;Germany;0;0;0;WALLERSDORF;11.206999999999999;11
14/07/17 15:00;DEZ1553;Eurdep;air;49.04;12.1;0;Germany;0;0;0;REGENSBURG;9.474;9.879999999999999
14/07/17 14:00;DEZ1559;Eurdep;air;49.26;11.93;0;Germany;0;0;0;SCHMIDMÜHLEN;10.186;10
14/07/17 14:00;DEZ1560;Eurdep;air;49.5;11.74;0;Germany;0;0;0;SULZBACH-ROSENBERG;9.761;10
14/07/17 14:00;DEZ1565;Eurdep;air;49.1;12.48;0;Germany;0;0;0;FALKENSTEIN;12.956;13
14/07/17 14:00;DEZ1568;Eurdep;air;49.2;13.05;0;Germany;0;0;0;LAM;14.544;15
14/07/17 14:00;DEZ1572;Eurdep;air;49.36;12.61;0;Germany;0;0;0;SCHÖNTHAL;13.744;14
14/07/17 14:00;DEZ1583;Eurdep;air;49.16;11.73;0;Germany;0;0;0;PARSBERG;9.431999999999999;9.83
14/07/17 14:00;DEZ1586;Eurdep;air;49.29;11.62;0;Germany;0;0;0;VELBURG OT UNTERWIESENACKER;8.575;9.05
14/07/17 14:00;DEZ1604;Eurdep;air;48.84;12.19;0;Germany;0;0;0;SCHIERLING-EGGMÜHL;9.168000000000001;9.629999999999999
14/07/17 14:00;DEZ1607;Eurdep;air;49.25;12.3;0;Germany;0;0;0;BRUCK IN DER OBERPFALZ;11.404;11
14/07/17 14:00;DEZ1608;Eurdep;air;49.2;12.06;0;Germany;0;0;0;BURGLENGENFELD;11.156;11
14/07/17 14:00;DEZ1615;Eurdep;air;49.51;12.54;0;Germany;0;0;0;SCHÖNSEE;10.870000000000001;11
14/07/17 14:00;DEZ1617;Eurdep;air;49.4;12.14;0;Germany;0;0;0;SCHWARZENFELD;11.526;12
14/07/17 14:00;DEZ1620;Eurdep;air;49.81;12.44;0;Germany;0;0;0;BÄRNAU;12.641;13
14/07/17 14:00;DEZ1626;Eurdep;air;49.88;12.34;0;Germany;0;0;0;TIRSCHENREUTH;12.504000000000001;12
14/07/17 14:00;DEZ1627;Eurdep;air;50;12.3;0;Germany;0;0;0;WALDSASSEN;12.274;12
14/07/17 14:00;DEZ1632;Eurdep;air;49.99;10.85;0;Germany;0;0;0;BAUNACH;9.573;9.91
14/07/17 14:00;DEZ1635;Eurdep;air;49.89;11.11;0;Germany;0;0;0;HEILIGENSTADT I. OFR.;8.206999999999999;8.49
14/07/17 14:00;DEZ1637;Eurdep;air;49.97;11.03;0;Germany;0;0;0;SCHEßLITZ;10.18;10
14/07/17 14:00;DEZ1638;Eurdep;air;50;11.2;0;Germany;0;0;0;STADELHOFEN;9.029;9.440000000000001
14/07/17 14:00;DEZ1640;Eurdep;air;49.85;11.62;0;Germany;0;0;0;CREUßEN;8.47;8.75
14/07/17 14:00;DEZ1646;Eurdep;air;49.77;11.41;0;Germany;0;0;0;POTTENSTEIN;8.940999999999999;9.41
14/07/17 14:00;DEZ1648;Eurdep;air;49.87;11.33;0;Germany;0;0;0;WAISCHENFELD OT NANKENDORF;8.822;9.08
14/07/17 14:00;DEZ1650;Eurdep;air;50.32;10.9;0;Germany;0;0;0;MEEDER;11.737;12
14/07/17 14:00;DEZ1651;Eurdep;air;50.33;11.1;0;Germany;0;0;0;NEUSTADT BEI COBURG;10.796;11
14/07/17 14:00;DEZ1656;Eurdep;air;49.78;11.19;0;Germany;0;0;0;EBERMANNSTADT;8.556000000000001;9.05
14/07/17 14:00;DEZ1657;Eurdep;air;49.65;11.24;0;Germany;0;0;0;GRÄFENBERG;10.197;10
14/07/17 14:00;DEZ1661;Eurdep;air;50.34;11.6;0;Germany;0;0;0;GEROLDSGRÜN;7.893000000000001;8.14
14/07/17 14:00;DEZ1675;Eurdep;air;50.4;11.38;0;Germany;0;0;0;TEUSCHNITZ;11.426;11
14/07/17 14:00;DEZ1683;Eurdep;air;50.07;11.09;0;Germany;0;0;0;BAD STAFFELSTEIN;8.27;8.540000000000001
14/07/17 13:00;DEZ1685;Eurdep;air;50;12.07;0;Germany;0;0;0;MARKTREDWITZ;11.764;12
14/07/17 14:00;DEZ1689;Eurdep;air;49.32;10.57;0;Germany;0;0;0;ANSBACH;11.022;11
14/07/17 14:00;DEZ1694;Eurdep;air;49.44;10.17;0;Germany;0;0;0;ADELSHOFEN;10.652;11
14/07/17 14:00;DEZ1698;Eurdep;air;49.07;10.32;0;Germany;0;0;0;DINKELSBÜHL;11.096;11
14/07/17 15:00;DEZ1699;Eurdep;air;49.2;10.31;0;Germany;0;0;0;FEUCHTWANGEN OT BANZENWEILER;12.761;14
14/07/17 14:00;DEZ1700;Eurdep;air;49.06;10.5;0;Germany;0;0;0;GEROLFINGEN;10.407;10
14/07/17 14:00;DEZ1701;Eurdep;air;49.34;10.79;0;Germany;0;0;0;HEILSBRONN;10.626000000000001;11
14/07/17 14:00;DEZ1709;Eurdep;air;49.62;10.83;0;Germany;0;0;0;WEISENDORF;11.356;12
14/07/17 14:00;DEZ1719;Eurdep;air;49.44;10.33;0;Germany;0;0;0;BURGBERNHEIM;12;12
14/07/17 14:00;DEZ1720;Eurdep;air;49.73;10.6;0;Germany;0;0;0;BURGHASLACH;11.211;11
14/07/17 14:00;DEZ1721;Eurdep;air;49.58;10.62;0;Germany;0;0;0;NEUSTADT AN DER AISCH;11.251999999999999;11
14/07/17 14:00;DEZ1723;Eurdep;air;49.67;10.46;0;Germany;0;0;0;SCHEINFELD;11.370000000000001;11
14/07/17 14:00;DEZ1724;Eurdep;air;49.6;10.44;0;Germany;0;0;0;SUGENHEIM;10.096;10
14/07/17 14:00;DEZ1728;Eurdep;air;49.13;11.11;0;Germany;0;0;0;HEIDECK;10.559000000000001;10
14/07/17 14:00;DEZ1734;Eurdep;air;49.02;10.74;0;Germany;0;0;0;HEIDENHEIM AM HAHNE;9.175;9
14/07/17 14:00;DEZ1736;Eurdep;air;49.01;11.13;0;Germany;0;0;0;RAITENBUCH;11.348;11
14/07/17 14:00;DEZ1740;Eurdep;air;50.04;10.21;0;Germany;0;0;0;SCHWEINFURT;11.363;11
14/07/17 15:00;DEZ1741;Eurdep;air;49.77;9.96;0;Germany;0;0;0;WÜRZBURG;8.917;9.42
14/07/17 14:00;DEZ1743;Eurdep;air;50;9.17;0;Germany;0;0;0;GOLDBACH;11.367;11
14/07/17 14:00;DEZ1755;Eurdep;air;50.2;9.96;0;Germany;0;0;0;OBERTHULBA;11.622;12
14/07/17 14:00;DEZ1760;Eurdep;air;50.36;10.46;0;Germany;0;0;0;HÖCHHEIM OT IRMELSHAUSEN;11.296;11
14/07/17 14:00;DEZ1766;Eurdep;air;50.36;10.23;0;Germany;0;0;0;WOLLBACH;9.281;9.68
14/07/17 14:00;DEZ1772;Eurdep;air;50.2;10.66;0;Germany;0;0;0;MAROLDSWEISACH;10.959;11
14/07/17 14:00;DEZ1773;Eurdep;air;49.89;10.55;0;Germany;0;0;0;RAUHENEBRACH OT UNTERSTEINBACH;11.304;11
14/07/17 14:00;DEZ1775;Eurdep;air;49.64;10.22;0;Germany;0;0;0;SEINSHEIM;10;11
14/07/17 14:00;DEZ1778;Eurdep;air;49.78;9.38;0;Germany;0;0;0;DORFPROZELTEN;9.115;9.43
14/07/17 14:00;DEZ1780;Eurdep;air;49.72;9.21;0;Germany;0;0;0;KLEINHEUBACH;8.206;8.53
14/07/17 14:00;DEZ1783;Eurdep;air;49.98;9.96;0;Germany;0;0;0;ARNSTEIN;9.543000000000001;9.92
14/07/17 14:00;DEZ1785;Eurdep;air;50.06;9.69;0;Germany;0;0;0;GEMÜNDEN AM MAIN;10.306999999999999;10
14/07/17 14:00;DEZ1788;Eurdep;air;49.85;9.63;0;Germany;0;0;0;MARKTHEIDENFELD;8.839;9.15
14/07/17 14:00;DEZ1789;Eurdep;air;49.95;9.67;0;Germany;0;0;0;STEINFELD;9.956;10
14/07/17 14:00;DEZ1793;Eurdep;air;49.99;10.31;0;Germany;0;0;0;GRETTSTADT;8.767;9.18
14/07/17 14:00;DEZ1794;Eurdep;air;49.92;10.23;0;Germany;0;0;0;KOLITZHEIM;10.039;10
14/07/17 14:00;DEZ1797;Eurdep;air;50.04;10;0;Germany;0;0;0;WASSERLOSEN / BURGHAUSEN;10.298;10
14/07/17 14:00;DEZ1799;Eurdep;air;49.61;9.91;0;Germany;0;0;0;BÜTTHARD OT HÖTTINGEN;11.152;11
14/07/17 14:00;DEZ1801;Eurdep;air;49.76;9.71;0;Germany;0;0;0;HELMSTADT;9.103;9.41
14/07/17 14:00;DEZ1804;Eurdep;air;49.85;10.04;0;Germany;0;0;0;KÜRNACH;10.318999999999999;10
14/07/17 14:00;DEZ1807;Eurdep;air;49.51;9.97;0;Germany;0;0;0;RÖTTINGEN;10.495999999999999;11
14/07/17 14:00;DEZ1808;Eurdep;air;49.88;9.84;0;Germany;0;0;0;THÜNGERSHEIM;8.713;9.190000000000001
14/07/17 15:00;DEZ1812;Eurdep;air;47.72;10.34;0;Germany;0;0;0;KEMPTEN;11.311;13
14/07/17 14:00;DEZ1824;Eurdep;air;48.17;10.6;0;Germany;0;0;0;MITTELNEUFNACH;11.133;12
14/07/17 14:00;DEZ1825;Eurdep;air;48.4;10.61;0;Germany;0;0;0;ZUSMARSHAUSEN;8.513;8.93
14/07/17 14:00;DEZ1827;Eurdep;air;48.49;10.44;0;Germany;0;0;0;BAUMGARTEN;9.423;9
14/07/17 14:00;DEZ1828;Eurdep;air;48.57;10.5;0;Germany;0;0;0;DILLINGEN A. D. DONAU;8.959999999999999;9.379999999999999
14/07/17 14:00;DEZ1833;Eurdep;air;48.46;10.26;0;Germany;0;0;0;GÜNZBURG;8.676;9.15
14/07/17 14:00;DEZ1834;Eurdep;air;48.37;10.3;0;Germany;0;0;0;ICHENHAUSEN;7.9590000000000005;8.57
14/07/17 14:00;DEZ1835;Eurdep;air;48.38;10.44;0;Germany;0;0;0;JETTINGEN-SCHEPPACH;8.847;9.82
14/07/17 14:00;DEZ1838;Eurdep;air;48.27;10.47;0;Germany;0;0;0;THANNHAUSEN;7.644;7.959999999999999
14/07/17 14:00;DEZ1840;Eurdep;air;48.43;10.15;0;Germany;0;0;0;OBERFAHLHEIM;10.161;10
14/07/17 14:00;DEZ1841;Eurdep;air;48.34;10.04;0;Germany;0;0;0;GERLENHOFEN;9.259;9.629999999999999
14/07/17 14:00;DEZ1842;Eurdep;air;48.3;10.17;0;Germany;0;0;0;WEIßENHORN;9.333;9.74
25/06/17 00:00;DEZ1844;Eurdep;air;47.6;9.88;0;Germany;0;0;0;LINDENBERG IM ALLGÄU;0;0
14/07/17 14:00;DEZ1846;Eurdep;air;48.03;10.72;0;Germany;0;0;0;BUCHLOE;10.166;10
14/07/17 14:00;DEZ1847;Eurdep;air;47.7;10.52;0;Germany;0;0;0;GÖRISRIED;9.719;11
14/07/17 14:00;DEZ1851;Eurdep;air;47.85;10.41;0;Germany;0;0;0;OBERGÜNZBURG;10.11;11
14/07/17 14:00;DEZ1854;Eurdep;air;48.03;10.34;0;Germany;0;0;0;ERKHEIM;9.291;10
14/07/17 14:00;DEZ1858;Eurdep;air;47.99;10.21;0;Germany;0;0;0;MEMMINGERBERG;10.785;11
14/07/17 14:00;DEZ1859;Eurdep;air;48.04;10.49;0;Germany;0;0;0;MINDELHEIM;9.885;10
14/07/17 14:00;DEZ1864;Eurdep;air;48.96;10.61;0;Germany;0;0;0;HAINSFARTH;10.178;10
14/07/17 14:00;DEZ1865;Eurdep;air;48.78;10.7;0;Germany;0;0;0;HARBURG;7.353;7.82
14/07/17 14:00;DEZ1866;Eurdep;air;48.84;10.85;0;Germany;0;0;0;MONHEIM;9.926;10
14/07/17 14:00;DEZ1867;Eurdep;air;48.85;10.51;0;Germany;0;0;0;NÖRDLINGEN;11.293000000000001;11
14/07/17 14:00;DEZ1869;Eurdep;air;48.87;10.73;0;Germany;0;0;0;WEMDING;9.299;10
14/07/17 14:00;DEZ1870;Eurdep;air;47.49;10.39;0;Germany;0;0;0;BAD HINDELANG OT BAD OBERDORF;9.347;10
14/07/17 15:00;DEZ1873;Eurdep;air;47.4;10.28;0;Germany;0;0;0;OBERSTDORF;9.504999999999999;11
14/07/17 14:00;DEZ1874;Eurdep;air;47.64;10.13;0;Germany;0;0;0;WEITNAU;9.625;11
14/07/17 14:00;DEZ1877;Eurdep;air;49.23;6.92;0;Germany;0;0;0;SAARBRÜCKEN-GERSWEILER;10.748000000000001;11
14/07/17 14:00;DEZ1883;Eurdep;air;49.42;6.76;0;Germany;0;0;0;BECKINGEN-DÜPPENWEILER;10.811;11
14/07/17 14:00;DEZ1884;Eurdep;air;49.55;6.73;0;Germany;0;0;0;LOSHEIM-SCHEIDEN;9.315999999999999;9.690000000000001
14/07/17 14:00;DEZ1885;Eurdep;air;49.43;6.58;0;Germany;0;0;0;MERZIG-SILWINGEN;10.704;11
14/07/17 14:00;DEZ1886;Eurdep;air;49.49;6.62;0;Germany;0;0;0;METTLACH;8.763;9.18
14/07/17 14:00;DEZ1887;Eurdep;air;49.5;6.5;0;Germany;0;0;0;METTLACH-ORSCHOLZ;9.729000000000001;10
14/07/17 14:00;DEZ1888;Eurdep;air;49.5;6.44;0;Germany;0;0;0;PERL-BORG;8.323;8.52
14/07/17 14:00;DEZ1892;Eurdep;air;49.4;7.17;0;Germany;0;0;0;OTTWEILER;10.859;11
14/07/17 14:00;DEZ1894;Eurdep;air;49.39;6.9;0;Germany;0;0;0;LEBACH-EIDENBORN;10.57;10
14/07/17 14:00;DEZ1895;Eurdep;air;49.36;6.62;0;Germany;0;0;0;REHLINGEN-SIERSBURG-HEMMERSDORF;10.190999999999999;10
14/07/17 15:00;DEZ1897;Eurdep;air;49.26;6.69;0;Germany;0;0;0;ÜBERHERRN-BERUS;9.303;9
14/07/17 14:00;DEZ1898;Eurdep;air;49.32;6.66;0;Germany;0;0;0;WALLERFANGEN-KERLINGEN;10.169;10
14/07/17 14:00;DEZ1899;Eurdep;air;49.28;6.79;0;Germany;0;0;0;BOUS;10.648;10
14/07/17 14:00;DEZ1900;Eurdep;air;49.24;7.27;0;Germany;0;0;0;BLIESKASTEL-WEBENHEIM;11.178;11
14/07/17 14:00;DEZ1901;Eurdep;air;49.15;7.22;0;Germany;0;0;0;GERSHEIM;11.378;11
14/07/17 14:00;DEZ1903;Eurdep;air;49.31;7.34;0;Germany;0;0;0;HOMBURG/SAAR;9.443000000000001;9.879999999999999
14/07/17 14:00;DEZ1906;Eurdep;air;49.55;7.25;0;Germany;0;0;0;FREISEN;12.27;12
14/07/17 14:00;DEZ1915;Eurdep;air;47.64;11.75;0;Germany;0;0;0;KREUTH;9.504999999999999;10
14/07/17 15:00;DEZ1917;Eurdep;air;48.24;11.55;0;Germany;0;0;0;OBERSCHLEIßHEIM;8.218;9
14/07/17 15:00;DEZ1918;Eurdep;air;48.08;11.37;0;Germany;0;0;0;GAUTING;8.615;9.559999999999999
14/07/17 14:00;DEZ1919;Eurdep;air;48.83;13.78;0;Germany;0;0;0;HAIDMÜHLE;17.959;18
14/07/17 14:00;DEZ1930;Eurdep;air;48.47;10.49;0;Germany;0;0;0;WINTERBACH;8.894;9.49
14/07/17 14:00;DEZ1934;Eurdep;air;47.56;10.74;0;Germany;0;0;0;HOHENSCHWANGAU;8.677;9.67
14/07/17 14:00;DEZ1939;Eurdep;air;52.45;10.94;0;Germany;0;0;0;GRAFHORST;8.047;8.440000000000001
14/07/17 14:00;DEZ1940;Eurdep;air;52.1;10.87;0;Germany;0;0;0;INGELEBEN;9.104000000000001;9.540000000000001
08/07/17 00:00;DEZ1945;Eurdep;air;53.44;9.91;0;Germany;0;0;0;VAHRENDORF;0;0
14/07/17 14:00;DEZ1946;Eurdep;air;53.38;10.11;0;Germany;0;0;0;STELLE/HARBURG;6.7459999999999996;7.029999999999999
14/07/17 14:00;DEZ1947;Eurdep;air;53.03;11.3;0;Germany;0;0;0;GEDELITZ;6.1259999999999994;6.529999999999999
14/07/17 15:00;DEZ1949;Eurdep;air;51.83;6.54;0;Germany;0;0;0;BOCHOLT-LIEDERN;6.773000000000001;7.17
14/07/17 14:00;DEZ1950;Eurdep;air;51.82;6.93;0;Germany;0;0;0;HEIDEN;6.5840000000000005;6.95
14/07/17 14:00;DEZ1953;Eurdep;air;52.02;8.59;0;Germany;0;0;0;BIELEFELD;7.036;7.470000000000001
14/07/17 14:00;DEZ1954;Eurdep;air;51.96;8.37;0;Germany;0;0;0;GÜTERSLOH-HOLLEN;5.888;6.11
14/07/17 14:00;DEZ1955;Eurdep;air;51.63;9.29;0;Germany;0;0;0;BEVERUNGEN-DAHLHAUSEN;9.604000000000001;10
14/07/17 14:00;DEZ1956;Eurdep;air;51.7;9.28;0;Germany;0;0;0;HÖXTER-BRUCHHAUSEN;9.192;9.59
14/07/17 14:00;DEZ1961;Eurdep;air;51.49;6.96;0;Germany;0;0;0;ESSEN-BERGEBORBECK;8.743;9.059999999999999
14/07/17 14:00;DEZ1964;Eurdep;air;51.27;6.37;0;Germany;0;0;0;VIERSEN;8.357;8.73
14/07/17 14:00;DEZ1967;Eurdep;air;50.91;6.41;0;Germany;0;0;0;JÜLICH;8.564;8.940000000000001
14/07/17 14:00;DEZ1968;Eurdep;air;50.98;6.68;0;Germany;0;0;0;BERGHEIM-NIEDERAUßEM;9.403;9.72
14/07/17 14:00;DEZ1971;Eurdep;air;50.59;6.66;0;Germany;0;0;0;MECHERNICH;9;9.93
14/07/17 15:00;DEZ1975;Eurdep;air;49.21;7.11;0;Germany;0;0;0;SAARBRÜCKEN-ENSHEIM;10;10
14/07/17 14:00;DEZ1977;Eurdep;air;49.2;12.79;0;Germany;0;0;0;CHAMERAU OT LEDERDORN;15.096;15
14/07/17 14:00;DEZ1987;Eurdep;air;48.02;11.48;0;Germany;0;0;0;BAIERBRUNN;10.344;11
14/07/17 14:00;DEZ1990;Eurdep;air;47.89;12.41;0;Germany;0;0;0;GSTADT AM CHIEMSEE;9.881;10
14/07/17 14:00;DEZ1994;Eurdep;air;48.91;13.09;0;Germany;0;0;0;BISCHOFSMAIS;14.447999999999999;14
14/07/17 15:00;DEZ1997;Eurdep;air;54.1;13.41;0;Germany;0;0;0;GREIFSWALD;7.581999999999999;7.81
08/07/17 00:00;DEZ1999;Eurdep;air;53.64;11.39;0;Germany;0;0;0;SCHWERIN;0;0
14/07/17 14:00;DEZ2000;Eurdep;air;53.9;11.42;0;Germany;0;0;0;WISMAR;8.446;8.78
14/07/17 14:00;DEZ2002;Eurdep;air;53.9;13.05;0;Germany;0;0;0;DEMMIN;7.816;8.059999999999999
14/07/17 15:00;DEZ2010;Eurdep;air;54.44;12.73;0;Germany;0;0;0;ZINGST;6.572;6.779999999999999
14/07/17 15:00;DEZ2013;Eurdep;air;54.68;13.43;0;Germany;0;0;0;PUTGARTEN OT ARKONA;7.656999999999999;7.88
14/07/17 15:00;DEZ2019;Eurdep;air;53.77;8.64;0;Germany;0;0;0;NORDHOLZ;6.831999999999999;7.220000000000001
14/07/17 14:00;DEZ2020;Eurdep;air;53.41;8.79;0;Germany;0;0;0;STUBBEN;6.731;7.05
14/07/17 14:00;DEZ2022;Eurdep;air;53.55;7.94;0;Germany;0;0;0;SCHORTENS-HEIDMÜHLE;6.051;6.7299999999999995
14/07/17 14:00;DEZ2023;Eurdep;air;53.54;8.47;0;Germany;0;0;0;NORDENHAM-SCHWEEWARDEN;8.522;8.709999999999999
14/07/17 14:00;DEZ2028;Eurdep;air;53.19;8.58;0;Germany;0;0;0;BREMEN-BLUMENTHAL;6.274;6.4799999999999995
14/07/17 15:00;DEZ2030;Eurdep;air;52.29;10.45;0;Germany;0;0;0;BRAUNSCHWEIG / WATENBÜTTEL;7.439;7.7299999999999995
14/07/17 14:00;DEZ2032;Eurdep;air;51.83;9.87;0;Germany;0;0;0;EINBECK;10;11
14/07/17 14:00;DEZ2033;Eurdep;air;52.23;9.67;0;Germany;0;0;0;BENNIGSEN;9.648;10
14/07/17 14:00;DEZ2036;Eurdep;air;52.24;9.86;0;Germany;0;0;0;SARSTEDT;9.254000000000001;9
14/07/17 14:00;DEZ2039;Eurdep;air;52.6;10.04;0;Germany;0;0;0;CELLE-WIETZENBRUCH;6.414;6.659999999999999
14/07/17 14:00;DEZ2043;Eurdep;air;51.69;13.23;0;Germany;0;0;0;HERZBERG/ELSTER;7.611;7.959999999999999
14/07/17 14:00;DEZ2071;Eurdep;air;51.37;6.44;0;Germany;0;0;0;KEMPEN;8;8.74
14/07/17 14:00;DEZ2076;Eurdep;air;50.94;7.05;0;Germany;0;0;0;KÖLN-MERHEIM;8.762;9.24
14/07/17 14:00;DEZ2079;Eurdep;air;50.72;6.4;0;Germany;0;0;0;HÜRTGENWALD-KLEINHAU;9.619;9.84
14/07/17 14:00;DEZ2081;Eurdep;air;50.97;6.58;0;Germany;0;0;0;BERGHEIM-GLESCH;10.619;11
14/07/17 14:00;DEZ2082;Eurdep;air;50.89;6.87;0;Germany;0;0;0;HÜRTH;9.532;9.940000000000001
14/07/17 14:00;DEZ2084;Eurdep;air;50.67;6.76;0;Germany;0;0;0;EUSKIRCHEN;8.734;9.14
14/07/17 14:00;DEZ2086;Eurdep;air;49.55;8.59;0;Germany;0;0;0;VIERNHEIM;8.587;9.05
14/07/17 14:00;DEZ2088;Eurdep;air;50.6;8.84;0;Germany;0;0;0;REISKIRCHEN;9.934999999999999;10
14/07/17 14:00;DEZ2089;Eurdep;air;50.82;8.53;0;Germany;0;0;0;DAUTPHETAL;8.699;9.120000000000001
14/07/17 14:00;DEZ2096;Eurdep;air;50.86;9.48;0;Germany;0;0;0;OBERAULA;10.619;10
14/07/17 08:00;DEZ2098;Eurdep;air;51.11;9.12;0;Germany;0;0;0;BAD WILDUNGEN;11.171;11
14/07/17 14:00;DEZ2102;Eurdep;air;51.32;13.29;0;Germany;0;0;0;RIESA;9.297;9.67
14/07/17 15:00;DEZ2103;Eurdep;air;50.88;12.13;0;Germany;0;0;0;GERA OT LEUMNITZ;9.61;10
14/07/17 14:00;DEZ2108;Eurdep;air;49.6;7.06;0;Germany;0;0;0;NOHFELDEN-SÖTERN;11.652;12
14/07/17 15:00;DEZ2117;Eurdep;air;53.03;13.99;0;Germany;0;0;0;KERKOW;8.046;8.43
14/07/17 14:00;DEZ2118;Eurdep;air;52.87;14.15;0;Germany;0;0;0;HOHENSAATEN;6.965999999999999;7.17
14/07/17 15:00;DEZ2120;Eurdep;air;52.21;14.12;0;Germany;0;0;0;LINDENBERG;7.559;7.7700000000000005
14/07/17 14:00;DEZ2123;Eurdep;air;52.28;12.61;0;Germany;0;0;0;GOLZOW;6.797;7.05
14/07/17 14:00;DEZ2124;Eurdep;air;52.92;13.73;0;Germany;0;0;0;ALTENHOF;6.890000000000001;7.279999999999999
14/07/17 15:00;DEZ2126;Eurdep;air;53.14;13.03;0;Germany;0;0;0;NEUGLOBSOW;6.587000000000001;6.909999999999999
14/07/17 14:00;DEZ2134;Eurdep;air;53.16;12.2;0;Germany;0;0;0;PRITZWALK;7.709999999999999;8.129999999999999
14/07/17 14:00;DEZ2135;Eurdep;air;52.53;14.37;0;Germany;0;0;0;SEELOW;7.571;7.69
14/07/17 14:00;DEZ2137;Eurdep;air;51.51;13.98;0;Germany;0;0;0;SENFTENBERG;7.279000000000001;7.69
14/07/17 14:00;DEZ2148;Eurdep;air;51.27;12.67;0;Germany;0;0;0;BEIERSDORF;10.541;10
14/07/17 14:00;DEZ2150;Eurdep;air;51.27;13.89;0;Germany;0;0;0;KÖNIGSBRÜCK;7.9030000000000005;8.32
14/07/17 14:00;DEZ2153;Eurdep;air;51.29;14.85;0;Germany;0;0;0;NIESKY;8.153;8
14/07/17 14:00;DEZ2157;Eurdep;air;51.49;14.63;0;Germany;0;0;0;WEIßWASSER;6.661;7.140000000000001
14/07/17 14:00;DEZ2161;Eurdep;air;50.98;12.52;0;Germany;0;0;0;NOBITZ;11.189;11
14/07/17 14:00;DEZ2163;Eurdep;air;50.8;10.25;0;Germany;0;0;0;BAD SALZUNGEN;11.581;12
14/07/17 14:00;DEZ2165;Eurdep;air;50.96;10.71;0;Germany;0;0;0;GOTHA;12.426;12
14/07/17 14:00;DEZ2166;Eurdep;air;51.2;10.44;0;Germany;0;0;0;MÜHLHAUSEN;11.452;11
14/07/17 14:00;DEZ2167;Eurdep;air;51.5;10.81;0;Germany;0;0;0;NORDHAUSEN;12.181000000000001;12
14/07/17 14:00;DEZ2174;Eurdep;air;53.29;9.5;0;Germany;0;0;0;SITTENSEN;6.856999999999999;7.25
14/07/17 14:00;DEZ2175;Eurdep;air;52.96;7.27;0;Germany;0;0;0;DERSUM;8.119;8.92
14/07/17 15:00;DEZ2176;Eurdep;air;52.52;7.31;0;Germany;0;0;0;LINGEN / DWD;5.608;6.7700000000000005
14/07/17 14:00;DEZ2178;Eurdep;air;53.28;10.73;0;Germany;0;0;0;BLECKEDE;6.296;6.640000000000001
14/07/17 14:00;DEZ2182;Eurdep;air;52.17;9;0;Germany;0;0;0;KALLETAL-STEMMEN;9.891;10
14/07/17 14:00;DEZ2183;Eurdep;air;51.47;8.71;0;Germany;0;0;0;WÜNNENBERG-BLEIWÄSCHE;8.934000000000001;9
14/07/17 15:00;DEZ2184;Eurdep;air;51.18;8.49;0;Germany;0;0;0;WINTERBERG-KAHLER ASTEN;9.986;10
14/07/17 14:00;DEZ2186;Eurdep;air;50.71;8.08;0;Germany;0;0;0;BURBACH;8.437999999999999;8.76
14/07/17 14:00;DEZ2188;Eurdep;air;50.84;8.02;0;Germany;0;0;0;SIEGEN;11.456;11
14/07/17 14:00;DEZ2190;Eurdep;air;50.55;6.25;0;Germany;0;0;0;MONSCHAU-HÖFEN;10.393;10
14/07/17 14:00;DEZ2192;Eurdep;air;51.08;7.53;0;Germany;0;0;0;MARIENHEIDE;9.78;10
14/07/17 14:00;DEZ2196;Eurdep;air;49.21;8.18;0;Germany;0;0;0;LANDAU/PF.-MÖRLHEIM;9.559000000000001;9.86
14/07/17 14:00;DEZ2197;Eurdep;air;49.46;8.44;0;Germany;0;0;0;LUDWIGSHAFEN/RHEIN;9.549;10
14/07/17 14:00;DEZ2198;Eurdep;air;49.36;8.14;0;Germany;0;0;0;NEUSTADT/WEINSTR. OT HAARDT.;8.736;9.16
14/07/17 14:00;DEZ2199;Eurdep;air;49.31;8.45;0;Germany;0;0;0;SPEYER;8.634;9.22
14/07/17 14:00;DEZ2200;Eurdep;air;48.98;8.14;0;Germany;0;0;0;SCHEIBENHARDT;9.097;9
14/07/17 14:00;DEZ2201;Eurdep;air;49.13;8.15;0;Germany;0;0;0;STEINWEILER;8.534;8.91
14/07/17 14:00;DEZ2203;Eurdep;air;48.9;9.13;0;Germany;0;0;0;ASPERG;10.907;11
14/07/17 14:00;DEZ2204;Eurdep;air;49.04;9.12;0;Germany;0;0;0;BÖNNIGHEIM ST HOHENSTEIN;11.33;11
14/07/17 14:00;DEZ2205;Eurdep;air;48.94;9.29;0;Germany;0;0;0;ERDMANNHAUSEN;9;10
14/07/17 14:00;DEZ2207;Eurdep;air;49;9.11;0;Germany;0;0;0;LÖCHGAU;10.967;11
14/07/17 14:00;DEZ2210;Eurdep;air;48.83;9.14;0;Germany;0;0;0;KORNTAL-MÜNCHINGEN;11.867;12
14/07/17 14:00;DEZ2211;Eurdep;air;48.95;9.45;0;Germany;0;0;0;BACKNANG;10.024;10
14/07/17 14:00;DEZ2213;Eurdep;air;49.24;9.11;0;Germany;0;0;0;BAD RAPPENAU;10.593;11
14/07/17 14:00;DEZ2214;Eurdep;air;49.16;8.99;0;Germany;0;0;0;GEMMINGEN;10.341;10
14/07/17 14:00;DEZ2215;Eurdep;air;49.06;9.29;0;Germany;0;0;0;ILSFELD OT AUENSTEIN;11.481;12
14/07/17 14:00;DEZ2216;Eurdep;air;49.1;9.39;0;Germany;0;0;0;LÖWENSTEIN;11.026;11
14/07/17 14:00;DEZ2220;Eurdep;air;48.6;10.25;0;Germany;0;0;0;HERMARINGEN;10.016;10
14/07/17 14:00;DEZ2223;Eurdep;air;48.95;8.39;0;Germany;0;0;0;ETTLINGEN;10.477;11
14/07/17 14:00;DEZ2224;Eurdep;air;49.24;8.46;0;Germany;0;0;0;PHILIPPSBURG;8.655;9.059999999999999
14/07/17 14:00;DEZ2229;Eurdep;air;49.23;8.51;0;Germany;0;0;0;WAGHÄUSEL OT WIESENTAL;9.193999999999999;9.790000000000001
14/07/17 14:00;DEZ2230;Eurdep;air;49.26;8.5;0;Germany;0;0;0;OBERHAUSEN-RHEINHAUSEN;9.769;10
14/07/17 14:00;DEZ2232;Eurdep;air;49.16;8.42;0;Germany;0;0;0;DETTENHEIM OT LIEDOLSHEIM;8.769;9.66
14/07/17 14:00;DEZ2233;Eurdep;air;48.95;8.23;0;Germany;0;0;0;AU AM RHEIN;9.136;9
14/07/17 14:00;DEZ2234;Eurdep;air;48.86;8.2;0;Germany;0;0;0;RASTATT;9.329;9
14/07/17 14:00;DEZ2235;Eurdep;air;48.9;8.2;0;Germany;0;0;0;STEINMAUERN;8.849;9.17
14/07/17 14:00;DEZ2238;Eurdep;air;49.43;8.54;0;Germany;0;0;0;MANNHEIM ST RHEINAU;9.809999999999999;10
14/07/17 14:00;DEZ2239;Eurdep;air;49.37;9.02;0;Germany;0;0;0;AGLASTERHAUSEN OT BREIT.;11.256;11
14/07/17 14:00;DEZ2240;Eurdep;air;49.45;9.18;0;Germany;0;0;0;LIMBACH OT KRUMBACH;12.022;12
14/07/17 14:00;DEZ2241;Eurdep;air;49.35;9.13;0;Germany;0;0;0;MOSBACH;11;11
14/07/17 14:00;DEZ2242;Eurdep;air;49.36;9.11;0;Germany;0;0;0;MOSBACH ST DIEDESHEIM;9.026;9.459999999999999
14/07/17 14:00;DEZ2243;Eurdep;air;49.39;9.09;0;Germany;0;0;0;MOSBACH ST REICHENBUCH;11.222;12
14/07/17 14:00;DEZ2244;Eurdep;air;49.54;9.16;0;Germany;0;0;0;MUDAU OT SCHLOSSAU;11.233;11
14/07/17 14:00;DEZ2246;Eurdep;air;49.4;9.27;0;Germany;0;0;0;UNTER-SCHEFFLENZ;10.985;11
14/07/17 14:00;DEZ2248;Eurdep;air;49.24;8.68;0;Germany;0;0;0;MALSCH;11.23;11
14/07/17 14:00;DEZ2249;Eurdep;air;49.34;8.8;0;Germany;0;0;0;MAUER;10.778;11
14/07/17 14:00;DEZ2250;Eurdep;air;49.46;8.81;0;Germany;0;0;0;SCHÖNAU ST ALTNEUDORF;10.072;10
11/07/17 00:00;DEZ2252;Eurdep;air;49.53;8.64;0;Germany;0;0;0;WEINHEIM;0;0
14/07/17 14:00;DEZ2253;Eurdep;air;49.33;8.98;0;Germany;0;0;0;HELMSTADT-BARGEN OT HELM.;11.215;11
14/07/17 14:00;DEZ2254;Eurdep;air;49.31;9.02;0;Germany;0;0;0;HELMSTADT-BARGEN OT BARG.;11.974;12
14/07/17 14:00;DEZ2255;Eurdep;air;49.05;8.85;0;Germany;0;0;0;STERNENFELS;12.27;12
14/07/17 14:00;DEZ2257;Eurdep;air;48.02;7.73;0;Germany;0;0;0;FREIBURG ST WALTERSHOFEN;11.818999999999999;14
14/07/17 14:00;DEZ2259;Eurdep;air;47.98;7.79;0;Germany;0;0;0;FREIBURG ST ST. GEORGEN;11.837;13
14/07/17 14:00;DEZ2261;Eurdep;air;48.03;7.6;0;Germany;0;0;0;BREISACH;9.504000000000001;10
14/07/17 14:00;DEZ2264;Eurdep;air;47.86;7.58;0;Germany;0;0;0;NEUENBURG ST GRIßHEIM;9.053;10
29/06/17 00:00;DEZ2267;Eurdep;air;47.59;7.86;0;Germany;0;0;0;SCHWÖRSTADT;0;0
14/07/17 14:00;DEZ2268;Eurdep;air;47.65;8.13;0;Germany;0;0;0;ALBBRUCK OT UNTERALPFEN;12.619;13
14/07/17 14:00;DEZ2269;Eurdep;air;47.64;8.08;0;Germany;0;0;0;GÖRWIHL OT GÖRWIHL;13.607;15
14/07/17 14:00;DEZ2270;Eurdep;air;47.68;8.01;0;Germany;0;0;0;HERRISCHRIED OT GROßHERRISCHWAND;19.125999999999998;19
14/07/17 14:00;DEZ2272;Eurdep;air;47.63;8.31;0;Germany;0;0;0;LAUCHRINGEN OT UNTERLAU.;11.678;13
14/07/17 14:00;DEZ2273;Eurdep;air;47.56;7.97;0;Germany;0;0;0;BAD SÄCKINGEN;8.976;9.82
14/07/17 14:00;DEZ2274;Eurdep;air;47.77;8.11;0;Germany;0;0;0;ST. BLASIEN;15.641;16
14/07/17 14:00;DEZ2277;Eurdep;air;47.72;8.32;0;Germany;0;0;0;ÜHLINGEN-BIRKENDORF;12.385;12
14/07/17 15:00;DEZ2288;Eurdep;air;54.18;12.08;0;Germany;0;0;0;ROSTOCK-WARNEMÜNDE;7.872;8.14
14/07/17 14:00;DEZ2291;Eurdep;air;53.95;13.42;0;Germany;0;0;0;GÜTZKOW;7.374;7
14/07/17 14:00;DEZ2293;Eurdep;air;53.32;11.11;0;Germany;0;0;0;LÜBTHEEN;7.197;7.51
14/07/17 14:00;DEZ2298;Eurdep;air;54.37;13.67;0;Germany;0;0;0;SELLIN;7.575;7.95
14/07/17 14:00;DEZ2308;Eurdep;air;53.43;10.75;0;Germany;0;0;0;GRESSE;6.858;7.040000000000001
14/07/17 14:00;DEZ2309;Eurdep;air;53.38;11.24;0;Germany;0;0;0;KUHSTORF;6.063000000000001;6.29
14/07/17 14:00;DEZ2312;Eurdep;air;53.13;11.36;0;Germany;0;0;0;POLZ;6.047;6.32
14/07/17 14:00;DEZ2313;Eurdep;air;53.23;11.2;0;Germany;0;0;0;TEWSWOOS;6.6930000000000005;6
14/07/17 13:00;DEZ2314;Eurdep;air;53.5;11.09;0;Germany;0;0;0;WITTENBURG;7.116;7.359999999999999
14/07/17 14:00;DEZ2315;Eurdep;air;53.46;13.29;0;Germany;0;0;0;GODENSWEGE;7.839;8.15
14/07/17 14:00;DEZ2317;Eurdep;air;53.32;12.36;0;Germany;0;0;0;JAEBETZ;7.38;7.69
14/07/17 14:00;DEZ2320;Eurdep;air;54.03;12.88;0;Germany;0;0;0;GRAMMENDORF;8.017;8.370000000000001
14/07/17 14:00;DEZ2321;Eurdep;air;54.4;13.01;0;Germany;0;0;0;KLAUSDORF;8.120000000000001;8.41
14/07/17 14:00;DEZ2322;Eurdep;air;53.77;11.46;0;Germany;0;0;0;BAD KLEINEN;9.869;10
14/07/17 14:00;DEZ2327;Eurdep;air;53.95;13.85;0;Germany;0;0;0;LASSAN;7.497;7
14/07/17 14:00;DEZ2332;Eurdep;air;53.87;14.17;0;Germany;0;0;0;ZIRCHOW;6.962000000000001;7.12
14/07/17 14:00;DEZ2333;Eurdep;air;53.62;12.18;0;Germany;0;0;0;GOLDBERG;7.764;8.26
14/07/17 14:00;DEZ2334;Eurdep;air;53.55;11.92;0;Germany;0;0;0;LENSCHOW;8.02;8.49
14/07/17 14:00;DEZ2336;Eurdep;air;53.67;11.65;0;Germany;0;0;0;WENDORF;7.117;7.33
14/07/17 15:00;DEZ2337;Eurdep;air;54.32;13.53;0;Germany;0;0;0;INSEL VILM;7.366;7
14/07/17 14:00;DEZ2338;Eurdep;air;54.54;13.55;0;Germany;0;0;0;SAGARD OT MARLOW;8.809999999999999;8.98
14/07/17 15:00;DEZ2349;Eurdep;air;51.78;14.32;0;Germany;0;0;0;COTTBUS;6.729000000000001;7.05
14/07/17 14:00;DEZ2350;Eurdep;air;52.16;14.66;0;Germany;0;0;0;EISENHÜTTENSTADT;6.419;6.83
14/07/17 14:00;DEZ2351;Eurdep;air;52.37;14.48;0;Germany;0;0;0;FRANKFURT/ODER;6.614;6.840000000000001
12/07/17 00:00;DEZ2353;Eurdep;air;53.07;14.2;0;Germany;0;0;0;SCHWEDT;0;0
14/07/17 14:00;DEZ2354;Eurdep;air;53.21;14.38;0;Germany;0;0;0;GARTZ/ODER;7.864;8.15
14/07/17 14:00;DEZ2360;Eurdep;air;51.75;14.63;0;Germany;0;0;0;FORST;8.559999999999999;8.73
14/07/17 14:00;DEZ2364;Eurdep;air;52;13.07;0;Germany;0;0;0;JÜTERBOG;7.945;8.209999999999999
14/07/17 15:00;DEZ2367;Eurdep;air;52.94;12.41;0;Germany;0;0;0;KYRITZ;7.389;7.76
14/07/17 14:00;DEZ2368;Eurdep;air;51.94;13.91;0;Germany;0;0;0;LÜBBEN;5.907;6.21
14/07/17 14:00;DEZ2371;Eurdep;air;52.9;12.81;0;Germany;0;0;0;NEURUPPIN;7.139;7.44
14/07/17 14:00;DEZ2372;Eurdep;air;52.64;13.25;0;Germany;0;0;0;STOLPE;7.128;7.470000000000001
14/07/17 14:00;DEZ2373;Eurdep;air;53.07;11.85;0;Germany;0;0;0;PERLEBERG;7.8340000000000005;8.129999999999999
14/07/17 14:00;DEZ2374;Eurdep;air;53.31;13.87;0;Germany;0;0;0;PRENZLAU;7.516;7.779999999999999
14/07/17 15:00;DEZ2375;Eurdep;air;52.55;14.55;0;Germany;0;0;0;MANSCHNOW;7.354000000000001;7.74
14/07/17 14:00;DEZ2377;Eurdep;air;52.6;13.58;0;Germany;0;0;0;AHRENSFELDE;8.513;8.86
14/07/17 14:00;DEZ2379;Eurdep;air;52.79;13.49;0;Germany;0;0;0;KLOSTERFELDE;8.234;8.64
14/07/17 14:00;DEZ2380;Eurdep;air;52.92;14.11;0;Germany;0;0;0;LUNOW;7.686;8.15
14/07/17 14:00;DEZ2381;Eurdep;air;52.77;13.7;0;Germany;0;0;0;MELCHOW;6.794;7.06
14/07/17 14:00;DEZ2382;Eurdep;air;52.85;13.94;0;Germany;0;0;0;NIEDERFINOW;7.315;7.56
14/07/17 14:00;DEZ2383;Eurdep;air;51.92;13.58;0;Germany;0;0;0;DRAHNSDORF;6.8549999999999995;7
14/07/17 14:00;DEZ2384;Eurdep;air;51.98;14.29;0;Germany;0;0;0;LIEBEROSE;5.714;5.85
14/07/17 14:00;DEZ2385;Eurdep;air;51.85;13.7;0;Germany;0;0;0;LUCKAU;7.0329999999999995;7.340000000000001
14/07/17 15:00;DEZ2388;Eurdep;air;51.65;13.57;0;Germany;0;0;0;DOBERLUG-KIRCHHAIN;6.409000000000001;6.76
14/07/17 14:00;DEZ2391;Eurdep;air;52.59;12.63;0;Germany;0;0;0;BUSCHOW;5.931;6.24
14/07/17 14:00;DEZ2396;Eurdep;air;53.14;13.24;0;Germany;0;0;0;BREDEREICHE;6.815;7.12
14/07/17 14:00;DEZ2397;Eurdep;air;52.9;13.16;0;Germany;0;0;0;LÖWENBERG;7.651000000000001;7.959999999999999
14/07/17 14:00;DEZ2399;Eurdep;air;51.37;13.76;0;Germany;0;0;0;ORTRAND;7.178;7.5200000000000005
14/07/17 14:00;DEZ2401;Eurdep;air;52.35;14.28;0;Germany;0;0;0;BRIESEN;6.7010000000000005;6.92
14/07/17 14:00;DEZ2402;Eurdep;air;52.09;14.64;0;Germany;0;0;0;NEUZELLE;7.123;7.33
14/07/17 14:00;DEZ2403;Eurdep;air;52.24;13.95;0;Germany;0;0;0;STORKOW;6.55;6.709999999999999
14/07/17 12:00;DEZ2407;Eurdep;air;52.25;12.95;0;Germany;0;0;0;BEELITZ;6.593999999999999;6.7299999999999995
14/07/17 14:00;DEZ2408;Eurdep;air;52.21;12.8;0;Germany;0;0;0;BRÜCK;6.281000000000001;6.540000000000001
14/07/17 14:00;DEZ2410;Eurdep;air;52.02;12.53;0;Germany;0;0;0;KLEPZIG;7.187;7.459999999999999
14/07/17 15:00;DEZ2411;Eurdep;air;52.12;12.46;0;Germany;0;0;0;WIESENBURG;7.24;7.76
14/07/17 14:00;DEZ2412;Eurdep;air;52.25;12.26;0;Germany;0;0;0;ZIESAR;7.143000000000001;7.459999999999999
14/07/17 14:00;DEZ2414;Eurdep;air;53.25;12.04;0;Germany;0;0;0;PUTLITZ;7.679;8
02/07/17 00:00;DEZ2416;Eurdep;air;51.65;14.23;0;Germany;0;0;0;DREBKAU;0;0
14/07/17 14:00;DEZ2417;Eurdep;air;51.67;14.75;0;Germany;0;0;0;KLEIN BADEMEUSEL;8.898;9.07
14/07/17 14:00;DEZ2423;Eurdep;air;52.21;13.16;0;Germany;0;0;0;SCHÖNHAGEN;6.81;7.18
14/07/17 14:00;DEZ2424;Eurdep;air;51.88;13.25;0;Germany;0;0;0;WIEPERSDORF;7.331;7.659999999999999
14/07/17 14:00;DEZ2426;Eurdep;air;53.27;13.62;0;Germany;0;0;0;BOITZENBURG;7.861;8.14
14/07/17 14:00;DEZ2428;Eurdep;air;53.24;13.98;0;Germany;0;0;0;HOHENGÜSTOW;8.015;8.28
14/07/17 14:00;DEZ2429;Eurdep;air;53.22;13.32;0;Germany;0;0;0;LYCHEN;7.5489999999999995;7.82
14/07/17 14:00;DEZ2431;Eurdep;air;53.39;14;0;Germany;0;0;0;KLOCKOW;8.006;8.25
14/07/17 14:00;DEZ2432;Eurdep;air;53.27;14.35;0;Germany;0;0;0;TANTOW;7.893000000000001;8.26
14/07/17 14:00;DEZ2433;Eurdep;air;53.09;14.29;0;Germany;0;0;0;VIERRADEN;8.03;8.290000000000001
14/07/17 14:00;DEZ2434;Eurdep;air;51.52;11.97;0;Germany;0;0;0;HALLE;9.498000000000001;10
14/07/17 14:00;DEZ2436;Eurdep;air;51.76;11.49;0;Germany;0;0;0;ASCHERSLEBEN;10.071;10
14/07/17 14:00;DEZ2437;Eurdep;air;51.81;11.73;0;Germany;0;0;0;BERNBURG;9.609;10
14/07/17 15:00;DEZ2438;Eurdep;air;51.63;12.29;0;Germany;0;0;0;BITTERFELD;8.403;8.77
26/06/17 00:00;DEZ2440;Eurdep;air;51.53;11.55;0;Germany;0;0;0;EISLEBEN;0;0
14/07/17 14:00;DEZ2443;Eurdep;air;52.27;11.42;0;Germany;0;0;0;HALDENSLEBEN;8.181999999999999;8.629999999999999
14/07/17 14:00;DEZ2444;Eurdep;air;52.84;12.08;0;Germany;0;0;0;HAVELBERG;7.1129999999999995;7.38
14/07/17 14:00;DEZ2446;Eurdep;air;51.8;12.96;0;Germany;0;0;0;JESSEN;8.131;8.39
14/07/17 14:00;DEZ2447;Eurdep;air;52.63;11.14;0;Germany;0;0;0;KLÖTZE;6.104;6
14/07/17 14:00;DEZ2448;Eurdep;air;51.73;11.95;0;Germany;0;0;0;KÖTHEN;10.211;10
14/07/17 15:00;DEZ2450;Eurdep;air;52.89;11.73;0;Germany;0;0;0;SEEHAUSEN;6.7299999999999995;7.01
14/07/17 14:00;DEZ2451;Eurdep;air;52.88;11.57;0;Germany;0;0;0;LEPPIN;7.106999999999999;7.340000000000001
14/07/17 14:00;DEZ2454;Eurdep;air;52.83;11.19;0;Germany;0;0;0;SALZWEDEL;6.958;7.25
14/07/17 14:00;DEZ2456;Eurdep;air;52.01;11.75;0;Germany;0;0;0;SCHÖNEBECK/ELBE;11.774;12
14/07/17 15:00;DEZ2459;Eurdep;air;51.89;12.65;0;Germany;0;0;0;WITTENBERG;6.875;7.24
14/07/17 14:00;DEZ2460;Eurdep;air;52.24;11.64;0;Germany;0;0;0;WOLMIRSTEDT;9.906;10
14/07/17 14:00;DEZ2464;Eurdep;air;52;12.28;0;Germany;0;0;0;POLENZKO OT BÄRENTHOREN;7.478;7.68
14/07/17 14:00;DEZ2466;Eurdep;air;51.62;12.12;0;Germany;0;0;0;ZÖRBIG;9.946;10
14/07/17 14:00;DEZ2467;Eurdep;air;51.73;12.48;0;Germany;0;0;0;GRÄFENHAINICHEN;7.3629999999999995;7
14/07/17 14:00;DEZ2468;Eurdep;air;51.15;11.79;0;Germany;0;0;0;NAUMBURG;12.028;12
14/07/17 14:00;DEZ2471;Eurdep;air;51.65;11.68;0;Germany;0;0;0;IHLEWITZ;11.08;11
14/07/17 14:00;DEZ2473;Eurdep;air;51.39;11.66;0;Germany;0;0;0;OBHAUSEN;10.022;10
14/07/17 14:00;DEZ2477;Eurdep;air;51.94;11.45;0;Germany;0;0;0;EGELN;9.436;9.95
14/07/17 15:00;DEZ2478;Eurdep;air;52.16;11.18;0;Germany;0;0;0;UMMENDORF;9.083;9
14/07/17 14:00;DEZ2479;Eurdep;air;51.98;10.88;0;Germany;0;0;0;BADERSLEBEN;9.921;10
14/07/17 14:00;DEZ2480;Eurdep;air;52.38;11.98;0;Germany;0;0;0;PAREY;7.614;7.88
14/07/17 14:00;DEZ2484;Eurdep;air;52.71;11.86;0;Germany;0;0;0;GOLDBECK;6.8340000000000005;7.08
14/07/17 15:00;DEZ2489;Eurdep;air;51.8;10.62;0;Germany;0;0;0;SCHIERKE/BROCKEN;13.815999999999999;14
14/07/17 14:00;DEZ2491;Eurdep;air;52.79;10.89;0;Germany;0;0;0;DÄHRE;7.484;7
14/07/17 14:00;DEZ2492;Eurdep;air;52.79;11.38;0;Germany;0;0;0;FLEETMARK;8.118;8
14/07/17 15:00;DEZ2502;Eurdep;air;51.16;14.95;0;Germany;0;0;0;GÖRLITZ;8.399;8.72
14/07/17 14:00;DEZ2503;Eurdep;air;51.33;12.29;0;Germany;0;0;0;LEIPZIG;9.190999999999999;9.64
14/07/17 14:00;DEZ2505;Eurdep;air;50.54;12.42;0;Germany;0;0;0;RODEWISCH;13.044;13
14/07/17 14:00;DEZ2506;Eurdep;air;51.18;14.45;0;Germany;0;0;0;BAUTZEN;9.43;9.61
14/07/17 14:00;DEZ2507;Eurdep;air;51.14;14.2;0;Germany;0;0;0;BISCHOFSWERDA;10.18;10
14/07/17 14:00;DEZ2509;Eurdep;air;50.71;13.51;0;Germany;0;0;0;CÄMMERSWALDE;12.68;13
14/07/17 14:00;DEZ2510;Eurdep;air;50.81;13.41;0;Germany;0;0;0;MULDA;12.74;13
14/07/17 13:00;DEZ2512;Eurdep;air;51.12;13.67;0;Germany;0;0;0;RADEBEUL;12.75;12
14/07/17 14:00;DEZ2513;Eurdep;air;50.91;13.34;0;Germany;0;0;0;FREIBERG;12.236;12
14/07/17 14:00;DEZ2514;Eurdep;air;50.88;12.59;0;Germany;0;0;0;WALDENBURG;11.372;12
14/07/17 14:00;DEZ2516;Eurdep;air;51.43;14.28;0;Germany;0;0;0;HOYERSWERDA;6.558;6.74
14/07/17 14:00;DEZ2520;Eurdep;air;50.33;12.29;0;Germany;0;0;0;ADORF;11.276;11
14/07/17 14:00;DEZ2524;Eurdep;air;50.85;14.06;0;Germany;0;0;0;ROSENTHAL;9.75;10
14/07/17 15:00;DEZ2525;Eurdep;air;50.48;12.13;0;Germany;0;0;0;PLAUEN;10.696;11
14/07/17 14:00;DEZ2527;Eurdep;air;50.43;12.71;0;Germany;0;0;0;JOHANNGEORGENSTADT;13.288;13
14/07/17 14:00;DEZ2529;Eurdep;air;50.93;14.36;0;Germany;0;0;0;HINTERHERMSDORF;9.562999999999999;10
14/07/17 14:00;DEZ2531;Eurdep;air;50.68;12.47;0;Germany;0;0;0;ZWICKAU;10.476;11
14/07/17 14:00;DEZ2532;Eurdep;air;50.64;12.96;0;Germany;0;0;0;EHRENFRIEDERSDORF;11.212;12
14/07/17 14:00;DEZ2533;Eurdep;air;51.31;14.33;0;Germany;0;0;0;KÖNIGSWARTHA;7.090000000000001;7.43
14/07/17 14:00;DEZ2534;Eurdep;air;51.09;14.39;0;Germany;0;0;0;WILTHEN;8.784;9.190000000000001
14/07/17 14:00;DEZ2535;Eurdep;air;51.45;12.63;0;Germany;0;0;0;EILENBURG;9.591;10
14/07/17 14:00;DEZ2536;Eurdep;air;51.07;13.04;0;Germany;0;0;0;WALDHEIM;10.776;11
14/07/17 14:00;DEZ2547;Eurdep;air;51.26;14.64;0;Germany;0;0;0;WEIGERSDORF;6.865;7.08
14/07/17 14:00;DEZ2551;Eurdep;air;50.89;14.66;0;Germany;0;0;0;GROßSCHÖNAU;10.988;11
14/07/17 14:00;DEZ2553;Eurdep;air;51.02;14.53;0;Germany;0;0;0;NEUSALZA-SPREMBERG;8.909;9.26
14/07/17 14:00;DEZ2554;Eurdep;air;50.83;14.72;0;Germany;0;0;0;OYBIN;11.536;12
14/07/17 14:00;DEZ2555;Eurdep;air;50.89;14.2;0;Germany;0;0;0;REINHARDTSDORF;7.7379999999999995;8
14/07/17 14:00;DEZ2557;Eurdep;air;51.23;13.03;0;Germany;0;0;0;MÜGELN;11.684000000000001;12
14/07/17 14:00;DEZ2558;Eurdep;air;50.73;13.75;0;Germany;0;0;0;ALTENBERG OT GEORGENFELD;16.916;18
14/07/17 14:00;DEZ2559;Eurdep;air;51.19;14.02;0;Germany;0;0;0;PULSNITZ;7.311;7.58
14/07/17 14:00;DEZ2560;Eurdep;air;51.06;13.95;0;Germany;0;0;0;DRESDEN OT ROSSENDORF;9.221;9.49
14/07/17 14:00;DEZ2562;Eurdep;air;51.39;14.03;0;Germany;0;0;0;WIEDNITZ;6.989;7.459999999999999
14/07/17 15:00;DEZ2569;Eurdep;air;50.5;11.14;0;Germany;0;0;0;NEUHAUS/RENNWEG;12.43;13
14/07/17 15:00;DEZ2572;Eurdep;air;50.57;11.8;0;Germany;0;0;0;SCHLEIZ;8.322;8.65
01/07/17 00:00;DEZ2573;Eurdep;air;51.16;11.11;0;Germany;0;0;0;SÖMMERDA;0;0
14/07/17 14:00;DEZ2574;Eurdep;air;51.28;10.72;0;Germany;0;0;0;EBELEBEN;9.899;10
14/07/17 02:00;DEZ2575;Eurdep;air;50.7;10.69;0;Germany;0;0;0;OBERHOF;14.184999999999999;14
14/07/17 15:00;DEZ2576;Eurdep;air;51.39;10.31;0;Germany;0;0;0;LEINEFELDE;11.156;11
14/07/17 14:00;DEZ2578;Eurdep;air;50.99;10.31;0;Germany;0;0;0;EISENACH;11.956;12
14/07/17 14:00;DEZ2580;Eurdep;air;51.11;10.64;0;Germany;0;0;0;BAD LANGENSALZA;11.152;11
14/07/17 14:00;DEZ2584;Eurdep;air;51.37;10.91;0;Germany;0;0;0;SONDERSHAUSEN;13.459999999999999;13
14/07/17 14:00;DEZ2588;Eurdep;air;50.79;10.61;0;Germany;0;0;0;TAMBACH - DIETHARZ;13.136000000000001;13
14/07/17 14:00;DEZ2590;Eurdep;air;50.28;10.72;0;Germany;0;0;0;BAD COLBERG;12.72;13
14/07/17 14:00;DEZ2592;Eurdep;air;50.56;10.96;0;Germany;0;0;0;ALTENFELD;14.315999999999999;14
14/07/17 15:00;DEZ2593;Eurdep;air;50.65;10.77;0;Germany;0;0;0;GEHLBERG;16.619;17
14/07/17 14:00;DEZ2594;Eurdep;air;50.68;10.89;0;Germany;0;0;0;ILMENAU;14;14
14/07/17 14:00;DEZ2596;Eurdep;air;50.39;11;0;Germany;0;0;0;SCHALKAU;12.676;13
14/07/17 14:00;DEZ2597;Eurdep;air;50.38;11.18;0;Germany;0;0;0;SONNEBERG - NEUFANG;9.756;10
14/07/17 14:00;DEZ2600;Eurdep;air;50.44;11.87;0;Germany;0;0;0;GEFELL;10.72;11
14/07/17 14:00;DEZ2601;Eurdep;air;50.71;11.57;0;Germany;0;0;0;PÖßNECK;9.734;10
14/07/17 14:00;DEZ2605;Eurdep;air;53.03;13.71;0;Germany;0;0;0;FRIEDRICHSWALDE;8.95;9.22
14/07/17 15:00;DEZ2609;Eurdep;air;52.38;13.53;0;Germany;0;0;0;SCHÖNEFELD;7.539;7.779999999999999
14/07/17 14:00;DEZ2611;Eurdep;air;52.64;14.19;0;Germany;0;0;0;ALTFRIEDLAND;7.192;7.4799999999999995
14/07/17 14:00;DEZ2612;Eurdep;air;52.58;14.07;0;Germany;0;0;0;BUCKOW;7.586;7.92
14/07/17 14:00;DEZ2613;Eurdep;air;52.67;14.43;0;Germany;0;0;0;KIENITZ;8.214;8.559999999999999
14/07/17 14:00;DEZ2614;Eurdep;air;52.72;14.28;0;Germany;0;0;0;NEULEWIN;8.834;9.22
14/07/17 14:00;DEZ2620;Eurdep;air;53.07;13.09;0;Germany;0;0;0;GROßWOLTERSDORF;7.249;7.5200000000000005
14/07/17 14:00;DEZ2621;Eurdep;air;52.76;13.03;0;Germany;0;0;0;KREMMEN;7.333;7.57
14/07/17 14:00;DEZ2624;Eurdep;air;52.46;14.22;0;Germany;0;0;0;HEINERSDORF;7.131;7.529999999999999
14/07/17 14:00;DEZ2627;Eurdep;air;52.07;14.75;0;Germany;0;0;0;RATZDORF;5.986;6.2299999999999995
14/07/17 14:00;DEZ2628;Eurdep;air;52.24;14.58;0;Germany;0;0;0;WIESENAU;6.962000000000001;7.140000000000001
14/07/17 14:00;DEZ2631;Eurdep;air;53.16;12.76;0;Germany;0;0;0;FLECKEN ZECHLIN;7.5680000000000005;7.85
14/07/17 14:00;DEZ2633;Eurdep;air;52.97;12.99;0;Germany;0;0;0;LINDOW;6.7010000000000005;6.909999999999999
14/07/17 14:00;DEZ2634;Eurdep;air;52.91;12.59;0;Germany;0;0;0;LÖGOW;7.225;7.470000000000001
14/07/17 14:00;DEZ2635;Eurdep;air;53.04;12.86;0;Germany;0;0;0;SCHWANOW;7.168000000000001;7.44
14/07/17 14:00;DEZ2637;Eurdep;air;52.96;11.94;0;Germany;0;0;0;BAD WILSNACK;7.1659999999999995;7.390000000000001
14/07/17 14:00;DEZ2641;Eurdep;air;51.94;14.69;0;Germany;0;0;0;GUBEN;8.368;8.66
14/07/17 14:00;DEZ2643;Eurdep;air;53.16;14.35;0;Germany;0;0;0;FRIEDRICHSTHAL;5.608;5.84
14/07/17 14:00;DEZ2645;Eurdep;air;53.37;13.7;0;Germany;0;0;0;WITTSTOCK;8.084999999999999;8.32
14/07/17 14:00;DEZ2646;Eurdep;air;52.99;14.14;0;Germany;0;0;0;STOLPE;6.813;7.08
14/07/17 15:00;DEZ2648;Eurdep;air;54.13;11.87;0;Germany;0;0;0;BAD DOBERAN;7.266;7.44
14/07/17 14:00;DEZ2650;Eurdep;air;54.25;12.25;0;Germany;0;0;0;GRAAL-MÜRITZ;8.068000000000001;8.36
14/07/17 13:00;DEZ2654;Eurdep;air;53.63;12.91;0;Germany;0;0;0;KITTENDORF;7.912000000000001;8.120000000000001
14/07/17 14:00;DEZ2655;Eurdep;air;53.85;12.77;0;Germany;0;0;0;SCHORRENTIN;7.935;8.36
14/07/17 14:00;DEZ2656;Eurdep;air;53.94;11.97;0;Germany;0;0;0;KLEIN BELITZ;7.884;8.11
14/07/17 14:00;DEZ2658;Eurdep;air;53.89;12.46;0;Germany;0;0;0;NEU HEINDE;7.684;7.95
14/07/17 14:00;DEZ2659;Eurdep;air;53.82;11.95;0;Germany;0;0;0;RÜHN;8.269;8.82
14/07/17 14:00;DEZ2661;Eurdep;air;53.56;11.27;0;Germany;0;0;0;WALSMÜHLEN;7.848000000000001;8.35
14/07/17 14:00;DEZ2663;Eurdep;air;53.44;11.49;0;Germany;0;0;0;FAHRBINDE;6.426;6.82
14/07/17 14:00;DEZ2664;Eurdep;air;53.17;11.29;0;Germany;0;0;0;NEU KALIß;6.447;6.74
14/07/17 14:00;DEZ2665;Eurdep;air;53.43;10.93;0;Germany;0;0;0;RODENWALDE;7.140000000000001;7.359999999999999
14/07/17 14:00;DEZ2666;Eurdep;air;53.16;11.54;0;Germany;0;0;0;STEESOW;6.18;6.4799999999999995
14/07/17 14:00;DEZ2669;Eurdep;air;53.46;13.58;0;Germany;0;0;0;WOLDEGK;9.644;10
14/07/17 14:00;DEZ2676;Eurdep;air;54.28;12.31;0;Germany;0;0;0;DIERHAGEN;5.538;5.7299999999999995
14/07/17 14:00;DEZ2678;Eurdep;air;54.15;12.43;0;Germany;0;0;0;GRESENHORST;7.662999999999999;7.93
14/07/17 14:00;DEZ2680;Eurdep;air;54;11.44;0;Germany;0;0;0;KIRCHDORF / POEL;8.047;8.26
14/07/17 14:00;DEZ2681;Eurdep;air;54.3;12.73;0;Germany;0;0;0;LÖBNITZ;6.486;6.83
14/07/17 14:00;DEZ2682;Eurdep;air;54.21;12.82;0;Germany;0;0;0;MILLIENHAGEN;7.801;8.07
14/07/17 14:00;DEZ2683;Eurdep;air;54.2;13.19;0;Germany;0;0;0;REINKENHAGEN;7.888;8.129999999999999
14/07/17 15:00;DEZ2684;Eurdep;air;54.05;13.12;0;Germany;0;0;0;POGGENDORF;8.199;8.540000000000001
14/07/17 14:00;DEZ2687;Eurdep;air;53.76;10.93;0;Germany;0;0;0;CARLOW;7.848000000000001;8.28
14/07/17 14:00;DEZ2688;Eurdep;air;53.91;11.27;0;Germany;0;0;0;GROß WALMSTORF;7.297;7.58
14/07/17 14:00;DEZ2689;Eurdep;air;53.97;11.04;0;Germany;0;0;0;KALKHORST;8.498999999999999;8.97
14/07/17 14:00;DEZ2690;Eurdep;air;53.95;11.59;0;Germany;0;0;0;NEUBURG;7.454000000000001;7.890000000000001
14/07/17 14:00;DEZ2691;Eurdep;air;53.86;10.93;0;Germany;0;0;0;SCHÖNBERG;8.762;9.34
14/07/17 14:00;DEZ2694;Eurdep;air;54.04;13.3;0;Germany;0;0;0;DERSEKOW;7.786;8.040000000000001
14/07/17 14:00;DEZ2695;Eurdep;air;53.83;13.44;0;Germany;0;0;0;KRIEN;9.25;9.49
14/07/17 14:00;DEZ2696;Eurdep;air;53.52;11.64;0;Germany;0;0;0;TRAMM;7.565;7.83
14/07/17 14:00;DEZ2706;Eurdep;air;50.38;12.13;0;Germany;0;0;0;TRIEBEL;11.431999999999999;12
14/07/17 14:00;DEZ2708;Eurdep;air;50.43;12.95;0;Germany;0;0;0;OBERWIESENTHAL;13.972;14
14/07/17 14:00;DEZ2710;Eurdep;air;51.54;12.34;0;Germany;0;0;0;DELITZSCH;9.524;9.92
14/07/17 14:00;DEZ2712;Eurdep;air;51.31;12.52;0;Germany;0;0;0;ENGELSDORF OT KLEINPÖSNA;9.738;10
14/07/17 14:00;DEZ2713;Eurdep;air;51.22;12.32;0;Germany;0;0;0;ZWENKAU;10.152;10
14/07/17 14:00;DEZ2714;Eurdep;air;51.06;13.27;0;Germany;0;0;0;NOSSEN;10.584;10
14/07/17 14:00;DEZ2715;Eurdep;air;50.61;13.46;0;Germany;0;0;0;DEUTSCHNEUDORF;12.272;13
14/07/17 14:00;DEZ2716;Eurdep;air;50.56;13.22;0;Germany;0;0;0;REITZENHAIN;13;13
14/07/17 14:00;DEZ2717;Eurdep;air;50.6;13.3;0;Germany;0;0;0;RÜBENAU;11;11
14/07/17 14:00;DEZ2721;Eurdep;air;51.26;15.03;0;Germany;0;0;0;DESCHKA;9.982;10
14/07/17 14:00;DEZ2722;Eurdep;air;51.12;14.81;0;Germany;0;0;0;REICHENBACH/O.L.;8.991;9.379999999999999
03/07/17 00:00;DEZ2726;Eurdep;air;51.63;12.88;0;Germany;0;0;0;DOMMITZSCH;0;0
14/07/17 14:00;DEZ2728;Eurdep;air;50.44;12.59;0;Germany;0;0;0;CARLSFELD;11.064;11
14/07/17 14:00;DEZ2732;Eurdep;air;52.12;12.09;0;Germany;0;0;0;LOBURG;6.7090000000000005;6.959999999999999
14/07/17 14:00;DEZ2734;Eurdep;air;51.72;12.62;0;Germany;0;0;0;ATERITZ;7.071;7.24
14/07/17 14:00;DEZ2736;Eurdep;air;51.28;11.64;0;Germany;0;0;0;KARSDORF;10.940000000000001;11
14/07/17 14:00;DEZ2737;Eurdep;air;51.09;11.93;0;Germany;0;0;0;OSTERFELD;9.26;9.76
14/07/17 14:00;DEZ2739;Eurdep;air;51.3;11.79;0;Germany;0;0;0;MÜCHELN;9.244;9.58
14/07/17 14:00;DEZ2740;Eurdep;air;51.28;12.1;0;Germany;0;0;0;TOLLWITZ;9.147;9.66
14/07/17 14:00;DEZ2741;Eurdep;air;51.44;12.04;0;Germany;0;0;0;DIESKAU;9.094;9.47
14/07/17 13:00;DEZ2745;Eurdep;air;51.23;11.88;0;Germany;0;0;0;PETTSTÄDT;9.659;9.93
14/07/17 14:00;DEZ2748;Eurdep;air;52.07;11.37;0;Germany;0;0;0;KLEIN WANZLEBEN;10.552;11
14/07/17 14:00;DEZ2750;Eurdep;air;52.17;11.07;0;Germany;0;0;0;SOMMERSDORF;9.409;9.67
14/07/17 14:00;DEZ2752;Eurdep;air;52.32;11.15;0;Germany;0;0;0;BEHNSDORF;6.923;7
14/07/17 14:00;DEZ2758;Eurdep;air;52.99;11.67;0;Germany;0;0;0;WAHRENBERG;7.368;7.68
14/07/17 14:00;DEZ2759;Eurdep;air;51.74;11.23;0;Germany;0;0;0;BALLENSTEDT;9.514;9
14/07/17 15:00;DEZ2760;Eurdep;air;51.65;11.14;0;Germany;0;0;0;HARZGERODE;10.301;10
14/07/17 14:00;DEZ2762;Eurdep;air;51.69;10.85;0;Germany;0;0;0;HASSELFELDE;9.892;10
14/07/17 14:00;DEZ2764;Eurdep;air;52.51;11.18;0;Germany;0;0;0;PECKFITZ;7.459999999999999;7.69
14/07/17 14:00;DEZ2765;Eurdep;air;52.71;11.05;0;Germany;0;0;0;ROHRBERG;7.388;7
14/07/17 14:00;DEZ2766;Eurdep;air;52.43;11.4;0;Germany;0;0;0;ROXFÖRDE;6.452;6.790000000000001
14/07/17 14:00;DEZ2767;Eurdep;air;52.74;11.24;0;Germany;0;0;0;WINTERFELD;7;7.35
14/07/17 14:00;DEZ2771;Eurdep;air;51.44;10.57;0;Germany;0;0;0;BLEICHERODE;11.86;12
14/07/17 14:00;DEZ2772;Eurdep;air;50.76;10.08;0;Germany;0;0;0;GEHAUS;10.696;11
14/07/17 14:00;DEZ2776;Eurdep;air;50.72;10.45;0;Germany;0;0;0;SCHMALKALDEN;13.62;14
14/07/17 14:00;DEZ2779;Eurdep;air;50.41;10.73;0;Germany;0;0;0;HILDBURGHAUSEN;9.778;10
14/07/17 14:00;DEZ2782;Eurdep;air;50.78;11.39;0;Germany;0;0;0;NEUSITZ;11.916;12
14/07/17 14:00;DEZ2783;Eurdep;air;50.66;11.1;0;Germany;0;0;0;KÖNIGSEE;11.315999999999999;12
14/07/17 14:00;DEZ2785;Eurdep;air;50.86;11.87;0;Germany;0;0;0;REICHENBACH;9.656;9.95
14/07/17 14:00;DEZ2786;Eurdep;air;50.46;11.53;0;Germany;0;0;0;WURZBACH;13;13
14/07/17 14:00;DEZ2789;Eurdep;air;54.11;8.94;0;Germany;0;0;0;NORDERMELDORF;6.656000000000001;6.83
14/07/17 14:00;DEZ2790;Eurdep;air;53.73;10.72;0;Germany;0;0;0;KLEIN DISNACK;8.117;8.379999999999999
14/07/17 14:00;DEZ2791;Eurdep;air;54.43;9.2;0;Germany;0;0;0;WINNERT;6.739;7
14/07/17 14:00;DEZ2792;Eurdep;air;54.81;8.71;0;Germany;0;0;0;EMMELSBÜLL;8.035;8.34
14/07/17 14:00;DEZ2793;Eurdep;air;54.21;9.92;0;Germany;0;0;0;LANGWEDEL;7.523000000000001;7.909999999999999
14/07/17 14:00;DEZ2794;Eurdep;air;54.13;9.56;0;Germany;0;0;0;TODENBÜTTEL;7.312;7.540000000000001
14/07/17 14:00;DEZ2795;Eurdep;air;54.44;9.43;0;Germany;0;0;0;GROß RHEIDE;6.5040000000000004;6
14/07/17 14:00;DEZ2797;Eurdep;air;53.97;9.97;0;Germany;0;0;0;GROßENASPE;6.572;6.82
14/07/17 14:00;DEZ2798;Eurdep;air;54.04;10.22;0;Germany;0;0;0;TRAPPENKAMP;7;7.720000000000001
14/07/17 15:00;DEZ2799;Eurdep;air;52.15;10.33;0;Germany;0;0;0;SALZGITTER-LEBENSTEDT;9.577;9.89
14/07/17 14:00;DEZ2804;Eurdep;air;53.25;8.82;0;Germany;0;0;0;OSTERH.-SCHARMB. OT PENNIGBÜTTEL;6.053;6.3100000000000005
14/07/17 14:00;DEZ2805;Eurdep;air;53.46;7.83;0;Germany;0;0;0;FRIEDEBURG;5.724;6.33
14/07/17 15:00;DEZ2806;Eurdep;air;53.05;8.8;0;Germany;0;0;0;BREMEN-NEUENLANDE;6.94;7
14/07/17 14:00;DEZ2807;Eurdep;air;50.8;6.4;0;Germany;0;0;0;LANGERWEHE-SCHLICH;9.812999999999999;10
14/07/17 14:00;DEZ2808;Eurdep;air;50.97;6.28;0;Germany;0;0;0;LINNICH;9.998999999999999;10
14/07/17 14:00;DEZ2809;Eurdep;air;50.87;6.47;0;Germany;0;0;0;NIEDERZIER;9.174;9.64
14/07/17 14:00;DEZ2810;Eurdep;air;50.91;6.68;0;Germany;0;0;0;KERPEN-SINDORF;9.847;10
14/07/17 14:00;DEZ2812;Eurdep;air;50.96;7.55;0;Germany;0;0;0;WIEHL;10.852;11
14/07/17 14:00;DEZ2813;Eurdep;air;52.04;7.1;0;Germany;0;0;0;LEGDEN;6.539;6.85
14/07/17 14:00;DEZ2814;Eurdep;air;52.1;7.23;0;Germany;0;0;0;SCHÖPPINGEN;6.540000000000001;6.82
14/07/17 14:00;DEZ2816;Eurdep;air;52.32;7.79;0;Germany;0;0;0;METTINGEN;7.742;8.129999999999999
14/07/17 15:00;DEZ2818;Eurdep;air;51.24;7.64;0;Germany;0;0;0;LÜDENSCHEID;10.407;10
14/07/17 14:00;DEZ2819;Eurdep;air;51.29;7.8;0;Germany;0;0;0;NEUENRADE;10.620000000000001;11
14/07/17 14:00;DEZ2820;Eurdep;air;49.56;9.02;0;Germany;0;0;0;SENSBACHTAL;8.825;9.07
