date;id_station;id_network;type;latitude;longitude;altitude;country;area_adm_1;area_adm_2;area_adm_3;name;value;value_max
02/04/17 00:00;DEZ0001;Eurdep;air;54.78;9.38;0;Germany;0;0;0;FLENSBURG;7.501;8.16
02/04/17 00:00;DEZ0005;Eurdep;air;54.02;9.05;0;Germany;0;0;0;BARLT;8.038;9
02/04/17 00:00;DEZ0008;Eurdep;air;54.17;9.33;0;Germany;0;0;0;BUNSOH;6.889;8.05
02/04/17 00:00;DEZ0012;Eurdep;air;54.19;9.15;0;Germany;0;0;0;HEIDE;6.831;8
02/04/17 00:00;DEZ0013;Eurdep;air;54.35;9.02;0;Germany;0;0;0;LEHE;7.245;8.72
02/04/17 00:00;DEZ0017;Eurdep;air;54.21;8.92;0;Germany;0;0;0;WESSELBUREN;7.4510000000000005;8.870000000000001
02/04/17 00:00;DEZ0032;Eurdep;air;53.39;10.49;0;Germany;0;0;0;SCHNAKENBEK;7.439;9.64
02/04/17 00:00;DEZ0034;Eurdep;air;53.44;10.45;0;Germany;0;0;0;WIERSHOP;8.834;10
02/04/17 00:00;DEZ0038;Eurdep;air;54.77;8.29;0;Germany;0;0;0;HÖRNUM / SYLT;4.896;5.0600000000000005
02/04/17 00:00;DEZ0044;Eurdep;air;54.65;8.35;0;Germany;0;0;0;NEBEL / AMRUM;6.232;6.58
02/04/17 00:00;DEZ0048;Eurdep;air;54.52;8.67;0;Germany;0;0;0;PELLWORM;8.302;9
01/04/17 23:00;DEZ0055;Eurdep;air;54.86;9.01;0;Germany;0;0;0;WESTRE;6.137;6.37
02/04/17 00:00;DEZ0057;Eurdep;air;54.5;11.24;0;Germany;0;0;0;MARIENLEUCHTE / FEHMARN;8;8.959999999999999
02/04/17 00:00;DEZ0059;Eurdep;air;54.2;11.09;0;Germany;0;0;0;DAHME;7.861;8.129999999999999
02/04/17 00:00;DEZ0060;Eurdep;air;54.15;10.6;0;Germany;0;0;0;EUTIN;7.906999999999999;9.55
02/04/17 00:00;DEZ0062;Eurdep;air;54.38;10.95;0;Germany;0;0;0;HEILIGENHAFEN;8.354000000000001;8.83
02/04/17 00:00;DEZ0068;Eurdep;air;53.9;10.66;0;Germany;0;0;0;STOCKELSDORF;7.1370000000000005;7.85
02/04/17 00:00;DEZ0072;Eurdep;air;53.86;9.74;0;Germany;0;0;0;BOKEL;6.409000000000001;7.7700000000000005
02/04/17 00:00;DEZ0074;Eurdep;air;54.17;7.89;0;Germany;0;0;0;HELGOLAND / UNTERLAND;7.668000000000001;8.01
30/03/17 22:00;DEZ0077;Eurdep;air;54.37;10.21;0;Germany;0;0;0;HEIKENDORF;0;0
02/04/17 00:00;DEZ0080;Eurdep;air;54.3;10.23;0;Germany;0;0;0;KLAUSDORF;7.831999999999999;9.36
02/04/17 00:00;DEZ0082;Eurdep;air;54.18;10.2;0;Germany;0;0;0;NETTELSEE;7.340999999999999;9.290000000000001
02/04/17 00:00;DEZ0083;Eurdep;air;54.16;10.45;0;Germany;0;0;0;PLÖN;8.086;9
02/04/17 00:00;DEZ0086;Eurdep;air;54.29;10.42;0;Germany;0;0;0;SELENT;8.270999999999999;9.83
02/04/17 00:00;DEZ0087;Eurdep;air;54.44;9.7;0;Germany;0;0;0;ASCHEFFEL;7.9799999999999995;9.32
02/04/17 00:00;DEZ0091;Eurdep;air;54.47;9.87;0;Germany;0;0;0;ECKERNFÖRDE;7.3950000000000005;8.91
02/04/17 00:00;DEZ0092;Eurdep;air;54.4;9.97;0;Germany;0;0;0;GETTORF;7.928;8.790000000000001
30/03/17 22:00;DEZ0095;Eurdep;air;54.21;9.71;0;Germany;0;0;0;JEVENSTEDT-OT NIENKATTBEK;0;0
02/04/17 00:00;DEZ0097;Eurdep;air;54.27;10.08;0;Germany;0;0;0;MOLFSEE;8.83;9
02/04/17 00:00;DEZ0102;Eurdep;air;54.08;9.9;0;Germany;0;0;0;WASBEK;6.418000000000001;7.63
02/04/17 00:00;DEZ0104;Eurdep;air;54.31;9.3;0;Germany;0;0;0;ERFDE;7.519;9.57
02/04/17 00:00;DEZ0107;Eurdep;air;54.65;9.94;0;Germany;0;0;0;KAPPELN;7.406999999999999;8.290000000000001
02/04/17 00:00;DEZ0111;Eurdep;air;54.53;9.55;0;Germany;0;0;0;SCHLESWIG;8.273;9.26
02/04/17 00:00;DEZ0112;Eurdep;air;54.64;9.76;0;Germany;0;0;0;SÜDERBRARUP;8.36;9.540000000000001
02/04/17 00:00;DEZ0116;Eurdep;air;54.83;9.55;0;Germany;0;0;0;GLÜCKSBURG;7.909000000000001;8
02/04/17 00:00;DEZ0119;Eurdep;air;54.73;9.74;0;Germany;0;0;0;STERUP;8.382;9.08
02/04/17 00:00;DEZ0123;Eurdep;air;53.91;10.17;0;Germany;0;0;0;BARK;8.112;8.45
02/04/17 00:00;DEZ0128;Eurdep;air;53.88;9.98;0;Germany;0;0;0;SCHMALFELD;5.768;5.93
02/04/17 00:00;DEZ0131;Eurdep;air;53.79;10.08;0;Germany;0;0;0;WAKENDORF II;7.265000000000001;7.55
02/04/17 00:00;DEZ0136;Eurdep;air;53.78;9.61;0;Germany;0;0;0;KIEBITZREIHE;5.799;6.470000000000001
02/04/17 00:00;DEZ0137;Eurdep;air;53.84;9.49;0;Germany;0;0;0;KREMPE;8.145999999999999;8.85
02/04/17 00:00;DEZ0139;Eurdep;air;53.94;9.4;0;Germany;0;0;0;MOORHUSEN;7.806;8.39
02/04/17 00:00;DEZ0140;Eurdep;air;53.92;9.58;0;Germany;0;0;0;OELIXDORF;7.1209999999999996;7.779999999999999
02/04/17 00:00;DEZ0141;Eurdep;air;53.88;9.26;0;Germany;0;0;0;ST. MARGARETHEN;7.845000000000001;8.41
02/04/17 00:00;DEZ0145;Eurdep;air;53.61;10.24;0;Germany;0;0;0;BRAAK;8.236;8.93
02/04/17 00:00;DEZ0147;Eurdep;air;53.81;10.44;0;Germany;0;0;0;MEDDEWADE;8.734;9.190000000000001
02/04/17 00:00;DEZ0151;Eurdep;air;53.53;10.14;0;Germany;0;0;0;HAMBURG-BILLSTEDT;7.225;8
02/04/17 00:00;DEZ0156;Eurdep;air;53.58;10.11;0;Germany;0;0;0;HAMBURG-JENFELD;8.228;8.67
02/04/17 00:00;DEZ0157;Eurdep;air;53.65;10.11;0;Germany;0;0;0;HAMBURG-SASEL;7.404999999999999;7
02/04/17 00:00;DEZ0158;Eurdep;air;53.47;10.19;0;Germany;0;0;0;HAMBURG-NETTELNBURG;8.503;9.39
02/04/17 00:00;DEZ0167;Eurdep;air;52.13;10.29;0;Germany;0;0;0;SALZGITTER-LICHTENBERG;9.422;11
02/04/17 00:00;DEZ0169;Eurdep;air;52.47;10.53;0;Germany;0;0;0;GIFHORN;7.197;8
30/03/17 22:00;DEZ0170;Eurdep;air;52.65;10.46;0;Germany;0;0;0;GROß OESINGEN;0;0
02/04/17 00:00;DEZ0172;Eurdep;air;52.38;10.53;0;Germany;0;0;0;MEINE;8.372;10
02/04/17 00:00;DEZ0173;Eurdep;air;52.48;10.36;0;Germany;0;0;0;MEINERSEN;7.806;10
02/04/17 00:00;DEZ0175;Eurdep;air;52.77;10.45;0;Germany;0;0;0;SPRAKENSEHL OT HAGEN;6.815;8.68
30/03/17 22:00;DEZ0176;Eurdep;air;52.62;10.59;0;Germany;0;0;0;WAHRENHOLZ;0;0
01/04/17 19:00;DEZ0177;Eurdep;air;52.73;10.73;0;Germany;0;0;0;WITTINGEN;7.390000000000001;7.57
02/04/17 00:00;DEZ0178;Eurdep;air;52.62;10.81;0;Germany;0;0;0;WITTINGEN-BOITZENHAGEN;6.7010000000000005;7.840000000000001
02/04/17 00:00;DEZ0180;Eurdep;air;51.5;9.76;0;Germany;0;0;0;DRANSFELD;11.114;12
02/04/17 00:00;DEZ0182;Eurdep;air;51.44;9.93;0;Germany;0;0;0;FRIEDLAND-GROß SCHNEEN;11.259;13
02/04/17 00:00;DEZ0183;Eurdep;air;51.61;10.21;0;Germany;0;0;0;GIEBOLDEHAUSEN;11.577;12
02/04/17 00:00;DEZ0185;Eurdep;air;51.48;10.11;0;Germany;0;0;0;RITTMARSHAUSEN;10.370000000000001;11
02/04/17 00:00;DEZ0186;Eurdep;air;51.52;9.93;0;Germany;0;0;0;GÖTTINGEN;9.865;13
02/04/17 00:00;DEZ0188;Eurdep;air;51.56;10.06;0;Germany;0;0;0;WAAKE;12.659;14
30/03/17 22:00;DEZ0189;Eurdep;air;51.81;10.54;0;Germany;0;0;0;TORFHAUS;0;0
02/04/17 00:00;DEZ0191;Eurdep;air;51.72;10.6;0;Germany;0;0;0;BRAUNLAGE;10.577;12
02/04/17 00:00;DEZ0195;Eurdep;air;52.02;10.44;0;Germany;0;0;0;LIEBENBURG;9.587;10
30/03/17 22:00;DEZ0197;Eurdep;air;51.95;10.54;0;Germany;0;0;0;VIENENBURG;0;0
02/04/17 00:00;DEZ0201;Eurdep;air;52.25;10.81;0;Germany;0;0;0;KÖNIGSLUTTER;7.365;8.89
02/04/17 00:00;DEZ0205;Eurdep;air;51.88;10;0;Germany;0;0;0;BAD GANDERSHEIM;10.891;13
02/04/17 00:00;DEZ0208;Eurdep;air;51.79;10.06;0;Germany;0;0;0;ECHTE;10.068999999999999;10
02/04/17 00:00;DEZ0209;Eurdep;air;51.68;10.1;0;Germany;0;0;0;KATLENBURG-LINDAU;10.47;10
30/03/17 22:00;DEZ0210;Eurdep;air;51.73;9.79;0;Germany;0;0;0;FREDELSLOH;0;0
30/03/17 22:00;DEZ0212;Eurdep;air;51.62;9.66;0;Germany;0;0;0;USLAR OT SCHONINGEN;0;0
02/04/17 00:00;DEZ0213;Eurdep;air;51.63;10.47;0;Germany;0;0;0;BAD LAUTERBERG IM HARZ;11.331999999999999;13
02/04/17 00:00;DEZ0215;Eurdep;air;51.75;10.21;0;Germany;0;0;0;OSTERODE AM HARZ;9.906;10
02/04/17 00:00;DEZ0216;Eurdep;air;51.58;10.61;0;Germany;0;0;0;WALKENRIED;10.159;11
02/04/17 00:00;DEZ0218;Eurdep;air;52.27;10.23;0;Germany;0;0;0;GROSS ILSEDE;11.168000000000001;13
02/04/17 00:00;DEZ0220;Eurdep;air;52.32;10.24;0;Germany;0;0;0;PEINE;8.236;9.940000000000001
30/03/17 22:00;DEZ0222;Eurdep;air;52.32;10.39;0;Germany;0;0;0;WENDEBURG;0;0
02/04/17 00:00;DEZ0225;Eurdep;air;52.04;10.6;0;Germany;0;0;0;HORNBURG;11.118;12
30/03/17 22:00;DEZ0227;Eurdep;air;52.04;10.26;0;Germany;0;0;0;SEHLDE;0;0
02/04/17 00:00;DEZ0235;Eurdep;air;52.72;8.53;0;Germany;0;0;0;BARNSTORF;6.339;6.56
02/04/17 00:00;DEZ0236;Eurdep;air;52.85;8.73;0;Germany;0;0;0;BASSUM;7.087000000000001;7.42
02/04/17 00:00;DEZ0238;Eurdep;air;52.74;8.7;0;Germany;0;0;0;EHRENBURG;7.608;7.85
02/04/17 00:00;DEZ0239;Eurdep;air;52.62;8.65;0;Germany;0;0;0;FREISTATT;6.775;7.08
02/04/17 00:00;DEZ0240;Eurdep;air;52.59;8.84;0;Germany;0;0;0;KIRCHDORF;6.978;7.37
02/04/17 00:00;DEZ0242;Eurdep;air;52.88;9.06;0;Germany;0;0;0;MARTFELD;6.6579999999999995;6.93
02/04/17 00:00;DEZ0244;Eurdep;air;52.79;8.84;0;Germany;0;0;0;SCHWAFÖRDEN-SUDWALDE;8.334;8
02/04/17 00:00;DEZ0245;Eurdep;air;52.69;8.82;0;Germany;0;0;0;SULINGEN;6.498;6.67
02/04/17 00:00;DEZ0246;Eurdep;air;52.93;8.82;0;Germany;0;0;0;SYKE-BARRIEN;7.345000000000001;7.609999999999999
02/04/17 00:00;DEZ0248;Eurdep;air;52.06;9.33;0;Germany;0;0;0;AERZEN/GR.BERKEL;9.42;10
02/04/17 00:00;DEZ0250;Eurdep;air;51.97;9.3;0;Germany;0;0;0;BAD PYRMONT;9.164;9.790000000000001
02/04/17 00:00;DEZ0251;Eurdep;air;52.11;9.55;0;Germany;0;0;0;COPPENBRÜGGE;9.064;10
02/04/17 00:00;DEZ0253;Eurdep;air;52.15;9.39;0;Germany;0;0;0;UNSEN - HAMELN;8.963;10
02/04/17 00:00;DEZ0254;Eurdep;air;52.17;9.24;0;Germany;0;0;0;HESSISCH-OLDENDORF;8.934000000000001;9
02/04/17 00:00;DEZ0255;Eurdep;air;52.07;9.58;0;Germany;0;0;0;SALZHEMMENDORF;9.245999999999999;10
02/04/17 00:00;DEZ0256;Eurdep;air;52.45;10;0;Germany;0;0;0;BURGDORF;8.058;9.32
02/04/17 00:00;DEZ0258;Eurdep;air;52.46;9.6;0;Germany;0;0;0;OSTERWALD/STADT GARBSEN;7.045999999999999;8.85
02/04/17 00:00;DEZ0259;Eurdep;air;52.3;9.6;0;Germany;0;0;0;GEHRDEN;8.870999999999999;9.99
30/03/17 22:00;DEZ0262;Eurdep;air;52.37;9.97;0;Germany;0;0;0;LEHRTE;0;0
30/03/17 22:00;DEZ0271;Eurdep;air;52.42;9.43;0;Germany;0;0;0;WUNSTORF;0;0
30/03/17 22:00;DEZ0272;Eurdep;air;51.95;9.84;0;Germany;0;0;0;ALFELD-WISPENSTEIN;0;0
02/04/17 00:00;DEZ0274;Eurdep;air;52.13;9.73;0;Germany;0;0;0;ELZE;10.649;15
02/04/17 00:00;DEZ0278;Eurdep;air;52.15;10.09;0;Germany;0;0;0;OTTBERGEN;9.495000000000001;13
30/03/17 22:00;DEZ0279;Eurdep;air;52.05;9.9;0;Germany;0;0;0;SIBBESSE;0;0
02/04/17 00:00;DEZ0281;Eurdep;air;52.01;9.7;0;Germany;0;0;0;DUINGEN;9.539;12
02/04/17 00:00;DEZ0284;Eurdep;air;51.84;9.44;0;Germany;0;0;0;HOLZMINDEN;9.936;11
02/04/17 00:00;DEZ0285;Eurdep;air;51.75;9.52;0;Germany;0;0;0;NEUHAUS - HOLZMINDEN;9.609;11
02/04/17 00:00;DEZ0286;Eurdep;air;51.95;9.41;0;Germany;0;0;0;OTTENSTEIN;9.773;11
02/04/17 00:00;DEZ0287;Eurdep;air;51.89;9.63;0;Germany;0;0;0;STADTOLDENDORF;9.09;11
02/04/17 00:00;DEZ0290;Eurdep;air;52.6;9.09;0;Germany;0;0;0;LIEBENAU;6.942;7.24
02/04/17 00:00;DEZ0292;Eurdep;air;52.47;9.23;0;Germany;0;0;0;REHBURG-LOCCUM;7.731;8.05
02/04/17 00:00;DEZ0297;Eurdep;air;52.23;9.24;0;Germany;0;0;0;REHREN-AUETAL;8.851;9.18
30/03/17 22:00;DEZ0298;Eurdep;air;52.26;9.03;0;Germany;0;0;0;BÜCKEBURG;0;0
30/03/17 22:00;DEZ0302;Eurdep;air;52.61;10.29;0;Germany;0;0;0;AHNSBECK;0;0
02/04/17 00:00;DEZ0303;Eurdep;air;52.82;9.97;0;Germany;0;0;0;BERGEN;7.878;9.89
02/04/17 00:00;DEZ0305;Eurdep;air;52.74;10.24;0;Germany;0;0;0;ESCHEDE;7.420999999999999;9.77
02/04/17 00:00;DEZ0309;Eurdep;air;52.65;9.86;0;Germany;0;0;0;WIETZE;6.912000000000001;9.05
02/04/17 00:00;DEZ0310;Eurdep;air;52.73;9.85;0;Germany;0;0;0;MEIßENDORF;6.764;8
02/04/17 00:00;DEZ0317;Eurdep;air;53.69;8.56;0;Germany;0;0;0;DORUM;8.204;8.64
02/04/17 00:00;DEZ0320;Eurdep;air;53.63;9.1;0;Germany;0;0;0;LAMSTEDT;6;7
02/04/17 00:00;DEZ0321;Eurdep;air;53.45;8.63;0;Germany;0;0;0;LOXSTEDT-NESSE;6.708;6.93
02/04/17 00:00;DEZ0324;Eurdep;air;53.81;8.9;0;Germany;0;0;0;OTTERNDORF;7.981;9
02/04/17 00:00;DEZ0325;Eurdep;air;53.51;8.81;0;Germany;0;0;0;WEHDEL;6.645999999999999;6.840000000000001
14/03/17 23:00;DEZ0326;Eurdep;air;53.74;8.8;0;Germany;0;0;0;WANNA;0;0
02/04/17 00:00;DEZ0327;Eurdep;air;53.64;8.57;0;Germany;0;0;0;WREMEN;8.253;9.05
02/04/17 00:00;DEZ0328;Eurdep;air;53.3;10.05;0;Germany;0;0;0;HANSTEDT/BRACKEL;7.4670000000000005;8.22
02/04/17 00:00;DEZ0330;Eurdep;air;53.43;10.31;0;Germany;0;0;0;DRAGE;7.7090000000000005;8.84
02/04/17 00:00;DEZ0331;Eurdep;air;53.25;9.83;0;Germany;0;0;0;HANDELOH;7.331999999999999;8.059999999999999
02/04/17 00:00;DEZ0332;Eurdep;air;53.2;10.05;0;Germany;0;0;0;EGESTORF-SG HANSTEDT;6.578;7.57
02/04/17 00:00;DEZ0335;Eurdep;air;53.4;10.41;0;Germany;0;0;0;TESPE;7.561;9.43
02/04/17 00:00;DEZ0336;Eurdep;air;53.36;10.2;0;Germany;0;0;0;WINSEN (LUHE);7.4590000000000005;8.16
02/04/17 00:00;DEZ0341;Eurdep;air;53.14;11.04;0;Germany;0;0;0;HITZACKER;8.812000000000001;11
02/04/17 00:00;DEZ0342;Eurdep;air;53.07;11.44;0;Germany;0;0;0;HÖHBECK;6.401999999999999;8.24
02/04/17 00:00;DEZ0343;Eurdep;air;52.98;11.07;0;Germany;0;0;0;KÜSTEN;7.367;9.48
02/04/17 00:00;DEZ0344;Eurdep;air;52.92;11.28;0;Germany;0;0;0;SCHWESKAU;7.108;8.84
02/04/17 00:00;DEZ0346;Eurdep;air;53.24;10.87;0;Germany;0;0;0;KATEMIN;7.279000000000001;8.73
02/04/17 00:00;DEZ0347;Eurdep;air;52.88;10.89;0;Germany;0;0;0;SCHNEGA;7.2700000000000005;9.959999999999999
02/04/17 00:00;DEZ0348;Eurdep;air;53;11.32;0;Germany;0;0;0;TREBEL;6.661;7.87
02/04/17 00:00;DEZ0349;Eurdep;air;53.07;10.88;0;Germany;0;0;0;ZERNIEN;7.001;9
01/04/17 20:00;DEZ0352;Eurdep;air;53.18;10.75;0;Germany;0;0;0;DAHLENBURG;7.7219999999999995;9.03
02/04/17 00:00;DEZ0357;Eurdep;air;53.1;10.22;0;Germany;0;0;0;REHLINGEN;6.8469999999999995;7.82
02/04/17 00:00;DEZ0362;Eurdep;air;53.5;9.17;0;Germany;0;0;0;BREMERVÖRDE;5.9159999999999995;6.05
02/04/17 00:00;DEZ0363;Eurdep;air;53.17;9.67;0;Germany;0;0;0;FINTEL;7.275;8.93
02/04/17 00:00;DEZ0365;Eurdep;air;53.5;8.97;0;Germany;0;0;0;HIPSTEDT;6.138;6.38
02/04/17 00:00;DEZ0366;Eurdep;air;53.02;9.39;0;Germany;0;0;0;KIRCHWALSEDE;7.465000000000001;7.790000000000001
02/04/17 00:00;DEZ0367;Eurdep;air;53.11;9.4;0;Germany;0;0;0;ROTENBURG;6;6.529999999999999
01/04/17 17:00;DEZ0372;Eurdep;air;52.99;9.58;0;Germany;0;0;0;VISSELHÖVEDE;7.609999999999999;7.609999999999999
02/04/17 00:00;DEZ0374;Eurdep;air;53.11;10.08;0;Germany;0;0;0;STEINBECK;6.213;6.970000000000001
02/04/17 00:00;DEZ0381;Eurdep;air;53.12;9.8;0;Germany;0;0;0;SCHNEVERDINGEN;7.843000000000001;8.89
30/03/17 22:00;DEZ0383;Eurdep;air;52.9;9.46;0;Germany;0;0;0;WALSRODE OT HAMWIEDE;0;0
02/04/17 00:00;DEZ0384;Eurdep;air;52.92;9.97;0;Germany;0;0;0;WIETZENDORF;6.3340000000000005;8.22
02/04/17 00:00;DEZ0385;Eurdep;air;53.83;9.13;0;Germany;0;0;0;BALJE / STADE;7.553;7.83
02/04/17 00:00;DEZ0387;Eurdep;air;53.69;9.43;0;Germany;0;0;0;DROCHTERSEN-ASSEL;7.829000000000001;8.84
02/04/17 00:00;DEZ0388;Eurdep;air;53.52;9.4;0;Germany;0;0;0;FREDENBECK;7.365;7.56
02/04/17 00:00;DEZ0390;Eurdep;air;53.63;9.32;0;Germany;0;0;0;HIMMELPFORTEN;7.043000000000001;8.75
02/04/17 00:00;DEZ0391;Eurdep;air;53.59;9.55;0;Germany;0;0;0;HOLLERN-TWIELENFLETH;7.859999999999999;8.17
02/04/17 00:00;DEZ0392;Eurdep;air;53.45;9.51;0;Germany;0;0;0;HARSEFELD;7.556;7.779999999999999
02/04/17 00:00;DEZ0394;Eurdep;air;53.62;9.53;0;Germany;0;0;0;STADE KKW;7.608;8.01
02/04/17 00:00;DEZ0396;Eurdep;air;53.77;9.32;0;Germany;0;0;0;WISCHHAFEN;7.325;8.67
02/04/17 00:00;DEZ0397;Eurdep;air;53.09;10.57;0;Germany;0;0;0;BAD BEVENSEN OT MEDINGEN;7.393000000000001;8.809999999999999
01/04/17 18:00;DEZ0398;Eurdep;air;53.15;10.49;0;Germany;0;0;0;BIENENBÜTTEL;8.162;10
02/04/17 00:00;DEZ0401;Eurdep;air;53.05;10.38;0;Germany;0;0;0;HANSTEDT 1;6.6290000000000004;8.95
02/04/17 00:00;DEZ0402;Eurdep;air;52.8;10.76;0;Germany;0;0;0;LÜDER/LANGENBRÜGGE;7.183;8.99
02/04/17 00:00;DEZ0407;Eurdep;air;53.05;9.04;0;Germany;0;0;0;OYTEN;7.420999999999999;7.709999999999999
02/04/17 00:00;DEZ0410;Eurdep;air;53.04;8.59;0;Germany;0;0;0;DELMENHORST;7.053;7.31
02/04/17 00:00;DEZ0411;Eurdep;air;53.36;7.16;0;Germany;0;0;0;EMDEN / LARRELT;7.763;8
02/04/17 00:00;DEZ0413;Eurdep;air;53.14;8.24;0;Germany;0;0;0;OLDENBURG;6.305;6.67
30/03/17 22:00;DEZ0414;Eurdep;air;52.26;8.11;0;Germany;0;0;0;OSNABRÜCK-DÜSTRUP;0;0
02/04/17 00:00;DEZ0416;Eurdep;air;53.6;8.05;0;Germany;0;0;0;WILHELMSHAVEN-SENGWARDEN;7.578;8.48
02/04/17 00:00;DEZ0418;Eurdep;air;53.25;7.94;0;Germany;0;0;0;WESTERSTEDE;6.379;6.68
02/04/17 00:00;DEZ0420;Eurdep;air;53.47;7.5;0;Germany;0;0;0;AURICH;6.787000000000001;8
02/04/17 00:00;DEZ0421;Eurdep;air;53.54;7.62;0;Germany;0;0;0;AURICH-MIDDELS;6.133;7.75
02/04/17 00:00;DEZ0422;Eurdep;air;53.73;7.37;0;Germany;0;0;0;BALTRUM;7.606999999999999;8.629999999999999
02/04/17 00:00;DEZ0424;Eurdep;air;53.35;7.61;0;Germany;0;0;0;GROßEFEHN-BAGBAND;6.545999999999999;8.58
02/04/17 00:00;DEZ0425;Eurdep;air;53.67;7.28;0;Germany;0;0;0;HAGERMARSCH AS HILGENRIEDERSIEL;7.523999999999999;8.86
02/04/17 00:00;DEZ0427;Eurdep;air;53.5;7.1;0;Germany;0;0;0;KRUMMHÖRN-GREETSIEL;6.965000000000001;8.129999999999999
02/04/17 00:00;DEZ0428;Eurdep;air;53.41;7.02;0;Germany;0;0;0;KRUMMHÖRN-CAMPEN;8.112;9.379999999999999
02/04/17 00:00;DEZ0429;Eurdep;air;53.5;7.3;0;Germany;0;0;0;MARIENHAFE/SIEGELSUM;6;8
02/04/17 00:00;DEZ0433;Eurdep;air;53.71;7.15;0;Germany;0;0;0;NORDERNEY;6.24;6.840000000000001
02/04/17 00:00;DEZ0434;Eurdep;air;53.17;7.74;0;Germany;0;0;0;BARßEL-BARßELERMOOR;6.949;7.31
02/04/17 00:00;DEZ0435;Eurdep;air;52.84;8.01;0;Germany;0;0;0;CLOPPENBURG;6.699;6.99
02/04/17 00:00;DEZ0438;Eurdep;air;52.92;7.89;0;Germany;0;0;0;Friesoythe-Augustendorf;6.221;6.459999999999999
30/03/17 22:00;DEZ0439;Eurdep;air;52.96;8.03;0;Germany;0;0;0;GARREL;0;0
02/04/17 00:00;DEZ0441;Eurdep;air;52.6;7.4;0;Germany;0;0;0;BAWINKEL;5.879;6.11
02/04/17 00:00;DEZ0442;Eurdep;air;52.43;7.51;0;Germany;0;0;0;BEESTEN;6.3950000000000005;6.57
02/04/17 00:00;DEZ0446;Eurdep;air;52.45;7.31;0;Germany;0;0;0;ELBERGEN-EMSBÜREN;6.712000000000001;6.909999999999999
02/04/17 00:00;DEZ0448;Eurdep;air;52.84;7.1;0;Germany;0;0;0;HAREN/EMS OT RÜTENBROCK;6.1659999999999995;7.07
02/04/17 00:00;DEZ0449;Eurdep;air;52.68;7.6;0;Germany;0;0;0;HERZLAKE;6.547;6.82
02/04/17 00:00;DEZ0450;Eurdep;air;52.77;7.46;0;Germany;0;0;0;KLEIN BERßEN;7.279999999999999;7.709999999999999
02/04/17 00:00;DEZ0451;Eurdep;air;52.87;7.33;0;Germany;0;0;0;LATHEN;6.398;6.87
30/03/17 22:00;DEZ0453;Eurdep;air;52.56;7.53;0;Germany;0;0;0;LENGERICH;0;0
02/04/17 00:00;DEZ0455;Eurdep;air;52.46;7.37;0;Germany;0;0;0;LINGEN-BRAMSCHE;7.656999999999999;7.909999999999999
02/04/17 00:00;DEZ0456;Eurdep;air;52.51;7.29;0;Germany;0;0;0;LINGEN-SCHEPSDORF;5.7219999999999995;5.99
02/04/17 00:00;DEZ0458;Eurdep;air;53;7.4;0;Germany;0;0;0;NEULEHE;6.76;7
02/04/17 00:00;DEZ0467;Eurdep;air;53.79;7.91;0;Germany;0;0;0;WANGEROOGE;6.356;8.36
02/04/17 00:00;DEZ0469;Eurdep;air;53.38;7.96;0;Germany;0;0;0;ZETEL-NEUENBURG;7.275;8.059999999999999
30/03/17 22:00;DEZ0470;Eurdep;air;52.32;7.17;0;Germany;0;0;0;BAD BENTHEIM;0;0
02/04/17 00:00;DEZ0474;Eurdep;air;52.57;7.08;0;Germany;0;0;0;GEORGSDORF;6.335;6.790000000000001
02/04/17 00:00;DEZ0478;Eurdep;air;52.46;7.18;0;Germany;0;0;0;NORDHORN-KLAUSHEIDE;6.819;7.15
02/04/17 00:00;DEZ0479;Eurdep;air;52.47;7.02;0;Germany;0;0;0;NORDHORN-FRENSWEGEN;6.0280000000000005;6.39
30/03/17 22:00;DEZ0482;Eurdep;air;53.6;6.7;0;Germany;0;0;0;BORKUM;0;0
02/04/17 00:00;DEZ0487;Eurdep;air;53.33;7.34;0;Germany;0;0;0;MOORMERLAND-OLDERSUM;7.073;7.9799999999999995
02/04/17 00:00;DEZ0490;Eurdep;air;53.13;7.23;0;Germany;0;0;0;WYMEER;5.449;7.029999999999999
02/04/17 00:00;DEZ0491;Eurdep;air;52.96;8.63;0;Germany;0;0;0;GROß IPPENER;6.673;6.92
30/03/17 22:00;DEZ0492;Eurdep;air;52.94;8.26;0;Germany;0;0;0;GROßENKNETEN;0;0
02/04/17 00:00;DEZ0493;Eurdep;air;53.02;8.35;0;Germany;0;0;0;KIRCHHATTEN;6.259;6.459999999999999
30/03/17 22:00;DEZ0494;Eurdep;air;53.11;8.46;0;Germany;0;0;0;HUDE;0;0
02/04/17 00:00;DEZ0495;Eurdep;air;53.06;8.21;0;Germany;0;0;0;WARDENBURG;6.828;7
02/04/17 00:00;DEZ0496;Eurdep;air;52.9;8.43;0;Germany;0;0;0;WILDESHAUSEN;6.9719999999999995;7.279999999999999
01/04/17 23:00;DEZ0498;Eurdep;air;52.32;8.34;0;Germany;0;0;0;BAD ESSEN;8.762;8.97
30/03/17 22:00;DEZ0501;Eurdep;air;52.45;7.96;0;Germany;0;0;0;BRAMSCHE-HESEPE;0;0
02/04/17 00:00;DEZ0503;Eurdep;air;52.62;7.74;0;Germany;0;0;0;BERGE;7.662999999999999;7.890000000000001
02/04/17 00:00;DEZ0505;Eurdep;air;52.38;8.2;0;Germany;0;0;0;OSTERCAPPELN-SCHWAGSTORF;7.534999999999999;7.88
02/04/17 00:00;DEZ0506;Eurdep;air;52.67;7.94;0;Germany;0;0;0;QUAKENBRÜCK;6.891;7.290000000000001
02/04/17 00:00;DEZ0510;Eurdep;air;52.71;8.29;0;Germany;0;0;0;VECHTA;7.556;7.87
02/04/17 00:00;DEZ0511;Eurdep;air;53.33;8.48;0;Germany;0;0;0;BRAKE-UNTERWESER;8.102;8.32
02/04/17 00:00;DEZ0512;Eurdep;air;53.57;8.36;0;Germany;0;0;0;BUTJADINGEN-BURHAVE;8.217;9.18
02/04/17 00:00;DEZ0514;Eurdep;air;53.25;8.47;0;Germany;0;0;0;ELSFLETH-LIENEN;8.357;8.66
02/04/17 00:00;DEZ0515;Eurdep;air;53.34;8.19;0;Germany;0;0;0;JADE-JADERBERG;6.523999999999999;7.17
02/04/17 00:00;DEZ0516;Eurdep;air;53.48;8.47;0;Germany;0;0;0;NORDENHAM;7.031000000000001;7.340000000000001
02/04/17 00:00;DEZ0518;Eurdep;air;53.27;8.32;0;Germany;0;0;0;OVELGÖNNE-GROßENMEER;7.329000000000001;7.56
02/04/17 00:00;DEZ0519;Eurdep;air;53.46;8.36;0;Germany;0;0;0;STADLAND-SEEFELD;7.843000000000001;8.09
02/04/17 00:00;DEZ0521;Eurdep;air;53.65;7.61;0;Germany;0;0;0;ESENS;6.139;7.49
02/04/17 00:00;DEZ0525;Eurdep;air;53.77;7.69;0;Germany;0;0;0;SPIEKEROOG;6.431;7
02/04/17 00:00;DEZ0531;Eurdep;air;53.6;8.53;0;Germany;0;0;0;BREMERHAVEN-WEDDEWARDEN;7.901000000000001;8.85
02/04/17 00:00;DEZ0532;Eurdep;air;53.5;8.57;0;Germany;0;0;0;BREMERHAVEN-LUNEPLATE;6.294;6.51
02/04/17 00:00;DEZ0533;Eurdep;air;53.55;8.6;0;Germany;0;0;0;BREMERHAVEN-GEESTEMÜNDE;6.559;6.88
02/04/17 00:00;DEZ0540;Eurdep;air;51.3;6.54;0;Germany;0;0;0;KREFELD-FISCHELN;8.35;9.45
02/04/17 00:00;DEZ0541;Eurdep;air;51.18;6.4;0;Germany;0;0;0;MÖNCHENGLADBACH;8.142;8.95
02/04/17 00:00;DEZ0543;Eurdep;air;51.19;7.27;0;Germany;0;0;0;REMSCHEID-LENNEP;10.303;10
02/04/17 00:00;DEZ0545;Eurdep;air;51.3;7.2;0;Germany;0;0;0;WUPPERTAL-BARMEN;9.735;10
02/04/17 00:00;DEZ0553;Eurdep;air;51.59;6.21;0;Germany;0;0;0;KEVELAER;7.3069999999999995;7.58
30/03/17 22:00;DEZ0560;Eurdep;air;51.28;7.03;0;Germany;0;0;0;WÜLFRATH;0;0
02/04/17 00:00;DEZ0562;Eurdep;air;51.1;6.5600000000000005;0;Germany;0;0;0;GREVENBROICH-FÜRTH;10.219;10
02/04/17 00:00;DEZ0566;Eurdep;air;51.24;6.18;0;Germany;0;0;0;BRÜGGEN;7.08;7.459999999999999
30/03/17 22:00;DEZ0567;Eurdep;air;51.34;6.33;0;Germany;0;0;0;GREFRATH;0;0
02/04/17 00:00;DEZ0572;Eurdep;air;51.73;6.73;0;Germany;0;0;0;HAMMINKELN-MARIENTHAL;7.156000000000001;7.609999999999999
02/04/17 00:00;DEZ0582;Eurdep;air;50.99;6.95;0;Germany;0;0;0;KÖLN-WEIDENPESCH;8.895999999999999;9.16
30/03/17 22:00;DEZ0585;Eurdep;air;50.6;6.29;0;Germany;0;0;0;SIMMERATH;0;0
02/04/17 00:00;DEZ0588;Eurdep;air;50.92;6.33;0;Germany;0;0;0;JÜLICH-KOSLAR;9.98;10
02/04/17 00:00;DEZ0589;Eurdep;air;50.96;6.43;0;Germany;0;0;0;JÜLICH-GÜSTEN;9.775;10
02/04/17 00:00;DEZ0594;Eurdep;air;51.01;6.43;0;Germany;0;0;0;TITZ;10.173;10
02/04/17 00:00;DEZ0599;Eurdep;air;51.01;6.82;0;Germany;0;0;0;PULHEIM-SINNERSDORF;8.41;8
31/03/17 22:00;DEZ0606;Eurdep;air;51.01;6.04;0;Germany;0;0;0;GANGELT-BIRGDEN;0;0
02/04/17 00:00;DEZ0607;Eurdep;air;51.04;6.13;0;Germany;0;0;0;HEINSBERG-HÜLHOVEN;9.493;10
02/04/17 00:00;DEZ0613;Eurdep;air;51.05;7.26;0;Germany;0;0;0;KÜRTEN;9.767;10
02/04/17 00:00;DEZ0615;Eurdep;air;50.63;7.22;0;Germany;0;0;0;BAD HONNEF;8.270999999999999;8.629999999999999
02/04/17 00:00;DEZ0616;Eurdep;air;50.78;7.01;0;Germany;0;0;0;BORNHEIM;8.259;8.74
02/04/17 00:00;DEZ0618;Eurdep;air;50.79;7.28;0;Germany;0;0;0;HENNEF/SIEG;8.446;8.74
30/03/17 22:00;DEZ0623;Eurdep;air;51.56;7.07;0;Germany;0;0;0;GELSENKIRCHEN;0;0
02/04/17 00:00;DEZ0624;Eurdep;air;52;7.59;0;Germany;0;0;0;MÜNSTER-KINDERHAUS;8.193999999999999;8.459999999999999
02/04/17 00:00;DEZ0627;Eurdep;air;52.13;6.91;0;Germany;0;0;0;AHAUS-ALSTÄTTE;6.382;6.909999999999999
02/04/17 00:00;DEZ0628;Eurdep;air;52.04;6.93;0;Germany;0;0;0;AHAUS-OTTENSTEIN;6.964;7.779999999999999
02/04/17 00:00;DEZ0632;Eurdep;air;51.83;6.79;0;Germany;0;0;0;BORKEN-RHEDEBRÜGGE;6.603;6.970000000000001
02/04/17 00:00;DEZ0633;Eurdep;air;51.95;6.99;0;Germany;0;0;0;GESCHER;6.787999999999999;7.12
02/04/17 00:00;DEZ0634;Eurdep;air;52.2;7.03;0;Germany;0;0;0;GRONAU;7.272;7.779999999999999
01/04/17 23:00;DEZ0635;Eurdep;air;52.22;7.01;0;Germany;0;0;0;GRONAU-SPECHTHOLTSHOOK;7.375;7.68
02/04/17 00:00;DEZ0636;Eurdep;air;52.17;7.06;0;Germany;0;0;0;GRONAU-EPE;6.14;6.32
02/04/17 00:00;DEZ0637;Eurdep;air;52.13;7.1;0;Germany;0;0;0;HEEK;6.853;7.12
02/04/17 00:00;DEZ0638;Eurdep;air;52.12;7.05;0;Germany;0;0;0;HEEK-AHLE;5.845000000000001;6.14
02/04/17 00:00;DEZ0640;Eurdep;air;52.05;7.15;0;Germany;0;0;0;LEGDEN-ASBECK;7.529999999999999;7.93
02/04/17 00:00;DEZ0644;Eurdep;air;51.94;6.8100000000000005;0;Germany;0;0;0;SÜDLOHN-OEDING;8.553;8.95
02/04/17 00:00;DEZ0646;Eurdep;air;52.1;6.85;0;Germany;0;0;0;VREDEN-LÜNTEN;8.212;8.73
02/04/17 00:00;DEZ0647;Eurdep;air;51.79;7.62;0;Germany;0;0;0;ASCHEBERG;6.809;7.08
02/04/17 00:00;DEZ0651;Eurdep;air;52.03;7.27;0;Germany;0;0;0;ROSENDAHL-DARFELD;6.711;7
02/04/17 00:00;DEZ0652;Eurdep;air;51.85;7.48;0;Germany;0;0;0;SENDEN;7.273999999999999;7.55
02/04/17 00:00;DEZ0653;Eurdep;air;51.54;7.33;0;Germany;0;0;0;CASTROP-RAUXEL;9.346;9.690000000000001
02/04/17 00:00;DEZ0654;Eurdep;air;51.67;7.36;0;Germany;0;0;0;DATTELN;6.75;7.63
02/04/17 00:00;DEZ0655;Eurdep;air;51.66;7;0;Germany;0;0;0;DORSTEN;6.979000000000001;7.609999999999999
30/03/17 22:00;DEZ0656;Eurdep;air;51.73;7.2;0;Germany;0;0;0;HALTERN;0;0
02/04/17 00:00;DEZ0657;Eurdep;air;51.65;7.16;0;Germany;0;0;0;MARL;7.109999999999999;7.42
02/04/17 00:00;DEZ0660;Eurdep;air;52.13;7.7;0;Germany;0;0;0;GREVEN FLUGHAFEN MS OS;8.769;9.190000000000001
02/04/17 00:00;DEZ0661;Eurdep;air;52.33;7.5;0;Germany;0;0;0;HÖRSTEL-DREIERWALDE;7.340999999999999;7
02/04/17 00:00;DEZ0664;Eurdep;air;52.11;7.88;0;Germany;0;0;0;LIENEN-KATTENVENNE;8.526;8.83
02/04/17 00:00;DEZ0666;Eurdep;air;52.21;7.19;0;Germany;0;0;0;OCHTRUP;7.126;7.340000000000001
02/04/17 00:00;DEZ0668;Eurdep;air;52.16;7.33;0;Germany;0;0;0;STEINFURT-BURGSTEINFURT;7.247;7.69
02/04/17 00:00;DEZ0672;Eurdep;air;51.89;8.04;0;Germany;0;0;0;ENNIGERLOH-WESTKIRCHEN;7.69;7.909999999999999
02/04/17 00:00;DEZ0673;Eurdep;air;51.91;7.8100000000000005;0;Germany;0;0;0;EVERSWINKEL-ALVERSKIRCHEN;6.685;6.959999999999999
02/04/17 00:00;DEZ0674;Eurdep;air;51.8;8.2;0;Germany;0;0;0;OELDE-STROMBERG;7.638;8.15
02/04/17 00:00;DEZ0675;Eurdep;air;52.05;8.03;0;Germany;0;0;0;SASSENBERG-FÜCHTORF;6.708;7.0200000000000005
02/04/17 00:00;DEZ0679;Eurdep;air;52.05;8.3;0;Germany;0;0;0;HALLE-HÖRSTE;7.109;7.45
30/03/17 22:00;DEZ0680;Eurdep;air;51.97;8.22;0;Germany;0;0;0;HARSEWINKEL;0;0
02/04/17 00:00;DEZ0682;Eurdep;air;51.92;8.66;0;Germany;0;0;0;SCHLOß HOLTE-STUKENBROCK;6.958;8.84
02/04/17 00:00;DEZ0685;Eurdep;air;52.23;8.47;0;Germany;0;0;0;RÖDINGHAUSEN;8.565000000000001;8.91
24/03/17 23:00;DEZ0686;Eurdep;air;52.12;8.49;0;Germany;0;0;0;SPENGE-LENZINGHAUSEN;0;0
02/04/17 00:00;DEZ0687;Eurdep;air;52.17;8.86;0;Germany;0;0;0;VLOTHO;10.006;10
02/04/17 00:00;DEZ0688;Eurdep;air;51.74;9.01;0;Germany;0;0;0;BAD DRIBURG;10.309999999999999;11
02/04/17 00:00;DEZ0692;Eurdep;air;51.79;9.4;0;Germany;0;0;0;HÖXTER;10.509;11
02/04/17 00:00;DEZ0693;Eurdep;air;51.82;9.24;0;Germany;0;0;0;MARIENMÜNSTER-VÖRDEN;11.077;12
02/04/17 00:00;DEZ0694;Eurdep;air;51.88;9.08;0;Germany;0;0;0;STEINHEIM;9.478;10
02/04/17 00:00;DEZ0698;Eurdep;air;51.93;8.89;0;Germany;0;0;0;DETMOLD;10;11
02/04/17 00:00;DEZ0702;Eurdep;air;52.02;8.91;0;Germany;0;0;0;LEMGO;7.456;8.809999999999999
30/03/17 22:00;DEZ0705;Eurdep;air;52.26;8.75;0;Germany;0;0;0;BAD OEYNHAUSEN-WULFERD.;0;0
02/04/17 00:00;DEZ0707;Eurdep;air;52.31;8.61;0;Germany;0;0;0;LÜBBECKE;8.870000000000001;9
02/04/17 00:00;DEZ0708;Eurdep;air;52.38;8.99;0;Germany;0;0;0;PETERSHAGEN-LAHDE;8.789;9.540000000000001
02/04/17 00:00;DEZ0709;Eurdep;air;52.43;8.6;0;Germany;0;0;0;RAHDEN;6.625;6.909999999999999
02/04/17 00:00;DEZ0710;Eurdep;air;52.37;8.46;0;Germany;0;0;0;STEMWEDE-LEVERN;6.945;7
02/04/17 00:00;DEZ0711;Eurdep;air;51.55;8.55;0;Germany;0;0;0;BÜREN;8.221;9.68
30/03/17 22:00;DEZ0712;Eurdep;air;51.76;8.56;0;Germany;0;0;0;DELBRÜCK;0;0
02/04/17 00:00;DEZ0714;Eurdep;air;51.62;8.89;0;Germany;0;0;0;LICHTENAU;8.855;10
02/04/17 00:00;DEZ0719;Eurdep;air;51.43;7.19;0;Germany;0;0;0;BOCHUM;9.769;10
02/04/17 00:00;DEZ0721;Eurdep;air;51.47;7.6;0;Germany;0;0;0;DORTMUND-LICHTENDORF;9.727;10
02/04/17 00:00;DEZ0726;Eurdep;air;51.36;7.3;0;Germany;0;0;0;SPROCKHÖVEL-HIDDINGHAUSEN;8.765;9.05
02/04/17 00:00;DEZ0730;Eurdep;air;51.39;8.58;0;Germany;0;0;0;BRILON;9.474;11
02/04/17 00:00;DEZ0733;Eurdep;air;51.47;8.85;0;Germany;0;0;0;MARSBERG;10.695;12
02/04/17 00:00;DEZ0737;Eurdep;air;51.16;8.29;0;Germany;0;0;0;SCHMALLENBERG;11.823;12
02/04/17 00:00;DEZ0739;Eurdep;air;51.32;8;0;Germany;0;0;0;SUNDERN;8.712;9.059999999999999
02/04/17 00:00;DEZ0748;Eurdep;air;51.12;7.88;0;Germany;0;0;0;ATTENDORN-NEULISTERNOHL;9.93;10
02/04/17 00:00;DEZ0750;Eurdep;air;51.08;8.1;0;Germany;0;0;0;KIRCHHUNDEM;11.609;11
30/03/17 22:00;DEZ0752;Eurdep;air;50.98;7.85;0;Germany;0;0;0;WENDEN-GERLINGEN;0;0
02/04/17 00:00;DEZ0753;Eurdep;air;51.08;8.42;0;Germany;0;0;0;BAD BERLEBURG-WEMLIGHAUSEN;10.745000000000001;11
30/03/17 22:00;DEZ0761;Eurdep;air;51.66;8.05;0;Germany;0;0;0;LIPPETAL-LIPPBORG;0;0
02/04/17 00:00;DEZ0763;Eurdep;air;51.69;8.44;0;Germany;0;0;0;LIPPSTADT-HÖRSTE;6.399;7.82
02/04/17 00:00;DEZ0766;Eurdep;air;51.5;8.44;0;Germany;0;0;0;RÜTHEN;8.384;9
02/04/17 00:00;DEZ0767;Eurdep;air;51.43;8.34;0;Germany;0;0;0;WARSTEIN;9.523;10
02/04/17 00:00;DEZ0771;Eurdep;air;51.62;7.52;0;Germany;0;0;0;LÜNEN;7.586;7.859999999999999
02/04/17 00:00;DEZ0772;Eurdep;air;51.54;7.73;0;Germany;0;0;0;UNNA-MÜHLHAUSEN;8.837;9.290000000000001
01/04/17 23:00;DEZ0775;Eurdep;air;50.16;8.65;0;Germany;0;0;0;FRANKFURT A.M. ST ESCHERSHEIM;9.629999999999999;10
02/04/17 00:00;DEZ0778;Eurdep;air;50.02;8.53;0;Germany;0;0;0;FRANKFURT A.M.;7.611;8.07
02/04/17 00:00;DEZ0781;Eurdep;air;50.09;8.22;0;Germany;0;0;0;WIESBADEN;10.020999999999999;10
02/04/17 00:00;DEZ0786;Eurdep;air;49.67;8.53;0;Germany;0;0;0;EINHAUSEN;8.565999999999999;9.02
02/04/17 00:00;DEZ0790;Eurdep;air;49.59;8.81;0;Germany;0;0;0;WALDMICHELBACH ST GADERN;11.55;12
02/04/17 00:00;DEZ0791;Eurdep;air;49.74;8.62;0;Germany;0;0;0;ALSBACH-HÄHNLEIN;9.469;9.709999999999999
02/04/17 00:00;DEZ0794;Eurdep;air;49.8;8.64;0;Germany;0;0;0;PFUNGSTADT;9.247;9.49
02/04/17 00:00;DEZ0796;Eurdep;air;49.77;8.48;0;Germany;0;0;0;BIEBESHEIM;9.459999999999999;9.940000000000001
02/04/17 00:00;DEZ0797;Eurdep;air;49.91;8.48;0;Germany;0;0;0;GROß-GERAU;9.764;10
02/04/17 00:00;DEZ0798;Eurdep;air;49.97;8.58;0;Germany;0;0;0;MÖRFELDEN-WALLDORF;7.845000000000001;8.209999999999999
02/04/17 00:00;DEZ0799;Eurdep;air;49.84;8.45;0;Germany;0;0;0;RIEDSTADT;8.845;9.47
02/04/17 00:00;DEZ0803;Eurdep;air;50.31;8.56;0;Germany;0;0;0;WEHRHEIM;9.861;10
02/04/17 00:00;DEZ0805;Eurdep;air;50.12;9.47;0;Germany;0;0;0;FLÖRSBACHTAL OT LOHRHAUPTEN;10.003;10
02/04/17 00:00;DEZ0807;Eurdep;air;50.2;9.18;0;Germany;0;0;0;GELNHAUSEN;9.998999999999999;10
02/04/17 00:00;DEZ0811;Eurdep;air;50.35;9.53;0;Germany;0;0;0;SCHLÜCHTERN;11.136;11
02/04/17 00:00;DEZ0812;Eurdep;air;50.26;9.52;0;Germany;0;0;0;STEINAU A.D.STR. OT MARJOß;9.199;9
02/04/17 00:00;DEZ0813;Eurdep;air;50.27;9.32;0;Germany;0;0;0;WÄCHTERSBACH;10.171;10
02/04/17 00:00;DEZ0814;Eurdep;air;50.06;8.37;0;Germany;0;0;0;HOFHEIM A.T. /WALLAU;10.019;10
02/04/17 00:00;DEZ0816;Eurdep;air;49.81;9.05;0;Germany;0;0;0;BREUBERG OT RAI-BREITENBACH;10.007;10
02/04/17 00:00;DEZ0818;Eurdep;air;49.72;8.84;0;Germany;0;0;0;REICHELSHEIM (ODW);11.632;11
02/04/17 00:00;DEZ0819;Eurdep;air;49.5;8.92;0;Germany;0;0;0;ROTHENBERG;8.597;8.95
02/04/17 00:00;DEZ0820;Eurdep;air;50.02;8.8;0;Germany;0;0;0;DIETZENBACH;8.179;8.540000000000001
02/04/17 00:00;DEZ0821;Eurdep;air;49.96;8.66;0;Germany;0;0;0;EGELSBACH;9.294;9.540000000000001
02/04/17 00:00;DEZ0823;Eurdep;air;50.05;8.97;0;Germany;0;0;0;SELIGENSTADT;9.448;9.790000000000001
02/04/17 00:00;DEZ0824;Eurdep;air;50.16;8.06;0;Germany;0;0;0;BAD SCHWALBACH;10.614;11
02/04/17 00:00;DEZ0828;Eurdep;air;50.05;7.8;0;Germany;0;0;0;LORCH;11.331999999999999;11
02/04/17 00:00;DEZ0830;Eurdep;air;50.29;8.95;0;Germany;0;0;0;ALTENSTADT;10.491;10
02/04/17 00:00;DEZ0832;Eurdep;air;50.29;9.11;0;Germany;0;0;0;BÜDINGEN;10.073;10
02/04/17 00:00;DEZ0835;Eurdep;air;50.32;8.75;0;Germany;0;0;0;FRIEDBERG (HESSEN);9.539;9.959999999999999
02/04/17 00:00;DEZ0836;Eurdep;air;50.39;9.14;0;Germany;0;0;0;HIRZENHAIN;9.772;10
02/04/17 00:00;DEZ0840;Eurdep;air;50.47;8.89;0;Germany;0;0;0;HUNGEN;9.471;9.67
02/04/17 00:00;DEZ0847;Eurdep;air;50.58;8.29;0;Germany;0;0;0;GREIFENSTEIN;10.144;10
30/03/17 22:00;DEZ0850;Eurdep;air;50.3;8.27;0;Germany;0;0;0;BAD CAMBERG;0;0
30/03/17 22:00;DEZ0851;Eurdep;air;50.44;8.03;0;Germany;0;0;0;HADAMAR;0;0
02/04/17 00:00;DEZ0853;Eurdep;air;50.48;8.24;0;Germany;0;0;0;WEILBURG;10.745000000000001;11
02/04/17 00:00;DEZ0854;Eurdep;air;50.43;8.38;0;Germany;0;0;0;WEILMÜNSTER;10.248000000000001;10
02/04/17 00:00;DEZ0858;Eurdep;air;50.69;8.61;0;Germany;0;0;0;LOHRA OT KIRCHVERS;9.814;10
30/03/17 22:00;DEZ0859;Eurdep;air;50.79;8.77;0;Germany;0;0;0;MARBURG;0;0
02/04/17 00:00;DEZ0860;Eurdep;air;50.82;8.99;0;Germany;0;0;0;STADTALLENDORF;8.967;9.379999999999999
02/04/17 00:00;DEZ0862;Eurdep;air;50.72;9.25;0;Germany;0;0;0;ALSFELD;11.845;12
02/04/17 00:00;DEZ0864;Eurdep;air;50.69;9.05;0;Germany;0;0;0;GEMÜNDEN (FELDA);8.25;8.59
02/04/17 00:00;DEZ0865;Eurdep;air;50.63;9.39;0;Germany;0;0;0;LAUTERBACH;8.788;9.11
02/04/17 00:00;DEZ0866;Eurdep;air;50.67;9.57;0;Germany;0;0;0;SCHLITZ;10.35;10
02/04/17 00:00;DEZ0874;Eurdep;air;50.5;9.94;0;Germany;0;0;0;GERSFELD/RHÖN;9.294;9.86
30/03/17 22:00;DEZ0882;Eurdep;air;50.65;10.02;0;Germany;0;0;0;TANN (RHÖN);0;0
02/04/17 00:00;DEZ0893;Eurdep;air;51.25;9.37;0;Germany;0;0;0;BAUNATAL OT GROßENRITTE;9.671;10
02/04/17 00:00;DEZ0899;Eurdep;air;51.49;9.59;0;Germany;0;0;0;REINHARDSHAGEN OT VECKERHAGEN;9.533;9.98
02/04/17 00:00;DEZ0903;Eurdep;air;51.37;9.3;0;Germany;0;0;0;ZIERENBERG;10.376999999999999;11
02/04/17 00:00;DEZ0905;Eurdep;air;51.02;9.41;0;Germany;0;0;0;HOMBERG (EFZE);10.882;11
30/03/17 22:00;DEZ0911;Eurdep;air;51.38;9;0;Germany;0;0;0;BAD AROLSEN;0;0
02/04/17 00:00;DEZ0913;Eurdep;air;51.01;8.63;0;Germany;0;0;0;BATTENBERG (EDER);10.595;11
01/04/17 21:00;DEZ0914;Eurdep;air;51.36;8.81;0;Germany;0;0;0;DIEMELSEE OT ADORF;10;10
02/04/17 00:00;DEZ0918;Eurdep;air;50.97;8.98;0;Germany;0;0;0;GEMÜNDEN (WOHRA);10.809000000000001;11
30/03/17 22:00;DEZ0920;Eurdep;air;51.2;8.8;0;Germany;0;0;0;LICHTENFELS ST GODDELSHEIM;0;0
02/04/17 00:00;DEZ0921;Eurdep;air;51.23;9.09;0;Germany;0;0;0;WALDECK OT NETZE;10.473;10
02/04/17 00:00;DEZ0922;Eurdep;air;51.28;8.66;0;Germany;0;0;0;WILLINGEN OT USSELN;11.205;12
02/04/17 00:00;DEZ0926;Eurdep;air;51.04;10.15;0;Germany;0;0;0;HERLESHAUSEN;10.35;10
02/04/17 00:00;DEZ0927;Eurdep;air;51.2;9.65;0;Germany;0;0;0;HESSISCH LICHTENAU OT QUENTEL;11;11
02/04/17 00:00;DEZ0928;Eurdep;air;51.24;10.06;0;Germany;0;0;0;MEINHARD OT HITZELRODE;10.736;11
30/03/17 22:00;DEZ0931;Eurdep;air;51.19;10.18;0;Germany;0;0;0;WANFRIED;0;0
02/04/17 00:00;DEZ0932;Eurdep;air;51.35;9.86;0;Germany;0;0;0;WITZENHAUSEN;11.536;13
02/04/17 00:00;DEZ0933;Eurdep;air;50.51;6.99;0;Germany;0;0;0;ALTENAHR-ALTENBURG;10.891;11
02/04/17 00:00;DEZ0935;Eurdep;air;50.46;7.21;0;Germany;0;0;0;NIEDERZISSEN;10.782;11
02/04/17 00:00;DEZ0942;Eurdep;air;49.79;7.49;0;Germany;0;0;0;KIRN/NAHE;9.966;10
02/04/17 00:00;DEZ0943;Eurdep;air;49.95;7.79;0;Germany;0;0;0;STROMBERG;10.042;10
02/04/17 00:00;DEZ0945;Eurdep;air;49.88;7.63;0;Germany;0;0;0;WINTERBACH;11;11
02/04/17 00:00;DEZ0949;Eurdep;air;49.7;7.35;0;Germany;0;0;0;IDAR-OBERSTEIN;10.555;10
02/04/17 00:00;DEZ0950;Eurdep;air;49.86;7.34;0;Germany;0;0;0;RHAUNEN/HUNSRÜCK;11.086;11
02/04/17 00:00;DEZ0954;Eurdep;air;50.22;6.98;0;Germany;0;0;0;ULMEN;10.386;10
02/04/17 00:00;DEZ0957;Eurdep;air;50.32;7.22;0;Germany;0;0;0;MAYEN;11.359;11
02/04/17 00:00;DEZ0959;Eurdep;air;50.41;7.55;0;Germany;0;0;0;KALTENENGERS;10.423;11
02/04/17 00:00;DEZ0960;Eurdep;air;50.39;7.5;0;Germany;0;0;0;MÜLHEIM-KÄRLICH;12.286;13
02/04/17 00:00;DEZ0961;Eurdep;air;50.34;7.46;0;Germany;0;0;0;WOLKEN;11.868;12
02/04/17 00:00;DEZ0962;Eurdep;air;50.24;7.36;0;Germany;0;0;0;MÜNSTERMAIFELD;11.636;12
02/04/17 00:00;DEZ0965;Eurdep;air;50.56;7.29;0;Germany;0;0;0;LINZ AM RHEIN;9.162;9.49
02/04/17 00:00;DEZ0966;Eurdep;air;50.43;7.48;0;Germany;0;0;0;NEUWIED;11.004999999999999;11
02/04/17 00:00;DEZ0967;Eurdep;air;50.17;7.5600000000000005;0;Germany;0;0;0;HALSENBACH;11.536;11
02/04/17 00:00;DEZ0968;Eurdep;air;50.07;7.45;0;Germany;0;0;0;KASTELLAUN;11.241;11
02/04/17 00:00;DEZ0969;Eurdep;air;49.91;7.51;0;Germany;0;0;0;MENGERSCHIED;11.523;12
30/03/17 22:00;DEZ0970;Eurdep;air;49.98;7.52;0;Germany;0;0;0;SIMMERN;0;0
02/04/17 00:00;DEZ0973;Eurdep;air;50.35;7.89;0;Germany;0;0;0;HOLZAPPEL;11.232;11
02/04/17 00:00;DEZ0974;Eurdep;air;50.27;7.98;0;Germany;0;0;0;KATZENELNBOGEN;12.268;12
02/04/17 00:00;DEZ0975;Eurdep;air;50.32;7.59;0;Germany;0;0;0;LAHNSTEIN;10.337;11
02/04/17 00:00;DEZ0976;Eurdep;air;50.2;7.86;0;Germany;0;0;0;NASTÄTTEN;10.075;10
02/04/17 00:00;DEZ0977;Eurdep;air;50.15;7.73;0;Germany;0;0;0;ST. GOARSHAUSEN;11.754999999999999;12
02/04/17 00:00;DEZ0978;Eurdep;air;50.27;7.83;0;Germany;0;0;0;SINGHOFEN;10.373000000000001;10
02/04/17 00:00;DEZ0983;Eurdep;air;50.6;8.07;0;Germany;0;0;0;RENNEROD;10.818000000000001;11
30/03/17 22:00;DEZ0984;Eurdep;air;50.65;7.72;0;Germany;0;0;0;WAHLROD;0;0
02/04/17 00:00;DEZ0985;Eurdep;air;49.75;6.66;0;Germany;0;0;0;TRIER;10.695;11
02/04/17 00:00;DEZ0988;Eurdep;air;50.09;6.8100000000000005;0;Germany;0;0;0;MANDERSCHEID;9.841;10
02/04/17 00:00;DEZ0989;Eurdep;air;49.86;6.9;0;Germany;0;0;0;NEUMAGEN-DHRON;10.759;11
02/04/17 00:00;DEZ0994;Eurdep;air;50.02;6.23;0;Germany;0;0;0;KARLSHAUSEN;10.732;11
02/04/17 00:00;DEZ0997;Eurdep;air;49.94;6.64;0;Germany;0;0;0;SPEICHER;10.955;11
02/04/17 00:00;DEZ0998;Eurdep;air;49.97;6.19;0;Germany;0;0;0;WALDHOF-FALKENSTEIN;10.536;11
02/04/17 00:00;DEZ1000;Eurdep;air;50.3;6.34;0;Germany;0;0;0;AUW BEI PRÜM;9.684999999999999;10
02/04/17 00:00;DEZ1003;Eurdep;air;50.1;6.45;0;Germany;0;0;0;FEUERSCHEID;9.334999999999999;9.67
02/04/17 00:00;DEZ1004;Eurdep;air;50.16;6.22;0;Germany;0;0;0;GROßKAMPENBERG;10.238;10
02/04/17 00:00;DEZ1006;Eurdep;air;50.21;6.42;0;Germany;0;0;0;PRÜM;10.464;10
02/04/17 00:00;DEZ1008;Eurdep;air;50.29;6.67;0;Germany;0;0;0;HILLESHEIM;9.798;10
02/04/17 00:00;DEZ1009;Eurdep;air;50.35;6.57;0;Germany;0;0;0;JÜNKERATH;10.564;10
02/04/17 00:00;DEZ1011;Eurdep;air;50.33;6.45;0;Germany;0;0;0;ORMONT;9.545;10
02/04/17 00:00;DEZ1013;Eurdep;air;49.72;6.79;0;Germany;0;0;0;OSBURG;10.723;11
02/04/17 00:00;DEZ1016;Eurdep;air;49.6;6.5600000000000005;0;Germany;0;0;0;SAARBURG;10.414;10
02/04/17 00:00;DEZ1019;Eurdep;air;49.67;6.52;0;Germany;0;0;0;TAWERN;9.823;9.99
02/04/17 00:00;DEZ1021;Eurdep;air;49.6;6.42;0;Germany;0;0;0;WINCHERINGEN;11.209;11
02/04/17 00:00;DEZ1022;Eurdep;air;49.6;6.69;0;Germany;0;0;0;ZERF;9.714;10
02/04/17 00:00;DEZ1028;Eurdep;air;49.2;7.62;0;Germany;0;0;0;PIRMASENS;11.382;11
02/04/17 00:00;DEZ1030;Eurdep;air;49.67;8.35;0;Germany;0;0;0;WORMS;9.093;9.51
02/04/17 00:00;DEZ1032;Eurdep;air;49.74;8.12;0;Germany;0;0;0;ALZEY;12.791;13
02/04/17 00:00;DEZ1034;Eurdep;air;49.77;7.95;0;Germany;0;0;0;STEIN-BOCKENHEIM;10;11
02/04/17 00:00;DEZ1036;Eurdep;air;49.47;8.19;0;Germany;0;0;0;BAD DÜRKHEIM;9.318999999999999;9.629999999999999
02/04/17 00:00;DEZ1037;Eurdep;air;49.35;7.94;0;Germany;0;0;0;ELMSTEIN;9.876999999999999;10
02/04/17 00:00;DEZ1038;Eurdep;air;49.57;8.18;0;Germany;0;0;0;GRÜNSTADT;9.57;9.89
02/04/17 00:00;DEZ1039;Eurdep;air;49.41;8.01;0;Germany;0;0;0;WEIDENTHAL;9.382;9.64
02/04/17 00:00;DEZ1041;Eurdep;air;49.66;8.01;0;Germany;0;0;0;KIRCHHEIMBOLANDEN;11.986;12
30/03/17 22:00;DEZ1042;Eurdep;air;49.73;7.78;0;Germany;0;0;0;OBERMOSCHEL;0;0
02/04/17 00:00;DEZ1043;Eurdep;air;49.6;7.78;0;Germany;0;0;0;GUNDERSWEILER;11.626999999999999;12
02/04/17 00:00;DEZ1045;Eurdep;air;49.21;8.36;0;Germany;0;0;0;GERMERSHEIM;8.873999999999999;9.27
02/04/17 00:00;DEZ1046;Eurdep;air;48.99;8.24;0;Germany;0;0;0;NEUBURG AM RHEIN;8.059000000000001;8.39
02/04/17 00:00;DEZ1049;Eurdep;air;49.05;8.25;0;Germany;0;0;0;WÖRTH AM RHEIN;8.039;8.52
02/04/17 00:00;DEZ1051;Eurdep;air;49.49;7.89;0;Germany;0;0;0;ENKENBACH-ALSENBORN;9.476;9.64
02/04/17 00:00;DEZ1058;Eurdep;air;49.28;8.23;0;Germany;0;0;0;BÖBINGEN;9.495999999999999;9.98
02/04/17 00:00;DEZ1059;Eurdep;air;49.05;8.03;0;Germany;0;0;0;STEINFELD;8.463;8.709999999999999
02/04/17 00:00;DEZ1060;Eurdep;air;49.26;8.4;0;Germany;0;0;0;RÖMERBERG-MECHTERSHEIM;8.951;9.51
02/04/17 00:00;DEZ1061;Eurdep;air;49.4;8.39;0;Germany;0;0;0;SCHIFFERSTADT;9.141;9.65
02/04/17 00:00;DEZ1065;Eurdep;air;49.97;8.26;0;Germany;0;0;0;MAINZ-HECHTSHEIM;11.282;11
02/04/17 00:00;DEZ1071;Eurdep;air;49.32;7.7;0;Germany;0;0;0;HELTERSBERG;8.91;9.16
02/04/17 00:00;DEZ1072;Eurdep;air;49.26;7.5600000000000005;0;Germany;0;0;0;THALEISCHWEILER-FRÖSCHEN;10.144;10
02/04/17 00:00;DEZ1073;Eurdep;air;49.22;7.9;0;Germany;0;0;0;WILGARTSWIESEN;9.062999999999999;9.440000000000001
02/04/17 00:00;DEZ1075;Eurdep;air;49.19;7.44;0;Germany;0;0;0;DIETRICHINGEN;11.876999999999999;12
02/04/17 00:00;DEZ1078;Eurdep;air;48.78;9.18;0;Germany;0;0;0;STUTTGART;11.232;11
02/04/17 00:00;DEZ1079;Eurdep;air;48.69;9.04;0;Germany;0;0;0;BÖBLINGEN;10.664;11
02/04/17 00:00;DEZ1080;Eurdep;air;48.6;8.86;0;Germany;0;0;0;HERRENBERG;10.714;11
01/04/17 23:00;DEZ1081;Eurdep;air;48.8;9;0;Germany;0;0;0;LEONBERG;11.833;12
02/04/17 00:00;DEZ1082;Eurdep;air;48.72;8.98;0;Germany;0;0;0;SINDELFINGEN;11.155;11
30/03/17 22:00;DEZ1084;Eurdep;air;48.75;9.32;0;Germany;0;0;0;ESSLINGEN;0;0
02/04/17 00:00;DEZ1086;Eurdep;air;48.74;9.48;0;Germany;0;0;0;LICHTENWALD;8.843;9.18
30/03/17 22:00;DEZ1087;Eurdep;air;48.55;9.37;0;Germany;0;0;0;NEUFFEN;0;0
02/04/17 00:00;DEZ1090;Eurdep;air;48.72;9.26;0;Germany;0;0;0;OSTFILDERN ST RUIT;9.275;10
02/04/17 00:00;DEZ1091;Eurdep;air;48.68;9.93;0;Germany;0;0;0;BÖHMENKIRCH;9.370000000000001;9.68
02/04/17 00:00;DEZ1092;Eurdep;air;48.74;9.72;0;Germany;0;0;0;GÖPPINGEN ST HOHENSTAUF.;10.591;10
02/04/17 00:00;DEZ1104;Eurdep;air;48.99;9.55;0;Germany;0;0;0;MURRHARDT;11.190999999999999;12
02/04/17 00:00;DEZ1109;Eurdep;air;49.18;8.83;0;Germany;0;0;0;EPPINGEN ST ELSENZ;10.940999999999999;11
02/04/17 00:00;DEZ1117;Eurdep;air;49.28;9.8;0;Germany;0;0;0;KÜNZELSAU ST NITZENHAUSEN;11.518;11
02/04/17 00:00;DEZ1118;Eurdep;air;49.3;9.62;0;Germany;0;0;0;NIEDERNHALL;12.727;13
30/03/17 22:00;DEZ1121;Eurdep;air;49.29;10.04;0;Germany;0;0;0;BLAUFELDEN OT WIESENBACH;0;0
02/04/17 00:00;DEZ1126;Eurdep;air;49.08;9.55;0;Germany;0;0;0;MAINHARDT;9.681999999999999;12
02/04/17 00:00;DEZ1127;Eurdep;air;49.1;9.73;0;Germany;0;0;0;SCHWÄBISCH HALL;11.814;12
02/04/17 00:00;DEZ1129;Eurdep;air;49.08;9.98;0;Germany;0;0;0;FRANKENHARDT OT GRÜNDELH.;9.262;9.57
02/04/17 00:00;DEZ1130;Eurdep;air;49.41;9.83;0;Germany;0;0;0;BAD MERGENTHEIM ST HERBSTHAUSEN;10.495000000000001;10
02/04/17 00:00;DEZ1132;Eurdep;air;49.67;9.74;0;Germany;0;0;0;GROßRINDERFELD;10.016;10
30/03/17 22:00;DEZ1133;Eurdep;air;49.53;9.85;0;Germany;0;0;0;IGERSHEIM OT HARTHAUSEN;0;0
02/04/17 00:00;DEZ1140;Eurdep;air;48.86;9.79;0;Germany;0;0;0;DURLANGEN;10.727;11
02/04/17 00:00;DEZ1144;Eurdep;air;48.76;10.33;0;Germany;0;0;0;NERESHEIM;7.8069999999999995;8.25
02/04/17 00:00;DEZ1145;Eurdep;air;48.94;10.37;0;Germany;0;0;0;UNTERSCHNEIDHEIM;9.398;9.74
02/04/17 00:00;DEZ1146;Eurdep;air;48.83;10.12;0;Germany;0;0;0;AALEN ST UNTERKOCHEN;7.748;8.14
02/04/17 00:00;DEZ1154;Eurdep;air;49.12;8.73;0;Germany;0;0;0;KRAICHTAL ST MÜNZESHEIM;10.831999999999999;11
02/04/17 00:00;DEZ1156;Eurdep;air;49.13;8.53;0;Germany;0;0;0;KARLSDORF-NEUTHARD OT K.;8.595;8.959999999999999
02/04/17 00:00;DEZ1160;Eurdep;air;49.09;8.48;0;Germany;0;0;0;STUTENSEE OT FRIEDRICHST.;8.289;8.66
02/04/17 00:00;DEZ1163;Eurdep;air;48.69;8.13;0;Germany;0;0;0;BÜHL;10;10
02/04/17 00:00;DEZ1164;Eurdep;air;48.69;8.36;0;Germany;0;0;0;FORBACH OT GAUSBACH;12.891;13
30/03/17 22:00;DEZ1165;Eurdep;air;48.61;8.28;0;Germany;0;0;0;FORBACH OT HUNDSBACH;0;0
02/04/17 00:00;DEZ1166;Eurdep;air;48.79;8.33;0;Germany;0;0;0;GAGGENAU ST OTTENAU;10;11
30/03/17 22:00;DEZ1170;Eurdep;air;48.75;8;0;Germany;0;0;0;RHEINMÜNSTER OT GREFFERN;0;0
02/04/17 00:00;DEZ1174;Eurdep;air;49.37;9.42;0;Germany;0;0;0;ADELSHEIM ST LEIBENSTADT;11.591;12
02/04/17 00:00;DEZ1176;Eurdep;air;49.52;9.33;0;Germany;0;0;0;BUCHEN;10.388;10
02/04/17 00:00;DEZ1177;Eurdep;air;49.61;9.47;0;Germany;0;0;0;HARDHEIM;11.509;11
02/04/17 00:00;DEZ1196;Eurdep;air;48.66;8.6;0;Germany;0;0;0;NEUWEILER;10.327;10
02/04/17 00:00;DEZ1197;Eurdep;air;48.57;8.69;0;Germany;0;0;0;ROHRDORF;10.927;11
02/04/17 00:00;DEZ1199;Eurdep;air;48.7;8.53;0;Germany;0;0;0;BAD WILDBAD;8.485;8.690000000000001
02/04/17 00:00;DEZ1200;Eurdep;air;48.71;8.76;0;Germany;0;0;0;CALW ST HEUMADEN;10.655;11
02/04/17 00:00;DEZ1203;Eurdep;air;48.85;8.58;0;Germany;0;0;0;NEUENBÜRG;11.876999999999999;12
02/04/17 00:00;DEZ1206;Eurdep;air;48.35;8.39;0;Germany;0;0;0;ALPIRSBACH;14.722999999999999;15
02/04/17 00:00;DEZ1210;Eurdep;air;48.52;8.56;0;Germany;0;0;0;PFALZGRAFENWEILER;11.482;11
02/04/17 00:00;DEZ1211;Eurdep;air;48.59;8.42;0;Germany;0;0;0;SEEWALD OT BESENFELD;10.986;11
02/04/17 00:00;DEZ1213;Eurdep;air;47.92;7.91;0;Germany;0;0;0;SCHAUINSLAND FREIBURG;11.305;11
02/04/17 00:00;DEZ1218;Eurdep;air;47.98;7.91;0;Germany;0;0;0;FREIBURG ST EBNET;11.114;11
02/04/17 00:00;DEZ1223;Eurdep;air;47.86;8.11;0;Germany;0;0;0;FELDBERG OT ALTGLASHÜTTEN;12.35;12
02/04/17 00:00;DEZ1229;Eurdep;air;48.17;8.06;0;Germany;0;0;0;ELZACH;11.664;11
02/04/17 00:00;DEZ1232;Eurdep;air;48.16;7.64;0;Germany;0;0;0;WYHL;10.723;11
02/04/17 00:00;DEZ1235;Eurdep;air;48.66;8.02;0;Germany;0;0;0;ACHERN OT GAMSHURST;10.331;10
02/04/17 00:00;DEZ1236;Eurdep;air;48.43;8.21;0;Germany;0;0;0;BAD PETERSTAL-GRIEßBACH;12.241;12
02/04/17 00:00;DEZ1241;Eurdep;air;48.53;8.07;0;Germany;0;0;0;OBERKIRCH;11.168000000000001;11
02/04/17 00:00;DEZ1244;Eurdep;air;48.27;7.95;0;Germany;0;0;0;SCHUTTERTAL;10.864;11
02/04/17 00:00;DEZ1245;Eurdep;air;48.45;7.89;0;Germany;0;0;0;SCHUTTERWALD;12;12
02/04/17 00:00;DEZ1248;Eurdep;air;48.35;7.76;0;Germany;0;0;0;SCHWANAU OT NONNENWEIER;9.004999999999999;9.34
02/04/17 00:00;DEZ1249;Eurdep;air;48.47;7.8;0;Germany;0;0;0;NEURIED OT ALTENHEIM;8.309000000000001;8.72
02/04/17 00:00;DEZ1252;Eurdep;air;48.29;8.56;0;Germany;0;0;0;OBERNDORF/N. ST LINDENHOF;13.309000000000001;13
02/04/17 00:00;DEZ1253;Eurdep;air;48.25;8.44;0;Germany;0;0;0;SCHRAMBERG ST BRAMBACH;11.686;12
30/03/17 22:00;DEZ1258;Eurdep;air;48.12;8.39;0;Germany;0;0;0;ST. GEORGEN;0;0
02/04/17 00:00;DEZ1260;Eurdep;air;48;8.32;0;Germany;0;0;0;VÖHRENBACH ST HAMMEREIS.;14.822999999999999;15
02/04/17 00:00;DEZ1263;Eurdep;air;48.01;8.66;0;Germany;0;0;0;TALHEIM;11.023;11
02/04/17 00:00;DEZ1264;Eurdep;air;47.99;8.81;0;Germany;0;0;0;TUTTLINGEN;10.577;11
02/04/17 00:00;DEZ1265;Eurdep;air;47.86;8.78;0;Germany;0;0;0;ENGEN;9.074;9.52
02/04/17 00:00;DEZ1268;Eurdep;air;47.68;9.19;0;Germany;0;0;0;KONSTANZ;9.677;10
02/04/17 00:00;DEZ1269;Eurdep;air;47.66;8.89;0;Germany;0;0;0;ÖHNINGEN;8.703;9.120000000000001
02/04/17 00:00;DEZ1270;Eurdep;air;47.74;8.98;0;Germany;0;0;0;RADOLFZELL;8.556000000000001;9.059999999999999
02/04/17 00:00;DEZ1273;Eurdep;air;47.86;9.01;0;Germany;0;0;0;STOCKACH;10.162;10
02/04/17 00:00;DEZ1274;Eurdep;air;47.82;8.66;0;Germany;0;0;0;TENGEN;9.937000000000001;10
02/04/17 00:00;DEZ1275;Eurdep;air;47.74;7.55;0;Germany;0;0;0;BAD BELLINGEN;8.758;9.11
02/04/17 00:00;DEZ1276;Eurdep;air;47.66;7.54;0;Germany;0;0;0;EFRINGEN-KIRCHEN OT ISTEIN;8.974;9.309999999999999
02/04/17 00:00;DEZ1277;Eurdep;air;47.74;7.8100000000000005;0;Germany;0;0;0;ELBENSCHWAND OT LANGENSEE;14.209;14
02/04/17 00:00;DEZ1278;Eurdep;air;47.71;7.61;0;Germany;0;0;0;KANDERN ST TANNENKIRCH;11.641;12
02/04/17 00:00;DEZ1279;Eurdep;air;47.56;7.78;0;Germany;0;0;0;RHEINFELDEN;9.305;9.86
02/04/17 00:00;DEZ1280;Eurdep;air;47.65;7.83;0;Germany;0;0;0;SCHOPFHEIM;12.195;12
02/04/17 00:00;DEZ1283;Eurdep;air;47.84;7.88;0;Germany;0;0;0;WIEDEN;12.673;12
02/04/17 00:00;DEZ1284;Eurdep;air;47.54;7.67;0;Germany;0;0;0;GRENZACH-WYHLEN OT GRENZ.;8.304;8.95
02/04/17 00:00;DEZ1286;Eurdep;air;47.82;8.34;0;Germany;0;0;0;BONNDORF;10.668000000000001;11
02/04/17 00:00;DEZ1293;Eurdep;air;47.74;8.44;0;Germany;0;0;0;STÜHLINGEN;9.290000000000001;9.959999999999999
02/04/17 00:00;DEZ1298;Eurdep;air;48.28;9.48;0;Germany;0;0;0;HAYINGEN;9.849;11
02/04/17 00:00;DEZ1300;Eurdep;air;48.41;9.53;0;Germany;0;0;0;MÜNSINGEN ST AUINGEN;9.264;9.72
02/04/17 00:00;DEZ1301;Eurdep;air;48.48;9.23;0;Germany;0;0;0;PFULLINGEN;7.890000000000001;8.42
01/04/17 23:00;DEZ1302;Eurdep;air;48.48;9.4;0;Germany;0;0;0;BAD URACH;6.816;7.090000000000001
02/04/17 00:00;DEZ1303;Eurdep;air;48.35;9.33;0;Germany;0;0;0;HOHENSTEIN;10.736;11
02/04/17 00:00;DEZ1305;Eurdep;air;48.4;9.05;0;Germany;0;0;0;MÖSSINGEN;10.081;10
02/04/17 00:00;DEZ1309;Eurdep;air;48.27;8.85;0;Germany;0;0;0;BALINGEN;11.741;12
30/03/17 22:00;DEZ1310;Eurdep;air;48.29;9.14;0;Germany;0;0;0;BURLADINGEN;0;0
30/03/17 22:00;DEZ1311;Eurdep;air;48.35;8.78;0;Germany;0;0;0;HAIGERLOCH ST GRUOL;0;0
02/04/17 00:00;DEZ1313;Eurdep;air;48.21;8.77;0;Germany;0;0;0;SCHÖMBERG;10.959;11
02/04/17 00:00;DEZ1314;Eurdep;air;48.21;9;0;Germany;0;0;0;ALBSTADT ST EBINGEN;8.93;9.290000000000001
02/04/17 00:00;DEZ1317;Eurdep;air;48.47;9.94;0;Germany;0;0;0;DORNSTADT;10.464;10
02/04/17 00:00;DEZ1318;Eurdep;air;48.27;9.73;0;Germany;0;0;0;EHINGEN;9.165000000000001;9.870000000000001
02/04/17 00:00;DEZ1323;Eurdep;air;48.37;9.74;0;Germany;0;0;0;SCHELKLINGEN;7.140000000000001;7.37
02/04/17 00:00;DEZ1327;Eurdep;air;48.11;9.42;0;Germany;0;0;0;ERTINGEN OT BINZWANGEN;9.187000000000001;9.59
02/04/17 00:00;DEZ1328;Eurdep;air;48.18;9.97;0;Germany;0;0;0;SCHWENDI;9.018;9.22
02/04/17 00:00;DEZ1331;Eurdep;air;48.2;9.78;0;Germany;0;0;0;SCHEMMERHOFEN OT INGERK.;11.391;11
02/04/17 00:00;DEZ1335;Eurdep;air;47.59;9.6;0;Germany;0;0;0;KRESSBRONN;8.545;9
02/04/17 00:00;DEZ1337;Eurdep;air;47.78;9.15;0;Germany;0;0;0;ÜBERLINGEN;9.702;10
02/04/17 00:00;DEZ1338;Eurdep;air;47.8;9.43;0;Germany;0;0;0;DEGGENHAUSERTAL OT LIMP.;9.376999999999999;9.620000000000001
02/04/17 00:00;DEZ1339;Eurdep;air;47.94;10.09;0;Germany;0;0;0;AITRACH;8.603;8.85
02/04/17 00:00;DEZ1345;Eurdep;air;47.82;10.02;0;Germany;0;0;0;LEUTKIRCH;9.15;9
30/03/17 22:00;DEZ1346;Eurdep;air;47.8;9.63;0;Germany;0;0;0;RAVENSBURG;0;0
02/04/17 00:00;DEZ1348;Eurdep;air;47.82;9.79;0;Germany;0;0;0;WOLFEGG;9.619;9
02/04/17 00:00;DEZ1349;Eurdep;air;48.05;8.97;0;Germany;0;0;0;BEURON;9.536;10
02/04/17 00:00;DEZ1351;Eurdep;air;48.02;9.23;0;Germany;0;0;0;KRAUCHENWIES OT ABLACH;8.822;9.26
02/04/17 00:00;DEZ1352;Eurdep;air;47.95;9.37;0;Germany;0;0;0;OSTRACH;9.264;9.89
30/03/17 22:00;DEZ1354;Eurdep;air;48.09;9.22;0;Germany;0;0;0;SIGMARINGEN;0;0
02/04/17 00:00;DEZ1355;Eurdep;air;48.12;9.08;0;Germany;0;0;0;STETTEN A.K.M.;9.237;9.36
02/04/17 00:00;DEZ1356;Eurdep;air;47.95;9.03;0;Germany;0;0;0;SAULDORF OT BOLL;9.647;10
30/03/17 22:00;DEZ1357;Eurdep;air;47.86;9.24;0;Germany;0;0;0;HERDWANGEN-SCHÖNACH;0;0
02/04/17 00:00;DEZ1360;Eurdep;air;48.15;11.45;0;Germany;0;0;0;MÜNCHEN-PASING;8.809999999999999;9.41
02/04/17 00:00;DEZ1361;Eurdep;air;48.09;11.66;0;Germany;0;0;0;München-Neuperlach;8.282;8.68
30/03/17 22:00;DEZ1365;Eurdep;air;48.21;12.88;0;Germany;0;0;0;HAIMING;0;0
02/04/17 00:00;DEZ1374;Eurdep;air;47.61;12.91;0;Germany;0;0;0;RAMSAU;10;11
02/04/17 00:00;DEZ1381;Eurdep;air;47.56;11.44;0;Germany;0;0;0;VORDERRIß II;9.223;9.77
02/04/17 00:00;DEZ1384;Eurdep;air;48.36;11.39;0;Germany;0;0;0;MARKT INDERSDORF;9.702;10
02/04/17 00:00;DEZ1386;Eurdep;air;48.08;11.96;0;Germany;0;0;0;EBERSBERG;9.657;9.93
02/04/17 00:00;DEZ1394;Eurdep;air;48.82;11.09;0;Germany;0;0;0;WELLHEIM;9.176;9.78
02/04/17 00:00;DEZ1399;Eurdep;air;48.3;11.84;0;Germany;0;0;0;NOTZING;7.664;8.620000000000001
02/04/17 00:00;DEZ1405;Eurdep;air;48.3;11.66;0;Germany;0;0;0;NEUFAHRN BEI FREISING;8.245000000000001;9.26
02/04/17 00:00;DEZ1409;Eurdep;air;47.48;11.06;0;Germany;0;0;0;GARMISCH-PARTENKIRCHEN;8.774;9.14
02/04/17 00:00;DEZ1419;Eurdep;air;48.07;11.03;0;Germany;0;0;0;WINDACH;10.07;10
02/04/17 00:00;DEZ1422;Eurdep;air;47.72;11.96;0;Germany;0;0;0;FISCHBACHAU;9.78;10
02/04/17 00:00;DEZ1426;Eurdep;air;48.28;12.35;0;Germany;0;0;0;STEFANSKIRCHEN;9.469;9.86
02/04/17 00:00;DEZ1429;Eurdep;air;48.24;12.53;0;Germany;0;0;0;MÜHLDORF AM INN;10.091;10
02/04/17 00:00;DEZ1430;Eurdep;air;48.36;12.51;0;Germany;0;0;0;NEUMARKT-ST.VEIT;9.713;10
02/04/17 00:00;DEZ1432;Eurdep;air;47.97;11.63;0;Germany;0;0;0;SAUERLACH;8.846;9.18
02/04/17 00:00;DEZ1438;Eurdep;air;48.5;11.36;0;Germany;0;0;0;GEROLSBACH;10.376999999999999;10
30/03/17 22:00;DEZ1445;Eurdep;air;47.74;12.12;0;Germany;0;0;0;BRANNENBURG;0;0
02/04/17 00:00;DEZ1447;Eurdep;air;47.8;12.29;0;Germany;0;0;0;FRASDORF;9.934999999999999;10
02/04/17 00:00;DEZ1450;Eurdep;air;47.98;12.05;0;Germany;0;0;0;KRONAU;9.494;9.940000000000001
02/04/17 00:00;DEZ1451;Eurdep;air;48.06;12.22;0;Germany;0;0;0;WASSERBURG AM INN;9.245000000000001;9.99
30/03/17 22:00;DEZ1453;Eurdep;air;48.07;11.25;0;Germany;0;0;0;WEßLING;0;0
30/03/17 22:00;DEZ1455;Eurdep;air;47.78;12.45;0;Germany;0;0;0;GRASSAU;0;0
02/04/17 00:00;DEZ1460;Eurdep;air;47.67;12.47;0;Germany;0;0;0;REIT IM WINKL;9.653;10
02/04/17 00:00;DEZ1461;Eurdep;air;47.73;12.66;0;Germany;0;0;0;RUHPOLDING OT LAUBAU;8.876999999999999;9.25
02/04/17 00:00;DEZ1462;Eurdep;air;47.7;12.4;0;Germany;0;0;0;SCHLECHING;10;11
02/04/17 00:00;DEZ1469;Eurdep;air;47.82;11.3;0;Germany;0;0;0;SEESHAUPT;9.303;9.67
30/03/17 22:00;DEZ1470;Eurdep;air;47.83;11.17;0;Germany;0;0;0;WEILHEIM OT DEUTENHAUSEN;0;0
02/04/17 00:00;DEZ1488;Eurdep;air;48.95;11.68;0;Germany;0;0;0;RIEDENBURG;9.405;10
02/04/17 00:00;DEZ1490;Eurdep;air;48.55;12.26;0;Germany;0;0;0;ADLKOFEN;11.473;11
02/04/17 00:00;DEZ1492;Eurdep;air;48.57;12.17;0;Germany;0;0;0;ERGOLDING;9.965;10
02/04/17 00:00;DEZ1495;Eurdep;air;48.59;12.23;0;Germany;0;0;0;OHU;10.955;11
02/04/17 00:00;DEZ1496;Eurdep;air;48.64;12.27;0;Germany;0;0;0;METTENBACH;9.665000000000001;10
02/04/17 00:00;DEZ1497;Eurdep;air;48.47;12.27;0;Germany;0;0;0;GEISENHAUSEN;10.718;11
02/04/17 00:00;DEZ1498;Eurdep;air;48.51;12.42;0;Germany;0;0;0;GERZEN;11.873000000000001;12
02/04/17 00:00;DEZ1502;Eurdep;air;48.65;12.33;0;Germany;0;0;0;POSTAU;9.85;10
02/04/17 00:00;DEZ1507;Eurdep;air;48.52;12;0;Germany;0;0;0;BRUCKBERG;9.415000000000001;10
02/04/17 00:00;DEZ1511;Eurdep;air;48.72;13.33;0;Germany;0;0;0;FÜRSTENSTEIN;16.205000000000002;16
02/04/17 00:00;DEZ1523;Eurdep;air;49.04;12.99;0;Germany;0;0;0;TEISNACH;15.286000000000001;16
02/04/17 00:00;DEZ1530;Eurdep;air;48.44;12.57;0;Germany;0;0;0;GANGKOFEN;10.486;11
02/04/17 00:00;DEZ1531;Eurdep;air;48.24;12.98;0;Germany;0;0;0;KIRCHDORF AM INN;10.148;10
02/04/17 00:00;DEZ1532;Eurdep;air;48.48;12.84;0;Germany;0;0;0;SCHÖNAU 1;12.273;12
01/04/17 21:00;DEZ1534;Eurdep;air;48.38;12.96;0;Germany;0;0;0;NEUKIRCHEN BEI PFARRKIRCHEN;11;11
30/03/17 22:00;DEZ1537;Eurdep;air;48.94;12.72;0;Germany;0;0;0;HUNDERDORF;0;0
21/03/17 23:00;DEZ1539;Eurdep;air;49.07;12.71;0;Germany;0;0;0;KONZELL;0;0
02/04/17 00:00;DEZ1544;Eurdep;air;48.63;12.86;0;Germany;0;0;0;EICHENDORF;9.365;9.83
02/04/17 00:00;DEZ1550;Eurdep;air;48.74;12.75;0;Germany;0;0;0;WALLERSDORF;11.045;11
02/04/17 00:00;DEZ1553;Eurdep;air;49.04;12.1;0;Germany;0;0;0;REGENSBURG;9.48;9.83
02/04/17 00:00;DEZ1559;Eurdep;air;49.26;11.93;0;Germany;0;0;0;SCHMIDMÜHLEN;10.290000000000001;10
02/04/17 00:00;DEZ1560;Eurdep;air;49.5;11.74;0;Germany;0;0;0;SULZBACH-ROSENBERG;9.77;10
21/03/17 23:00;DEZ1565;Eurdep;air;49.1;12.48;0;Germany;0;0;0;FALKENSTEIN;0;0
02/04/17 00:00;DEZ1568;Eurdep;air;49.2;13.05;0;Germany;0;0;0;LAM;14.209;16
02/04/17 00:00;DEZ1572;Eurdep;air;49.36;12.61;0;Germany;0;0;0;SCHÖNTHAL;13.886000000000001;15
02/04/17 00:00;DEZ1583;Eurdep;air;49.16;11.73;0;Germany;0;0;0;PARSBERG;9.615;10
02/04/17 00:00;DEZ1586;Eurdep;air;49.29;11.62;0;Germany;0;0;0;VELBURG OT UNTERWIESENACKER;8.842;9.129999999999999
02/04/17 00:00;DEZ1604;Eurdep;air;48.84;12.19;0;Germany;0;0;0;SCHIERLING-EGGMÜHL;9.156;9.66
02/04/17 00:00;DEZ1607;Eurdep;air;49.25;12.3;0;Germany;0;0;0;BRUCK IN DER OBERPFALZ;11.032;11
02/04/17 00:00;DEZ1608;Eurdep;air;49.2;12.06;0;Germany;0;0;0;BURGLENGENFELD;11.264;11
02/04/17 00:00;DEZ1615;Eurdep;air;49.51;12.54;0;Germany;0;0;0;SCHÖNSEE;10.632;11
02/04/17 00:00;DEZ1617;Eurdep;air;49.4;12.14;0;Germany;0;0;0;SCHWARZENFELD;11.573;12
02/04/17 00:00;DEZ1620;Eurdep;air;49.81;12.44;0;Germany;0;0;0;BÄRNAU;12.573;13
02/04/17 00:00;DEZ1626;Eurdep;air;49.88;12.34;0;Germany;0;0;0;TIRSCHENREUTH;13.018;13
02/04/17 00:00;DEZ1627;Eurdep;air;50;12.3;0;Germany;0;0;0;WALDSASSEN;12.223;12
02/04/17 00:00;DEZ1632;Eurdep;air;49.99;10.85;0;Germany;0;0;0;BAUNACH;9.934000000000001;10
02/04/17 00:00;DEZ1635;Eurdep;air;49.89;11.11;0;Germany;0;0;0;HEILIGENSTADT I. OFR.;8.545;8.84
02/04/17 00:00;DEZ1637;Eurdep;air;49.97;11.03;0;Germany;0;0;0;SCHEßLITZ;10.586;10
02/04/17 00:00;DEZ1638;Eurdep;air;50;11.2;0;Germany;0;0;0;STADELHOFEN;9.434999999999999;9.76
02/04/17 00:00;DEZ1640;Eurdep;air;49.85;11.62;0;Germany;0;0;0;CREUßEN;8.668000000000001;8.95
02/04/17 00:00;DEZ1646;Eurdep;air;49.77;11.41;0;Germany;0;0;0;POTTENSTEIN;9.39;9.809999999999999
02/04/17 00:00;DEZ1648;Eurdep;air;49.87;11.33;0;Germany;0;0;0;WAISCHENFELD OT NANKENDORF;9.173;9.43
02/04/17 00:00;DEZ1650;Eurdep;air;50.32;10.9;0;Germany;0;0;0;MEEDER;12.355;12
30/03/17 22:00;DEZ1651;Eurdep;air;50.33;11.1;0;Germany;0;0;0;NEUSTADT BEI COBURG;0;0
02/04/17 00:00;DEZ1656;Eurdep;air;49.78;11.19;0;Germany;0;0;0;EBERMANNSTADT;8.892;9.26
02/04/17 00:00;DEZ1657;Eurdep;air;49.65;11.24;0;Germany;0;0;0;GRÄFENBERG;10.636;11
02/04/17 00:00;DEZ1661;Eurdep;air;50.34;11.6;0;Germany;0;0;0;GEROLDSGRÜN;8.25;8.59
02/04/17 00:00;DEZ1675;Eurdep;air;50.4;11.38;0;Germany;0;0;0;TEUSCHNITZ;11;11
30/03/17 22:00;DEZ1683;Eurdep;air;50.07;11.09;0;Germany;0;0;0;BAD STAFFELSTEIN;0;0
01/04/17 23:00;DEZ1685;Eurdep;air;50;12.07;0;Germany;0;0;0;MARKTREDWITZ;11.98;12
02/04/17 00:00;DEZ1689;Eurdep;air;49.32;10.57;0;Germany;0;0;0;ANSBACH;11.15;11
02/04/17 00:00;DEZ1694;Eurdep;air;49.44;10.17;0;Germany;0;0;0;ADELSHOFEN;10.536;10
02/04/17 00:00;DEZ1698;Eurdep;air;49.07;10.32;0;Germany;0;0;0;DINKELSBÜHL;11.018;11
02/04/17 00:00;DEZ1699;Eurdep;air;49.2;10.31;0;Germany;0;0;0;FEUCHTWANGEN OT BANZENWEILER;12.841;13
02/04/17 00:00;DEZ1700;Eurdep;air;49.06;10.5;0;Germany;0;0;0;GEROLFINGEN;10.36;10
02/04/17 00:00;DEZ1701;Eurdep;air;49.34;10.79;0;Germany;0;0;0;HEILSBRONN;10.991;13
02/04/17 00:00;DEZ1709;Eurdep;air;49.62;10.83;0;Germany;0;0;0;WEISENDORF;11.509;12
30/03/17 22:00;DEZ1719;Eurdep;air;49.44;10.33;0;Germany;0;0;0;BURGBERNHEIM;0;0
02/04/17 00:00;DEZ1720;Eurdep;air;49.73;10.6;0;Germany;0;0;0;BURGHASLACH;11.541;11
02/04/17 00:00;DEZ1721;Eurdep;air;49.58;10.62;0;Germany;0;0;0;NEUSTADT AN DER AISCH;11.173;11
02/04/17 00:00;DEZ1723;Eurdep;air;49.67;10.46;0;Germany;0;0;0;SCHEINFELD;11.477;11
30/03/17 22:00;DEZ1724;Eurdep;air;49.6;10.44;0;Germany;0;0;0;SUGENHEIM;0;0
02/04/17 00:00;DEZ1728;Eurdep;air;49.13;11.11;0;Germany;0;0;0;HEIDECK;9.865;10
02/04/17 00:00;DEZ1734;Eurdep;air;49.02;10.74;0;Germany;0;0;0;HEIDENHEIM AM HAHNE;9.838;11
02/04/17 00:00;DEZ1736;Eurdep;air;49.01;11.13;0;Germany;0;0;0;RAITENBUCH;11.509;11
02/04/17 00:00;DEZ1740;Eurdep;air;50.04;10.21;0;Germany;0;0;0;SCHWEINFURT;11.823;12
02/04/17 00:00;DEZ1741;Eurdep;air;49.77;9.96;0;Germany;0;0;0;WÜRZBURG;9.206999999999999;9.59
30/03/17 22:00;DEZ1743;Eurdep;air;50;9.17;0;Germany;0;0;0;GOLDBACH;0;0
02/04/17 00:00;DEZ1755;Eurdep;air;50.2;9.96;0;Germany;0;0;0;OBERTHULBA;12.059000000000001;12
30/03/17 22:00;DEZ1760;Eurdep;air;50.36;10.46;0;Germany;0;0;0;HÖCHHEIM OT IRMELSHAUSEN;0;0
02/04/17 00:00;DEZ1766;Eurdep;air;50.36;10.23;0;Germany;0;0;0;WOLLBACH;9.708;10
02/04/17 00:00;DEZ1772;Eurdep;air;50.2;10.66;0;Germany;0;0;0;MAROLDSWEISACH;11.331999999999999;11
02/04/17 00:00;DEZ1773;Eurdep;air;49.89;10.55;0;Germany;0;0;0;RAUHENEBRACH OT UNTERSTEINBACH;11.595;11
02/04/17 00:00;DEZ1775;Eurdep;air;49.64;10.22;0;Germany;0;0;0;SEINSHEIM;10.645;11
02/04/17 00:00;DEZ1778;Eurdep;air;49.78;9.38;0;Germany;0;0;0;DORFPROZELTEN;9.645;10
30/03/17 22:00;DEZ1780;Eurdep;air;49.72;9.21;0;Germany;0;0;0;KLEINHEUBACH;0;0
02/04/17 00:00;DEZ1783;Eurdep;air;49.98;9.96;0;Germany;0;0;0;ARNSTEIN;10.041;10
02/04/17 00:00;DEZ1785;Eurdep;air;50.06;9.69;0;Germany;0;0;0;GEMÜNDEN AM MAIN;10.409;10
02/04/17 00:00;DEZ1788;Eurdep;air;49.85;9.63;0;Germany;0;0;0;MARKTHEIDENFELD;9.306999999999999;9.84
02/04/17 00:00;DEZ1789;Eurdep;air;49.95;9.67;0;Germany;0;0;0;STEINFELD;10;10
02/04/17 00:00;DEZ1793;Eurdep;air;49.99;10.31;0;Germany;0;0;0;GRETTSTADT;8.895;9.440000000000001
02/04/17 00:00;DEZ1794;Eurdep;air;49.92;10.23;0;Germany;0;0;0;KOLITZHEIM;10.927;11
02/04/17 00:00;DEZ1797;Eurdep;air;50.04;10;0;Germany;0;0;0;WASSERLOSEN / BURGHAUSEN;10.831999999999999;11
30/03/17 22:00;DEZ1799;Eurdep;air;49.61;9.91;0;Germany;0;0;0;BÜTTHARD OT HÖTTINGEN;0;0
02/04/17 00:00;DEZ1801;Eurdep;air;49.76;9.71;0;Germany;0;0;0;HELMSTADT;9.699;10
02/04/17 00:00;DEZ1804;Eurdep;air;49.85;10.04;0;Germany;0;0;0;KÜRNACH;10.641;11
02/04/17 00:00;DEZ1807;Eurdep;air;49.51;9.97;0;Germany;0;0;0;RÖTTINGEN;10.198;11
02/04/17 00:00;DEZ1808;Eurdep;air;49.88;9.84;0;Germany;0;0;0;THÜNGERSHEIM;9.469;10
02/04/17 00:00;DEZ1812;Eurdep;air;47.72;10.34;0;Germany;0;0;0;KEMPTEN;11.195;11
02/04/17 00:00;DEZ1824;Eurdep;air;48.17;10.6;0;Germany;0;0;0;MITTELNEUFNACH;10.641;11
02/04/17 00:00;DEZ1825;Eurdep;air;48.4;10.61;0;Germany;0;0;0;ZUSMARSHAUSEN;9.059999999999999;10
02/04/17 00:00;DEZ1827;Eurdep;air;48.49;10.44;0;Germany;0;0;0;BAUMGARTEN;9.887;12
02/04/17 00:00;DEZ1828;Eurdep;air;48.57;10.5;0;Germany;0;0;0;DILLINGEN A. D. DONAU;9.751000000000001;12
02/04/17 00:00;DEZ1833;Eurdep;air;48.46;10.26;0;Germany;0;0;0;GÜNZBURG;9.119;9.77
02/04/17 00:00;DEZ1834;Eurdep;air;48.37;10.3;0;Germany;0;0;0;ICHENHAUSEN;8.229000000000001;8.620000000000001
02/04/17 00:00;DEZ1835;Eurdep;air;48.38;10.44;0;Germany;0;0;0;JETTINGEN-SCHEPPACH;9.22;9.89
02/04/17 00:00;DEZ1838;Eurdep;air;48.27;10.47;0;Germany;0;0;0;THANNHAUSEN;7.877;8.66
02/04/17 00:00;DEZ1840;Eurdep;air;48.43;10.15;0;Germany;0;0;0;OBERFAHLHEIM;10.315000000000001;10
02/04/17 00:00;DEZ1841;Eurdep;air;48.34;10.04;0;Germany;0;0;0;GERLENHOFEN;9.639;10
02/04/17 00:00;DEZ1842;Eurdep;air;48.3;10.17;0;Germany;0;0;0;WEIßENHORN;9.416;9.84
30/03/17 22:00;DEZ1844;Eurdep;air;47.6;9.88;0;Germany;0;0;0;LINDENBERG IM ALLGÄU;0;0
02/04/17 00:00;DEZ1846;Eurdep;air;48.03;10.72;0;Germany;0;0;0;BUCHLOE;10.237;10
02/04/17 00:00;DEZ1847;Eurdep;air;47.7;10.52;0;Germany;0;0;0;GÖRISRIED;9.931999999999999;10
02/04/17 00:00;DEZ1851;Eurdep;air;47.85;10.41;0;Germany;0;0;0;OBERGÜNZBURG;10.386;10
02/04/17 00:00;DEZ1854;Eurdep;air;48.03;10.34;0;Germany;0;0;0;ERKHEIM;9.494;10
02/04/17 00:00;DEZ1858;Eurdep;air;47.99;10.21;0;Germany;0;0;0;MEMMINGERBERG;10.405;10
02/04/17 00:00;DEZ1859;Eurdep;air;48.04;10.49;0;Germany;0;0;0;MINDELHEIM;9.748000000000001;9.97
02/04/17 00:00;DEZ1864;Eurdep;air;48.96;10.61;0;Germany;0;0;0;HAINSFARTH;10.705;12
02/04/17 00:00;DEZ1865;Eurdep;air;48.78;10.7;0;Germany;0;0;0;HARBURG;8.361;12
02/04/17 00:00;DEZ1866;Eurdep;air;48.84;10.85;0;Germany;0;0;0;MONHEIM;10.431999999999999;11
02/04/17 00:00;DEZ1867;Eurdep;air;48.85;10.51;0;Germany;0;0;0;NÖRDLINGEN;11.870999999999999;13
02/04/17 00:00;DEZ1869;Eurdep;air;48.87;10.73;0;Germany;0;0;0;WEMDING;10.179;14
02/04/17 00:00;DEZ1870;Eurdep;air;47.49;10.39;0;Germany;0;0;0;BAD HINDELANG OT BAD OBERDORF;9.261;9.77
02/04/17 00:00;DEZ1873;Eurdep;air;47.4;10.28;0;Germany;0;0;0;OBERSTDORF;9.321;9.72
02/04/17 00:00;DEZ1874;Eurdep;air;47.64;10.13;0;Germany;0;0;0;WEITNAU;9.831999999999999;10
02/04/17 00:00;DEZ1877;Eurdep;air;49.23;6.92;0;Germany;0;0;0;SAARBRÜCKEN-GERSWEILER;10.886;11
02/04/17 00:00;DEZ1883;Eurdep;air;49.42;6.76;0;Germany;0;0;0;BECKINGEN-DÜPPENWEILER;10.855;11
02/04/17 00:00;DEZ1884;Eurdep;air;49.55;6.73;0;Germany;0;0;0;LOSHEIM-SCHEIDEN;9.476;9.870000000000001
02/04/17 00:00;DEZ1885;Eurdep;air;49.43;6.58;0;Germany;0;0;0;MERZIG-SILWINGEN;10.918000000000001;11
02/04/17 00:00;DEZ1886;Eurdep;air;49.49;6.62;0;Germany;0;0;0;METTLACH;9.053;9.45
02/04/17 00:00;DEZ1887;Eurdep;air;49.5;6.5;0;Germany;0;0;0;METTLACH-ORSCHOLZ;9.486;9.809999999999999
02/04/17 00:00;DEZ1888;Eurdep;air;49.5;6.44;0;Germany;0;0;0;PERL-BORG;8.384;8.59
02/04/17 00:00;DEZ1892;Eurdep;air;49.4;7.17;0;Germany;0;0;0;OTTWEILER;10.659;11
02/04/17 00:00;DEZ1894;Eurdep;air;49.39;6.9;0;Germany;0;0;0;LEBACH-EIDENBORN;10.253;10
02/04/17 00:00;DEZ1895;Eurdep;air;49.36;6.62;0;Germany;0;0;0;REHLINGEN-SIERSBURG-HEMMERSDORF;10.359;10
02/04/17 00:00;DEZ1897;Eurdep;air;49.26;6.69;0;Germany;0;0;0;ÜBERHERRN-BERUS;9.32;9.65
02/04/17 00:00;DEZ1898;Eurdep;air;49.32;6.66;0;Germany;0;0;0;WALLERFANGEN-KERLINGEN;10.081;10
02/04/17 00:00;DEZ1899;Eurdep;air;49.28;6.79;0;Germany;0;0;0;BOUS;9;10
02/04/17 00:00;DEZ1900;Eurdep;air;49.24;7.27;0;Germany;0;0;0;BLIESKASTEL-WEBENHEIM;11.073;11
02/04/17 00:00;DEZ1901;Eurdep;air;49.15;7.22;0;Germany;0;0;0;GERSHEIM;11.391;11
02/04/17 00:00;DEZ1903;Eurdep;air;49.31;7.34;0;Germany;0;0;0;HOMBURG/SAAR;9.693999999999999;10
02/04/17 00:00;DEZ1906;Eurdep;air;49.55;7.25;0;Germany;0;0;0;FREISEN;12.014;12
02/04/17 00:00;DEZ1913;Eurdep;air;47.57;10.96;0;Germany;0;0;0;LINDERHOF;8.16;8.459999999999999
02/04/17 00:00;DEZ1914;Eurdep;air;47.46;11.18;0;Germany;0;0;0;KLAIS OT ELMAU;12.559000000000001;13
02/04/17 00:00;DEZ1915;Eurdep;air;47.64;11.75;0;Germany;0;0;0;KREUTH;9.645999999999999;10
02/04/17 00:00;DEZ1917;Eurdep;air;48.24;11.55;0;Germany;0;0;0;OBERSCHLEIßHEIM;8.275;9.040000000000001
02/04/17 00:00;DEZ1918;Eurdep;air;48.08;11.37;0;Germany;0;0;0;GAUTING;8.715;9.03
02/04/17 00:00;DEZ1919;Eurdep;air;48.83;13.78;0;Germany;0;0;0;HAIDMÜHLE;17.977;18
02/04/17 00:00;DEZ1921;Eurdep;air;48.93;13.46;0;Germany;0;0;0;WALDHÄUSER;12.459;12
02/04/17 00:00;DEZ1930;Eurdep;air;48.47;10.49;0;Germany;0;0;0;WINTERBACH;9.276;10
02/04/17 00:00;DEZ1934;Eurdep;air;47.56;10.74;0;Germany;0;0;0;HOHENSCHWANGAU;8.789;9.09
02/04/17 00:00;DEZ1939;Eurdep;air;52.45;10.94;0;Germany;0;0;0;GRAFHORST;8.343;9.17
02/04/17 00:00;DEZ1940;Eurdep;air;52.1;10.87;0;Germany;0;0;0;INGELEBEN;9.743;13
02/04/17 00:00;DEZ1945;Eurdep;air;53.44;9.91;0;Germany;0;0;0;VAHRENDORF;7.5569999999999995;7.83
02/04/17 00:00;DEZ1946;Eurdep;air;53.38;10.11;0;Germany;0;0;0;STELLE/HARBURG;7.066;7.92
02/04/17 00:00;DEZ1947;Eurdep;air;53.03;11.3;0;Germany;0;0;0;GEDELITZ;6.5329999999999995;7
02/04/17 00:00;DEZ1949;Eurdep;air;51.83;6.54;0;Germany;0;0;0;BOCHOLT-LIEDERN;7.1129999999999995;7.290000000000001
02/04/17 00:00;DEZ1950;Eurdep;air;51.82;6.93;0;Germany;0;0;0;HEIDEN;6.6579999999999995;6.959999999999999
02/04/17 00:00;DEZ1953;Eurdep;air;52.02;8.59;0;Germany;0;0;0;BIELEFELD;7.286;8.43
02/04/17 00:00;DEZ1954;Eurdep;air;51.96;8.37;0;Germany;0;0;0;GÜTERSLOH-HOLLEN;6.169;6.43
02/04/17 00:00;DEZ1955;Eurdep;air;51.63;9.29;0;Germany;0;0;0;BEVERUNGEN-DAHLHAUSEN;9.940000000000001;11
02/04/17 00:00;DEZ1956;Eurdep;air;51.7;9.28;0;Germany;0;0;0;HÖXTER-BRUCHHAUSEN;9.637;11
02/04/17 00:00;DEZ1961;Eurdep;air;51.49;6.96;0;Germany;0;0;0;ESSEN-BERGEBORBECK;8.552;8.940000000000001
02/04/17 00:00;DEZ1964;Eurdep;air;51.27;6.37;0;Germany;0;0;0;VIERSEN;8.442;9
02/04/17 00:00;DEZ1967;Eurdep;air;50.91;6.41;0;Germany;0;0;0;JÜLICH;8.346;9.05
02/04/17 00:00;DEZ1968;Eurdep;air;50.98;6.68;0;Germany;0;0;0;BERGHEIM-NIEDERAUßEM;9.155;10
02/04/17 00:00;DEZ1971;Eurdep;air;50.59;6.66;0;Germany;0;0;0;MECHERNICH;9.619;9.85
02/04/17 00:00;DEZ1975;Eurdep;air;49.21;7.11;0;Germany;0;0;0;SAARBRÜCKEN-ENSHEIM;10.508;10
30/03/17 22:00;DEZ1977;Eurdep;air;49.2;12.79;0;Germany;0;0;0;CHAMERAU OT LEDERDORN;0;0
02/04/17 00:00;DEZ1987;Eurdep;air;48.02;11.48;0;Germany;0;0;0;BAIERBRUNN;10.366;11
02/04/17 00:00;DEZ1990;Eurdep;air;47.89;12.41;0;Germany;0;0;0;GSTADT AM CHIEMSEE;9.831;10
02/04/17 00:00;DEZ1994;Eurdep;air;48.91;13.09;0;Germany;0;0;0;BISCHOFSMAIS;14.341;14
02/04/17 00:00;DEZ1997;Eurdep;air;54.1;13.41;0;Germany;0;0;0;GREIFSWALD;7.723999999999999;8.86
02/04/17 00:00;DEZ1999;Eurdep;air;53.64;11.39;0;Germany;0;0;0;SCHWERIN;8.495000000000001;9.82
30/03/17 22:00;DEZ2000;Eurdep;air;53.9;11.42;0;Germany;0;0;0;WISMAR;0;0
02/04/17 00:00;DEZ2002;Eurdep;air;53.9;13.05;0;Germany;0;0;0;DEMMIN;8.299;9.77
02/04/17 00:00;DEZ2010;Eurdep;air;54.44;12.73;0;Germany;0;0;0;ZINGST;6.705;7.0200000000000005
02/04/17 00:00;DEZ2013;Eurdep;air;54.68;13.43;0;Germany;0;0;0;PUTGARTEN OT ARKONA;7.7700000000000005;8.18
02/04/17 00:00;DEZ2019;Eurdep;air;53.77;8.64;0;Germany;0;0;0;NORDHOLZ;7.002;8.309999999999999
30/03/17 22:00;DEZ2022;Eurdep;air;53.55;7.94;0;Germany;0;0;0;SCHORTENS-HEIDMÜHLE;0;0
02/04/17 00:00;DEZ2023;Eurdep;air;53.54;8.47;0;Germany;0;0;0;NORDENHAM-SCHWEEWARDEN;8.565000000000001;8.790000000000001
02/04/17 00:00;DEZ2028;Eurdep;air;53.19;8.58;0;Germany;0;0;0;BREMEN-BLUMENTHAL;6.453;6.63
02/04/17 00:00;DEZ2030;Eurdep;air;52.29;10.45;0;Germany;0;0;0;BRAUNSCHWEIG / WATENBÜTTEL;8.370999999999999;10
02/04/17 00:00;DEZ2032;Eurdep;air;51.83;9.87;0;Germany;0;0;0;EINBECK;10.735;11
02/04/17 00:00;DEZ2033;Eurdep;air;52.23;9.67;0;Germany;0;0;0;BENNIGSEN;10.202;12
02/04/17 00:00;DEZ2036;Eurdep;air;52.24;9.86;0;Germany;0;0;0;SARSTEDT;10.029;13
02/04/17 00:00;DEZ2039;Eurdep;air;52.6;10.04;0;Germany;0;0;0;CELLE-WIETZENBRUCH;7.064;8.75
02/04/17 00:00;DEZ2043;Eurdep;air;51.69;13.23;0;Germany;0;0;0;HERZBERG/ELSTER;7.794;8.059999999999999
02/04/17 00:00;DEZ2071;Eurdep;air;51.37;6.44;0;Germany;0;0;0;KEMPEN;8.424;9.26
02/04/17 00:00;DEZ2076;Eurdep;air;50.94;7.05;0;Germany;0;0;0;KÖLN-MERHEIM;8.753;9.11
02/04/17 00:00;DEZ2079;Eurdep;air;50.72;6.4;0;Germany;0;0;0;HÜRTGENWALD-KLEINHAU;9.74;10
02/04/17 00:00;DEZ2081;Eurdep;air;50.97;6.58;0;Germany;0;0;0;BERGHEIM-GLESCH;10.327;11
02/04/17 00:00;DEZ2082;Eurdep;air;50.89;6.87;0;Germany;0;0;0;HÜRTH;9.43;9.74
02/04/17 00:00;DEZ2084;Eurdep;air;50.67;6.76;0;Germany;0;0;0;EUSKIRCHEN;8.872;9.09
02/04/17 00:00;DEZ2086;Eurdep;air;49.55;8.59;0;Germany;0;0;0;VIERNHEIM;8.766;9.290000000000001
02/04/17 00:00;DEZ2088;Eurdep;air;50.6;8.84;0;Germany;0;0;0;REISKIRCHEN;10.318000000000001;10
02/04/17 00:00;DEZ2089;Eurdep;air;50.82;8.53;0;Germany;0;0;0;DAUTPHETAL;9.027;10
02/04/17 00:00;DEZ2096;Eurdep;air;50.86;9.48;0;Germany;0;0;0;OBERAULA;10.745000000000001;11
02/04/17 00:00;DEZ2098;Eurdep;air;51.11;9.12;0;Germany;0;0;0;BAD WILDUNGEN;11.236;11
30/03/17 22:00;DEZ2102;Eurdep;air;51.32;13.29;0;Germany;0;0;0;RIESA;0;0
02/04/17 00:00;DEZ2103;Eurdep;air;50.88;12.13;0;Germany;0;0;0;GERA OT LEUMNITZ;9.99;11
02/04/17 00:00;DEZ2108;Eurdep;air;49.6;7.06;0;Germany;0;0;0;NOHFELDEN-SÖTERN;11.486;11
02/04/17 00:00;DEZ2117;Eurdep;air;53.03;13.99;0;Germany;0;0;0;KERKOW;8.456999999999999;8.74
02/04/17 00:00;DEZ2118;Eurdep;air;52.87;14.15;0;Germany;0;0;0;HOHENSAATEN;7.412000000000001;7.959999999999999
02/04/17 00:00;DEZ2120;Eurdep;air;52.21;14.12;0;Germany;0;0;0;LINDENBERG;7.640000000000001;7.83
02/04/17 00:00;DEZ2123;Eurdep;air;52.28;12.61;0;Germany;0;0;0;GOLZOW;7.1819999999999995;8.72
02/04/17 00:00;DEZ2124;Eurdep;air;52.92;13.73;0;Germany;0;0;0;ALTENHOF;7.236;7.790000000000001
01/04/17 23:00;DEZ2126;Eurdep;air;53.14;13.03;0;Germany;0;0;0;NEUGLOBSOW;6.956999999999999;7.42
02/04/17 00:00;DEZ2134;Eurdep;air;53.16;12.2;0;Germany;0;0;0;PRITZWALK;8.269;10
02/04/17 00:00;DEZ2135;Eurdep;air;52.53;14.37;0;Germany;0;0;0;SEELOW;7.938;8.26
02/04/17 00:00;DEZ2137;Eurdep;air;51.51;13.98;0;Germany;0;0;0;SENFTENBERG;7.5920000000000005;7.7700000000000005
02/04/17 00:00;DEZ2148;Eurdep;air;51.27;12.67;0;Germany;0;0;0;BEIERSDORF;10.45;10
02/04/17 00:00;DEZ2150;Eurdep;air;51.27;13.89;0;Germany;0;0;0;KÖNIGSBRÜCK;8.239;8.47
02/04/17 00:00;DEZ2153;Eurdep;air;51.29;14.85;0;Germany;0;0;0;NIESKY;8.492;8.809999999999999
02/04/17 00:00;DEZ2157;Eurdep;air;51.49;14.63;0;Germany;0;0;0;WEIßWASSER;6.779999999999999;7
02/04/17 00:00;DEZ2161;Eurdep;air;50.98;12.52;0;Germany;0;0;0;NOBITZ;11.245000000000001;11
30/03/17 22:00;DEZ2163;Eurdep;air;50.8;10.25;0;Germany;0;0;0;BAD SALZUNGEN;0;0
02/04/17 00:00;DEZ2165;Eurdep;air;50.96;10.71;0;Germany;0;0;0;GOTHA;12.205;12
02/04/17 00:00;DEZ2166;Eurdep;air;51.2;10.44;0;Germany;0;0;0;MÜHLHAUSEN;11.618;13
30/03/17 22:00;DEZ2167;Eurdep;air;51.5;10.81;0;Germany;0;0;0;NORDHAUSEN;0;0
02/04/17 00:00;DEZ2175;Eurdep;air;52.96;7.27;0;Germany;0;0;0;DERSUM;8.256;9.34
02/04/17 00:00;DEZ2176;Eurdep;air;52.52;7.31;0;Germany;0;0;0;LINGEN / DWD;5.753;6.0200000000000005
02/04/17 00:00;DEZ2178;Eurdep;air;53.28;10.73;0;Germany;0;0;0;BLECKEDE;7.090999999999999;8
02/04/17 00:00;DEZ2182;Eurdep;air;52.17;9;0;Germany;0;0;0;KALLETAL-STEMMEN;10.129999999999999;11
02/04/17 00:00;DEZ2183;Eurdep;air;51.47;8.71;0;Germany;0;0;0;WÜNNENBERG-BLEIWÄSCHE;9.196;10
02/04/17 00:00;DEZ2184;Eurdep;air;51.18;8.49;0;Germany;0;0;0;WINTERBERG-KAHLER ASTEN;10.254999999999999;11
02/04/17 00:00;DEZ2186;Eurdep;air;50.71;8.08;0;Germany;0;0;0;BURBACH;8.523;8.870000000000001
02/04/17 00:00;DEZ2188;Eurdep;air;50.84;8.02;0;Germany;0;0;0;SIEGEN;11.223;11
02/04/17 00:00;DEZ2190;Eurdep;air;50.55;6.25;0;Germany;0;0;0;MONSCHAU-HÖFEN;10.504999999999999;10
02/04/17 00:00;DEZ2192;Eurdep;air;51.08;7.53;0;Germany;0;0;0;MARIENHEIDE;9.831;10
02/04/17 00:00;DEZ2196;Eurdep;air;49.21;8.18;0;Germany;0;0;0;LANDAU/PF.-MÖRLHEIM;9.459999999999999;9.75
02/04/17 00:00;DEZ2197;Eurdep;air;49.46;8.44;0;Germany;0;0;0;LUDWIGSHAFEN/RHEIN;9.17;9.459999999999999
02/04/17 00:00;DEZ2198;Eurdep;air;49.36;8.14;0;Germany;0;0;0;NEUSTADT/WEINSTR. OT HAARDT.;8.734;8.99
02/04/17 00:00;DEZ2199;Eurdep;air;49.31;8.45;0;Germany;0;0;0;SPEYER;8.468;8.92
02/04/17 00:00;DEZ2200;Eurdep;air;48.98;8.14;0;Germany;0;0;0;SCHEIBENHARDT;8.933;9.28
02/04/17 00:00;DEZ2201;Eurdep;air;49.13;8.15;0;Germany;0;0;0;STEINWEILER;8.606;9.05
02/04/17 00:00;DEZ2203;Eurdep;air;48.9;9.13;0;Germany;0;0;0;ASPERG;10.882;11
02/04/17 00:00;DEZ2204;Eurdep;air;49.04;9.12;0;Germany;0;0;0;BÖNNIGHEIM ST HOHENSTEIN;11.086;12
30/03/17 22:00;DEZ2205;Eurdep;air;48.94;9.29;0;Germany;0;0;0;ERDMANNHAUSEN;0;0
02/04/17 00:00;DEZ2207;Eurdep;air;49;9.11;0;Germany;0;0;0;LÖCHGAU;11.009;11
02/04/17 00:00;DEZ2210;Eurdep;air;48.83;9.14;0;Germany;0;0;0;KORNTAL-MÜNCHINGEN;11.309000000000001;11
02/04/17 00:00;DEZ2211;Eurdep;air;48.95;9.45;0;Germany;0;0;0;BACKNANG;10.131;12
02/04/17 00:00;DEZ2213;Eurdep;air;49.24;9.11;0;Germany;0;0;0;BAD RAPPENAU;10.659;11
02/04/17 00:00;DEZ2214;Eurdep;air;49.16;8.99;0;Germany;0;0;0;GEMMINGEN;10.382;10
02/04/17 00:00;DEZ2215;Eurdep;air;49.06;9.29;0;Germany;0;0;0;ILSFELD OT AUENSTEIN;11.418000000000001;12
02/04/17 00:00;DEZ2216;Eurdep;air;49.1;9.39;0;Germany;0;0;0;LÖWENSTEIN;11.282;11
02/04/17 00:00;DEZ2220;Eurdep;air;48.6;10.25;0;Germany;0;0;0;HERMARINGEN;10.423;10
02/04/17 00:00;DEZ2223;Eurdep;air;48.95;8.39;0;Germany;0;0;0;ETTLINGEN;10.206999999999999;10
02/04/17 00:00;DEZ2224;Eurdep;air;49.24;8.46;0;Germany;0;0;0;PHILIPPSBURG;8.61;9.02
02/04/17 00:00;DEZ2229;Eurdep;air;49.23;8.51;0;Germany;0;0;0;WAGHÄUSEL OT WIESENTAL;8.974;9.379999999999999
02/04/17 00:00;DEZ2230;Eurdep;air;49.26;8.5;0;Germany;0;0;0;OBERHAUSEN-RHEINHAUSEN;9.431999999999999;9.85
02/04/17 00:00;DEZ2232;Eurdep;air;49.16;8.42;0;Germany;0;0;0;DETTENHEIM OT LIEDOLSHEIM;8.619;8.93
02/04/17 00:00;DEZ2233;Eurdep;air;48.95;8.23;0;Germany;0;0;0;AU AM RHEIN;8.681999999999999;9.18
02/04/17 00:00;DEZ2234;Eurdep;air;48.86;8.2;0;Germany;0;0;0;RASTATT;9.233;9.47
02/04/17 00:00;DEZ2235;Eurdep;air;48.9;8.2;0;Germany;0;0;0;STEINMAUERN;8.664;9.24
02/04/17 00:00;DEZ2238;Eurdep;air;49.43;8.54;0;Germany;0;0;0;MANNHEIM ST RHEINAU;9.751999999999999;10
02/04/17 00:00;DEZ2239;Eurdep;air;49.37;9.02;0;Germany;0;0;0;AGLASTERHAUSEN OT BREIT.;11.409;11
02/04/17 00:00;DEZ2240;Eurdep;air;49.45;9.18;0;Germany;0;0;0;LIMBACH OT KRUMBACH;12.091;12
02/04/17 00:00;DEZ2241;Eurdep;air;49.35;9.13;0;Germany;0;0;0;MOSBACH;11.336;11
02/04/17 00:00;DEZ2242;Eurdep;air;49.36;9.11;0;Germany;0;0;0;MOSBACH ST DIEDESHEIM;9.290000000000001;9
02/04/17 00:00;DEZ2243;Eurdep;air;49.39;9.09;0;Germany;0;0;0;MOSBACH ST REICHENBUCH;11.376999999999999;11
02/04/17 00:00;DEZ2244;Eurdep;air;49.54;9.16;0;Germany;0;0;0;MUDAU OT SCHLOSSAU;11.145;11
02/04/17 00:00;DEZ2246;Eurdep;air;49.4;9.27;0;Germany;0;0;0;UNTER-SCHEFFLENZ;10.491;10
02/04/17 00:00;DEZ2248;Eurdep;air;49.24;8.68;0;Germany;0;0;0;MALSCH;11.145;11
02/04/17 00:00;DEZ2249;Eurdep;air;49.34;8.8;0;Germany;0;0;0;MAUER;10.342;11
02/04/17 00:00;DEZ2250;Eurdep;air;49.46;8.81;0;Germany;0;0;0;SCHÖNAU ST ALTNEUDORF;10.791;11
30/03/17 22:00;DEZ2252;Eurdep;air;49.53;8.64;0;Germany;0;0;0;WEINHEIM;0;0
02/04/17 00:00;DEZ2253;Eurdep;air;49.33;8.98;0;Germany;0;0;0;HELMSTADT-BARGEN OT HELM.;11.004999999999999;11
02/04/17 00:00;DEZ2254;Eurdep;air;49.31;9.02;0;Germany;0;0;0;HELMSTADT-BARGEN OT BARG.;11.718;12
02/04/17 00:00;DEZ2255;Eurdep;air;49.05;8.85;0;Germany;0;0;0;STERNENFELS;11.681999999999999;11
02/04/17 00:00;DEZ2257;Eurdep;air;48.02;7.73;0;Germany;0;0;0;FREIBURG ST WALTERSHOFEN;11.45;12
02/04/17 00:00;DEZ2259;Eurdep;air;47.98;7.79;0;Germany;0;0;0;FREIBURG ST ST. GEORGEN;10.364;10
02/04/17 00:00;DEZ2261;Eurdep;air;48.03;7.6;0;Germany;0;0;0;BREISACH;9.473;10
02/04/17 00:00;DEZ2264;Eurdep;air;47.86;7.58;0;Germany;0;0;0;NEUENBURG ST GRIßHEIM;9.142;9.39
02/04/17 00:00;DEZ2267;Eurdep;air;47.59;7.86;0;Germany;0;0;0;SCHWÖRSTADT;8.966;9.690000000000001
02/04/17 00:00;DEZ2268;Eurdep;air;47.65;8.13;0;Germany;0;0;0;ALBBRUCK OT UNTERALPFEN;12.459;12
02/04/17 00:00;DEZ2269;Eurdep;air;47.64;8.08;0;Germany;0;0;0;GÖRWIHL OT GÖRWIHL;13;13
02/04/17 00:00;DEZ2270;Eurdep;air;47.68;8.01;0;Germany;0;0;0;HERRISCHRIED OT GROßHERRISCHWAND;19;19
02/04/17 00:00;DEZ2272;Eurdep;air;47.63;8.31;0;Germany;0;0;0;LAUCHRINGEN OT UNTERLAU.;11.491;12
02/04/17 00:00;DEZ2273;Eurdep;air;47.56;7.97;0;Germany;0;0;0;BAD SÄCKINGEN;8.493;8.85
29/03/17 22:00;DEZ2274;Eurdep;air;47.77;8.11;0;Germany;0;0;0;ST. BLASIEN;0;0
02/04/17 00:00;DEZ2277;Eurdep;air;47.72;8.32;0;Germany;0;0;0;ÜHLINGEN-BIRKENDORF;11.768;12
02/04/17 00:00;DEZ2288;Eurdep;air;54.18;12.08;0;Germany;0;0;0;ROSTOCK-WARNEMÜNDE;8.133;8.48
02/04/17 00:00;DEZ2291;Eurdep;air;53.95;13.42;0;Germany;0;0;0;GÜTZKOW;7.997;9.690000000000001
02/04/17 00:00;DEZ2293;Eurdep;air;53.32;11.11;0;Germany;0;0;0;LÜBTHEEN;7.790000000000001;9.57
02/04/17 00:00;DEZ2298;Eurdep;air;54.37;13.67;0;Germany;0;0;0;SELLIN;7.715000000000001;8.059999999999999
02/04/17 00:00;DEZ2307;Eurdep;air;53.74;12.93;0;Germany;0;0;0;BASEPOHL;8.376000000000001;9.93
02/04/17 00:00;DEZ2308;Eurdep;air;53.43;10.75;0;Germany;0;0;0;GRESSE;7.476000000000001;11
01/04/17 22:00;DEZ2309;Eurdep;air;53.38;11.24;0;Germany;0;0;0;KUHSTORF;6.525;7.68
02/04/17 00:00;DEZ2312;Eurdep;air;53.13;11.36;0;Germany;0;0;0;POLZ;6.516;8.43
02/04/17 00:00;DEZ2313;Eurdep;air;53.23;11.2;0;Germany;0;0;0;TEWSWOOS;7.039;8.82
01/04/17 23:00;DEZ2314;Eurdep;air;53.5;11.09;0;Germany;0;0;0;WITTENBURG;7.87;9.02
02/04/17 00:00;DEZ2315;Eurdep;air;53.46;13.29;0;Germany;0;0;0;GODENSWEGE;8.312000000000001;9.74
02/04/17 00:00;DEZ2317;Eurdep;air;53.32;12.36;0;Germany;0;0;0;JAEBETZ;7.895999999999999;9.129999999999999
02/04/17 00:00;DEZ2320;Eurdep;air;54.03;12.88;0;Germany;0;0;0;GRAMMENDORF;8.254999999999999;9
02/04/17 00:00;DEZ2321;Eurdep;air;54.4;13.01;0;Germany;0;0;0;KLAUSDORF;8.26;8
02/04/17 00:00;DEZ2322;Eurdep;air;53.77;11.46;0;Germany;0;0;0;BAD KLEINEN;10.326;12
02/04/17 00:00;DEZ2327;Eurdep;air;53.95;13.85;0;Germany;0;0;0;LASSAN;7.758;8.24
02/04/17 00:00;DEZ2332;Eurdep;air;53.87;14.17;0;Germany;0;0;0;ZIRCHOW;7.304;7.49
02/04/17 00:00;DEZ2333;Eurdep;air;53.62;12.18;0;Germany;0;0;0;GOLDBERG;8.159;9.190000000000001
02/04/17 00:00;DEZ2334;Eurdep;air;53.55;11.92;0;Germany;0;0;0;LENSCHOW;8.515;10
01/04/17 22:00;DEZ2336;Eurdep;air;53.67;11.65;0;Germany;0;0;0;WENDORF;7.311;7.459999999999999
02/04/17 00:00;DEZ2337;Eurdep;air;54.32;13.53;0;Germany;0;0;0;INSEL VILM;7.555;7
02/04/17 00:00;DEZ2338;Eurdep;air;54.54;13.55;0;Germany;0;0;0;SAGARD OT MARLOW;9.158;9.28
02/04/17 00:00;DEZ2349;Eurdep;air;51.78;14.32;0;Germany;0;0;0;COTTBUS;6.999;7.279999999999999
02/04/17 00:00;DEZ2350;Eurdep;air;52.16;14.66;0;Germany;0;0;0;EISENHÜTTENSTADT;6.752;6.959999999999999
02/04/17 00:00;DEZ2351;Eurdep;air;52.37;14.48;0;Germany;0;0;0;FRANKFURT/ODER;7.17;7.38
27/03/17 22:00;DEZ2353;Eurdep;air;53.07;14.2;0;Germany;0;0;0;SCHWEDT;0;0
17/03/17 23:00;DEZ2354;Eurdep;air;53.21;14.38;0;Germany;0;0;0;GARTZ/ODER;0;0
30/03/17 22:00;DEZ2360;Eurdep;air;51.75;14.63;0;Germany;0;0;0;FORST;0;0
02/04/17 00:00;DEZ2364;Eurdep;air;52;13.07;0;Germany;0;0;0;JÜTERBOG;8.262;8.59
02/04/17 00:00;DEZ2367;Eurdep;air;52.94;12.41;0;Germany;0;0;0;KYRITZ;7.734999999999999;8.85
02/04/17 00:00;DEZ2368;Eurdep;air;51.94;13.91;0;Germany;0;0;0;LÜBBEN;6.243;6
02/04/17 00:00;DEZ2371;Eurdep;air;52.9;12.81;0;Germany;0;0;0;NEURUPPIN;7.635;9.23
02/04/17 00:00;DEZ2372;Eurdep;air;52.64;13.25;0;Germany;0;0;0;STOLPE;7.446;7.65
02/04/17 00:00;DEZ2373;Eurdep;air;53.07;11.85;0;Germany;0;0;0;PERLEBERG;8.08;9.24
02/04/17 00:00;DEZ2374;Eurdep;air;53.31;13.87;0;Germany;0;0;0;PRENZLAU;7.858;8.190000000000001
02/04/17 00:00;DEZ2375;Eurdep;air;52.55;14.55;0;Germany;0;0;0;MANSCHNOW;7.7219999999999995;8.02
02/04/17 00:00;DEZ2377;Eurdep;air;52.6;13.58;0;Germany;0;0;0;AHRENSFELDE;8.761;8.97
02/04/17 00:00;DEZ2379;Eurdep;air;52.79;13.49;0;Germany;0;0;0;KLOSTERFELDE;8.556999999999999;8.83
02/04/17 00:00;DEZ2380;Eurdep;air;52.92;14.11;0;Germany;0;0;0;LUNOW;8.040000000000001;8.209999999999999
02/04/17 00:00;DEZ2381;Eurdep;air;52.77;13.7;0;Germany;0;0;0;MELCHOW;7.135;7.38
02/04/17 00:00;DEZ2382;Eurdep;air;52.85;13.94;0;Germany;0;0;0;NIEDERFINOW;7.641;7
02/04/17 00:00;DEZ2383;Eurdep;air;51.92;13.58;0;Germany;0;0;0;DRAHNSDORF;7.011;7.2700000000000005
02/04/17 00:00;DEZ2384;Eurdep;air;51.98;14.29;0;Germany;0;0;0;LIEBEROSE;6.018;6.25
02/04/17 00:00;DEZ2385;Eurdep;air;51.85;13.7;0;Germany;0;0;0;LUCKAU;7.3340000000000005;7.609999999999999
02/04/17 00:00;DEZ2388;Eurdep;air;51.65;13.57;0;Germany;0;0;0;DOBERLUG-KIRCHHAIN;6.515000000000001;6.76
02/04/17 00:00;DEZ2391;Eurdep;air;52.59;12.63;0;Germany;0;0;0;BUSCHOW;6.287;6.74
30/03/17 22:00;DEZ2396;Eurdep;air;53.14;13.24;0;Germany;0;0;0;BREDEREICHE;0;0
30/03/17 22:00;DEZ2397;Eurdep;air;52.9;13.16;0;Germany;0;0;0;LÖWENBERG;0;0
30/03/17 22:00;DEZ2399;Eurdep;air;51.37;13.76;0;Germany;0;0;0;ORTRAND;0;0
02/04/17 00:00;DEZ2401;Eurdep;air;52.35;14.28;0;Germany;0;0;0;BRIESEN;6.99;7.35
02/04/17 00:00;DEZ2402;Eurdep;air;52.09;14.64;0;Germany;0;0;0;NEUZELLE;7.417;7.7299999999999995
02/04/17 00:00;DEZ2403;Eurdep;air;52.24;13.95;0;Germany;0;0;0;STORKOW;6.912000000000001;7.19
01/04/17 22:00;DEZ2407;Eurdep;air;52.25;12.95;0;Germany;0;0;0;BEELITZ;6.909000000000001;7.08
30/03/17 22:00;DEZ2408;Eurdep;air;52.21;12.8;0;Germany;0;0;0;BRÜCK;0;0
02/04/17 00:00;DEZ2410;Eurdep;air;52.02;12.53;0;Germany;0;0;0;KLEPZIG;7.534999999999999;8.65
02/04/17 00:00;DEZ2411;Eurdep;air;52.12;12.46;0;Germany;0;0;0;WIESENBURG;7.881;9.870000000000001
30/03/17 22:00;DEZ2412;Eurdep;air;52.25;12.26;0;Germany;0;0;0;ZIESAR;0;0
02/04/17 00:00;DEZ2414;Eurdep;air;53.25;12.04;0;Germany;0;0;0;PUTLITZ;8.263;9
02/04/17 00:00;DEZ2416;Eurdep;air;51.65;14.23;0;Germany;0;0;0;DREBKAU;7.572;7.83
02/04/17 00:00;DEZ2417;Eurdep;air;51.67;14.75;0;Germany;0;0;0;KLEIN BADEMEUSEL;8;9
02/04/17 00:00;DEZ2423;Eurdep;air;52.21;13.16;0;Germany;0;0;0;SCHÖNHAGEN;7.185;7.5200000000000005
30/03/17 22:00;DEZ2424;Eurdep;air;51.88;13.25;0;Germany;0;0;0;WIEPERSDORF;0;0
02/04/17 00:00;DEZ2426;Eurdep;air;53.27;13.62;0;Germany;0;0;0;BOITZENBURG;8.197;8.459999999999999
02/04/17 00:00;DEZ2428;Eurdep;air;53.24;13.98;0;Germany;0;0;0;HOHENGÜSTOW;8.376999999999999;8
02/04/17 00:00;DEZ2429;Eurdep;air;53.22;13.32;0;Germany;0;0;0;LYCHEN;7.822;8.36
02/04/17 00:00;DEZ2431;Eurdep;air;53.39;14;0;Germany;0;0;0;KLOCKOW;8.282;8.89
02/04/17 00:00;DEZ2432;Eurdep;air;53.27;14.35;0;Germany;0;0;0;TANTOW;8.156;8.73
02/04/17 00:00;DEZ2433;Eurdep;air;53.09;14.29;0;Germany;0;0;0;VIERRADEN;8.382;8
30/03/17 22:00;DEZ2434;Eurdep;air;51.52;11.97;0;Germany;0;0;0;HALLE;0;0
02/04/17 00:00;DEZ2436;Eurdep;air;51.76;11.49;0;Germany;0;0;0;ASCHERSLEBEN;10.643;12
30/03/17 22:00;DEZ2437;Eurdep;air;51.81;11.73;0;Germany;0;0;0;BERNBURG;0;0
02/04/17 00:00;DEZ2438;Eurdep;air;51.63;12.29;0;Germany;0;0;0;BITTERFELD;8.865;11
30/03/17 22:00;DEZ2440;Eurdep;air;51.53;11.55;0;Germany;0;0;0;EISLEBEN;0;0
02/04/17 00:00;DEZ2443;Eurdep;air;52.27;11.42;0;Germany;0;0;0;HALDENSLEBEN;8.562999999999999;10
02/04/17 00:00;DEZ2444;Eurdep;air;52.84;12.08;0;Germany;0;0;0;HAVELBERG;7.686;9.82
02/04/17 00:00;DEZ2446;Eurdep;air;51.8;12.96;0;Germany;0;0;0;JESSEN;8.362;8.66
02/04/17 00:00;DEZ2447;Eurdep;air;52.63;11.14;0;Germany;0;0;0;KLÖTZE;6.509;8.02
01/04/17 16:00;DEZ2448;Eurdep;air;51.73;11.95;0;Germany;0;0;0;KÖTHEN;10.475;11
02/04/17 00:00;DEZ2450;Eurdep;air;52.89;11.73;0;Germany;0;0;0;SEEHAUSEN;7.119;7.99
02/04/17 00:00;DEZ2451;Eurdep;air;52.88;11.57;0;Germany;0;0;0;LEPPIN;7.43;8
02/04/17 00:00;DEZ2454;Eurdep;air;52.83;11.19;0;Germany;0;0;0;SALZWEDEL;7.343000000000001;8
02/04/17 00:00;DEZ2456;Eurdep;air;52.01;11.75;0;Germany;0;0;0;SCHÖNEBECK/ELBE;11;13
02/04/17 00:00;DEZ2459;Eurdep;air;51.89;12.65;0;Germany;0;0;0;WITTENBERG;7.311;7.82
02/04/17 00:00;DEZ2460;Eurdep;air;52.24;11.64;0;Germany;0;0;0;WOLMIRSTEDT;10.151;11
02/04/17 00:00;DEZ2464;Eurdep;air;52;12.28;0;Germany;0;0;0;POLENZKO OT BÄRENTHOREN;7.772;9.690000000000001
02/04/17 00:00;DEZ2466;Eurdep;air;51.62;12.12;0;Germany;0;0;0;ZÖRBIG;12.89;14
02/04/17 00:00;DEZ2467;Eurdep;air;51.73;12.48;0;Germany;0;0;0;GRÄFENHAINICHEN;7.8260000000000005;9.379999999999999
02/04/17 00:00;DEZ2468;Eurdep;air;51.15;11.79;0;Germany;0;0;0;NAUMBURG;12.02;13
02/04/17 00:00;DEZ2471;Eurdep;air;51.65;11.68;0;Germany;0;0;0;IHLEWITZ;11.145;13
02/04/17 00:00;DEZ2473;Eurdep;air;51.39;11.66;0;Germany;0;0;0;OBHAUSEN;10.301;12
02/04/17 00:00;DEZ2477;Eurdep;air;51.94;11.45;0;Germany;0;0;0;EGELN;9.545;11
02/04/17 00:00;DEZ2478;Eurdep;air;52.16;11.18;0;Germany;0;0;0;UMMENDORF;9.620999999999999;10
02/04/17 00:00;DEZ2479;Eurdep;air;51.98;10.88;0;Germany;0;0;0;BADERSLEBEN;10.527;11
02/04/17 00:00;DEZ2480;Eurdep;air;52.38;11.98;0;Germany;0;0;0;PAREY;7.9079999999999995;9.43
02/04/17 00:00;DEZ2484;Eurdep;air;52.71;11.86;0;Germany;0;0;0;GOLDBECK;7.223999999999999;8.86
02/04/17 00:00;DEZ2489;Eurdep;air;51.8;10.62;0;Germany;0;0;0;SCHIERKE/BROCKEN;14.632;17
02/04/17 00:00;DEZ2491;Eurdep;air;52.79;10.89;0;Germany;0;0;0;DÄHRE;7.984;10
01/04/17 18:00;DEZ2492;Eurdep;air;52.79;11.38;0;Germany;0;0;0;FLEETMARK;8.269;8
02/04/17 00:00;DEZ2502;Eurdep;air;51.16;14.95;0;Germany;0;0;0;GÖRLITZ;8.475;8.75
02/04/17 00:00;DEZ2503;Eurdep;air;51.33;12.29;0;Germany;0;0;0;LEIPZIG;9.704;10
30/03/17 22:00;DEZ2505;Eurdep;air;50.54;12.42;0;Germany;0;0;0;RODEWISCH;0;0
02/04/17 00:00;DEZ2506;Eurdep;air;51.18;14.45;0;Germany;0;0;0;BAUTZEN;9.867;10
02/04/17 00:00;DEZ2507;Eurdep;air;51.14;14.2;0;Germany;0;0;0;BISCHOFSWERDA;10.24;10
02/04/17 00:00;DEZ2509;Eurdep;air;50.71;13.51;0;Germany;0;0;0;CÄMMERSWALDE;12.686;13
02/04/17 00:00;DEZ2510;Eurdep;air;50.81;13.41;0;Germany;0;0;0;MULDA;12.895;13
01/04/17 23:00;DEZ2512;Eurdep;air;51.12;13.67;0;Germany;0;0;0;RADEBEUL;12.916999999999998;13
30/03/17 22:00;DEZ2513;Eurdep;air;50.91;13.34;0;Germany;0;0;0;FREIBERG;0;0
02/04/17 00:00;DEZ2514;Eurdep;air;50.88;12.59;0;Germany;0;0;0;WALDENBURG;11.477;12
02/04/17 00:00;DEZ2516;Eurdep;air;51.43;14.28;0;Germany;0;0;0;HOYERSWERDA;6.784999999999999;7.01
30/03/17 22:00;DEZ2520;Eurdep;air;50.33;12.29;0;Germany;0;0;0;ADORF;0;0
30/03/17 22:00;DEZ2524;Eurdep;air;50.85;14.06;0;Germany;0;0;0;ROSENTHAL;0;0
02/04/17 00:00;DEZ2525;Eurdep;air;50.48;12.13;0;Germany;0;0;0;PLAUEN;11.027;11
02/04/17 00:00;DEZ2527;Eurdep;air;50.43;12.71;0;Germany;0;0;0;JOHANNGEORGENSTADT;13.95;15
30/03/17 22:00;DEZ2529;Eurdep;air;50.93;14.36;0;Germany;0;0;0;HINTERHERMSDORF;0;0
02/04/17 00:00;DEZ2531;Eurdep;air;50.68;12.47;0;Germany;0;0;0;ZWICKAU;10.686;12
30/03/17 22:00;DEZ2532;Eurdep;air;50.64;12.96;0;Germany;0;0;0;EHRENFRIEDERSDORF;0;0
02/04/17 00:00;DEZ2533;Eurdep;air;51.31;14.33;0;Germany;0;0;0;KÖNIGSWARTHA;7.404999999999999;7.67
30/03/17 22:00;DEZ2534;Eurdep;air;51.09;14.39;0;Germany;0;0;0;WILTHEN;0;0
02/04/17 00:00;DEZ2535;Eurdep;air;51.45;12.63;0;Germany;0;0;0;EILENBURG;9.669;10
30/03/17 22:00;DEZ2536;Eurdep;air;51.07;13.04;0;Germany;0;0;0;WALDHEIM;0;0
02/04/17 00:00;DEZ2547;Eurdep;air;51.26;14.64;0;Germany;0;0;0;WEIGERSDORF;6.984;7.340000000000001
02/04/17 00:00;DEZ2551;Eurdep;air;50.89;14.66;0;Germany;0;0;0;GROßSCHÖNAU;11.181999999999999;11
02/04/17 00:00;DEZ2553;Eurdep;air;51.02;14.53;0;Germany;0;0;0;NEUSALZA-SPREMBERG;9.362;9.74
02/04/17 00:00;DEZ2554;Eurdep;air;50.83;14.72;0;Germany;0;0;0;OYBIN;11.681999999999999;12
02/04/17 00:00;DEZ2555;Eurdep;air;50.89;14.2;0;Germany;0;0;0;REINHARDTSDORF;7.888;8.11
02/04/17 00:00;DEZ2557;Eurdep;air;51.23;13.03;0;Germany;0;0;0;MÜGELN;11.690999999999999;12
02/04/17 00:00;DEZ2558;Eurdep;air;50.73;13.75;0;Germany;0;0;0;ALTENBERG OT GEORGENFELD;17.036;17
02/04/17 00:00;DEZ2559;Eurdep;air;51.19;14.02;0;Germany;0;0;0;PULSNITZ;7.517;7.779999999999999
02/04/17 00:00;DEZ2560;Eurdep;air;51.06;13.95;0;Germany;0;0;0;DRESDEN OT ROSSENDORF;9.504999999999999;9.790000000000001
02/04/17 00:00;DEZ2562;Eurdep;air;51.39;14.03;0;Germany;0;0;0;WIEDNITZ;7.279000000000001;7.609999999999999
02/04/17 00:00;DEZ2569;Eurdep;air;50.5;11.14;0;Germany;0;0;0;NEUHAUS/RENNWEG;12.782;13
02/04/17 00:00;DEZ2572;Eurdep;air;50.57;11.8;0;Germany;0;0;0;SCHLEIZ;8.672;9.959999999999999
30/03/17 22:00;DEZ2573;Eurdep;air;51.16;11.11;0;Germany;0;0;0;SÖMMERDA;0;0
02/04/17 00:00;DEZ2574;Eurdep;air;51.28;10.72;0;Germany;0;0;0;EBELEBEN;10.344;11
02/04/17 00:00;DEZ2575;Eurdep;air;50.7;10.69;0;Germany;0;0;0;OBERHOF;14.613999999999999;14
02/04/17 00:00;DEZ2576;Eurdep;air;51.39;10.31;0;Germany;0;0;0;LEINEFELDE;11;11
02/04/17 00:00;DEZ2578;Eurdep;air;50.99;10.31;0;Germany;0;0;0;EISENACH;12.17;13
01/04/17 15:00;DEZ2580;Eurdep;air;51.11;10.64;0;Germany;0;0;0;BAD LANGENSALZA;11;11
30/03/17 22:00;DEZ2584;Eurdep;air;51.37;10.91;0;Germany;0;0;0;SONDERSHAUSEN;0;0
02/04/17 00:00;DEZ2585;Eurdep;air;50.46;10.54;0;Germany;0;0;0;EXDORF;11.068000000000001;11
02/04/17 00:00;DEZ2588;Eurdep;air;50.79;10.61;0;Germany;0;0;0;TAMBACH - DIETHARZ;13.655000000000001;14
02/04/17 00:00;DEZ2590;Eurdep;air;50.28;10.72;0;Germany;0;0;0;BAD COLBERG;13.431999999999999;14
02/04/17 00:00;DEZ2592;Eurdep;air;50.56;10.96;0;Germany;0;0;0;ALTENFELD;14.786000000000001;15
02/04/17 00:00;DEZ2593;Eurdep;air;50.65;10.77;0;Germany;0;0;0;GEHLBERG;16.982;17
02/04/17 00:00;DEZ2594;Eurdep;air;50.68;10.89;0;Germany;0;0;0;ILMENAU;15.677000000000001;16
30/03/17 22:00;DEZ2596;Eurdep;air;50.39;11;0;Germany;0;0;0;SCHALKAU;0;0
02/04/17 00:00;DEZ2597;Eurdep;air;50.38;11.18;0;Germany;0;0;0;SONNEBERG - NEUFANG;10.22;10
02/04/17 00:00;DEZ2600;Eurdep;air;50.44;11.87;0;Germany;0;0;0;GEFELL;11.577;12
30/03/17 22:00;DEZ2601;Eurdep;air;50.71;11.57;0;Germany;0;0;0;PÖßNECK;0;0
02/04/17 00:00;DEZ2605;Eurdep;air;53.03;13.71;0;Germany;0;0;0;FRIEDRICHSWALDE;9.232;9.53
02/04/17 00:00;DEZ2609;Eurdep;air;52.38;13.53;0;Germany;0;0;0;SCHÖNEFELD;7.845000000000001;8.15
02/04/17 00:00;DEZ2611;Eurdep;air;52.64;14.19;0;Germany;0;0;0;ALTFRIEDLAND;7.475;7.68
02/04/17 00:00;DEZ2612;Eurdep;air;52.58;14.07;0;Germany;0;0;0;BUCKOW;7.938;8.16
02/04/17 00:00;DEZ2613;Eurdep;air;52.67;14.43;0;Germany;0;0;0;KIENITZ;8.45;8.83
02/04/17 00:00;DEZ2614;Eurdep;air;52.72;14.28;0;Germany;0;0;0;NEULEWIN;9.184999999999999;9.540000000000001
30/03/17 22:00;DEZ2620;Eurdep;air;53.07;13.09;0;Germany;0;0;0;GROßWOLTERSDORF;0;0
30/03/17 22:00;DEZ2621;Eurdep;air;52.76;13.03;0;Germany;0;0;0;KREMMEN;0;0
02/04/17 00:00;DEZ2624;Eurdep;air;52.46;14.22;0;Germany;0;0;0;HEINERSDORF;7.459999999999999;7.7299999999999995
02/04/17 00:00;DEZ2627;Eurdep;air;52.07;14.75;0;Germany;0;0;0;RATZDORF;6.151;6.37
02/04/17 00:00;DEZ2628;Eurdep;air;52.24;14.58;0;Germany;0;0;0;WIESENAU;7.19;7.42
02/04/17 00:00;DEZ2631;Eurdep;air;53.16;12.76;0;Germany;0;0;0;FLECKEN ZECHLIN;8.22;10
02/04/17 00:00;DEZ2633;Eurdep;air;52.97;12.99;0;Germany;0;0;0;LINDOW;7.052;7
02/04/17 00:00;DEZ2634;Eurdep;air;52.91;12.59;0;Germany;0;0;0;LÖGOW;7.6819999999999995;9
02/04/17 00:00;DEZ2635;Eurdep;air;53.04;12.86;0;Germany;0;0;0;SCHWANOW;7.7989999999999995;9.47
30/03/17 22:00;DEZ2637;Eurdep;air;52.96;11.94;0;Germany;0;0;0;BAD WILSNACK;0;0
02/04/17 00:00;DEZ2641;Eurdep;air;51.94;14.69;0;Germany;0;0;0;GUBEN;8.25;8.61
02/04/17 00:00;DEZ2643;Eurdep;air;53.16;14.35;0;Germany;0;0;0;FRIEDRICHSTHAL;5.888;6.21
02/04/17 00:00;DEZ2645;Eurdep;air;53.37;13.7;0;Germany;0;0;0;WITTSTOCK;8.327;8.51
02/04/17 00:00;DEZ2646;Eurdep;air;52.99;14.14;0;Germany;0;0;0;STOLPE;7.206999999999999;7.459999999999999
01/04/17 23:00;DEZ2648;Eurdep;air;54.13;11.87;0;Germany;0;0;0;BAD DOBERAN;8.283;8.61
02/04/17 00:00;DEZ2650;Eurdep;air;54.25;12.25;0;Germany;0;0;0;GRAAL-MÜRITZ;8.357;8.52
01/04/17 23:00;DEZ2654;Eurdep;air;53.63;12.91;0;Germany;0;0;0;KITTENDORF;8.568000000000001;10
02/04/17 00:00;DEZ2655;Eurdep;air;53.85;12.77;0;Germany;0;0;0;SCHORRENTIN;8.385;10
30/03/17 22:00;DEZ2656;Eurdep;air;53.94;11.97;0;Germany;0;0;0;KLEIN BELITZ;0;0
26/03/17 22:00;DEZ2657;Eurdep;air;53.68;12.36;0;Germany;0;0;0;KUCHELMIß;0;0
02/04/17 00:00;DEZ2658;Eurdep;air;53.89;12.46;0;Germany;0;0;0;NEU HEINDE;8.023;8.41
02/04/17 00:00;DEZ2659;Eurdep;air;53.82;11.95;0;Germany;0;0;0;RÜHN;8.552;9.43
02/04/17 00:00;DEZ2661;Eurdep;air;53.56;11.27;0;Germany;0;0;0;WALSMÜHLEN;8.65;10
02/04/17 00:00;DEZ2663;Eurdep;air;53.44;11.49;0;Germany;0;0;0;FAHRBINDE;6.911;8.61
02/04/17 00:00;DEZ2664;Eurdep;air;53.17;11.29;0;Germany;0;0;0;NEU KALIß;6.890000000000001;9.08
02/04/17 00:00;DEZ2665;Eurdep;air;53.43;10.93;0;Germany;0;0;0;RODENWALDE;7.745;9.23
01/04/17 21:00;DEZ2666;Eurdep;air;53.16;11.54;0;Germany;0;0;0;STEESOW;6.554;8.26
02/04/17 00:00;DEZ2669;Eurdep;air;53.46;13.58;0;Germany;0;0;0;WOLDEGK;9.729000000000001;10
02/04/17 00:00;DEZ2676;Eurdep;air;54.28;12.31;0;Germany;0;0;0;DIERHAGEN;5.792;6.08
02/04/17 00:00;DEZ2678;Eurdep;air;54.15;12.43;0;Germany;0;0;0;GRESENHORST;8.004000000000001;8.370000000000001
02/04/17 00:00;DEZ2680;Eurdep;air;54;11.44;0;Germany;0;0;0;KIRCHDORF / POEL;8.349;9.65
02/04/17 00:00;DEZ2681;Eurdep;air;54.3;12.73;0;Germany;0;0;0;LÖBNITZ;6.7299999999999995;6
02/04/17 00:00;DEZ2682;Eurdep;air;54.21;12.82;0;Germany;0;0;0;MILLIENHAGEN;8.013;8.33
02/04/17 00:00;DEZ2683;Eurdep;air;54.2;13.19;0;Germany;0;0;0;REINKENHAGEN;8.129000000000001;8.93
02/04/17 00:00;DEZ2684;Eurdep;air;54.05;13.12;0;Germany;0;0;0;POGGENDORF;8.47;9.290000000000001
02/04/17 00:00;DEZ2687;Eurdep;air;53.76;10.93;0;Germany;0;0;0;CARLOW;8.339;9
02/04/17 00:00;DEZ2688;Eurdep;air;53.91;11.27;0;Germany;0;0;0;GROß WALMSTORF;7.973999999999999;9.690000000000001
02/04/17 00:00;DEZ2689;Eurdep;air;53.97;11.04;0;Germany;0;0;0;KALKHORST;8.866;10
30/03/17 22:00;DEZ2690;Eurdep;air;53.95;11.59;0;Germany;0;0;0;NEUBURG;0;0
02/04/17 00:00;DEZ2691;Eurdep;air;53.86;10.93;0;Germany;0;0;0;SCHÖNBERG;9.279;11
02/04/17 00:00;DEZ2694;Eurdep;air;54.04;13.3;0;Germany;0;0;0;DERSEKOW;8.158;9.83
30/03/17 22:00;DEZ2695;Eurdep;air;53.83;13.44;0;Germany;0;0;0;KRIEN;0;0
02/04/17 00:00;DEZ2696;Eurdep;air;53.52;11.64;0;Germany;0;0;0;TRAMM;8.068999999999999;9.74
22/03/17 23:00;DEZ2705;Eurdep;air;50.4;12.35;0;Germany;0;0;0;SCHÖNECK;0;0
02/04/17 00:00;DEZ2706;Eurdep;air;50.38;12.13;0;Germany;0;0;0;TRIEBEL;11.814;12
30/03/17 22:00;DEZ2708;Eurdep;air;50.43;12.95;0;Germany;0;0;0;OBERWIESENTHAL;0;0
02/04/17 00:00;DEZ2710;Eurdep;air;51.54;12.34;0;Germany;0;0;0;DELITZSCH;10.152;11
02/04/17 00:00;DEZ2712;Eurdep;air;51.31;12.52;0;Germany;0;0;0;ENGELSDORF OT KLEINPÖSNA;9.898;10
02/04/17 00:00;DEZ2713;Eurdep;air;51.22;12.32;0;Germany;0;0;0;ZWENKAU;10.45;12
02/04/17 00:00;DEZ2714;Eurdep;air;51.06;13.27;0;Germany;0;0;0;NOSSEN;10.468;10
02/04/17 00:00;DEZ2715;Eurdep;air;50.61;13.46;0;Germany;0;0;0;DEUTSCHNEUDORF;12.081999999999999;12
02/04/17 00:00;DEZ2716;Eurdep;air;50.56;13.22;0;Germany;0;0;0;REITZENHAIN;13.259;13
30/03/17 22:00;DEZ2717;Eurdep;air;50.6;13.3;0;Germany;0;0;0;RÜBENAU;0;0
30/03/17 22:00;DEZ2721;Eurdep;air;51.26;15.03;0;Germany;0;0;0;DESCHKA;0;0
30/03/17 22:00;DEZ2722;Eurdep;air;51.12;14.81;0;Germany;0;0;0;REICHENBACH/O.L.;0;0
30/03/17 22:00;DEZ2726;Eurdep;air;51.63;12.88;0;Germany;0;0;0;DOMMITZSCH;0;0
01/04/17 18:00;DEZ2728;Eurdep;air;50.44;12.59;0;Germany;0;0;0;CARLSFELD;12.225;13
30/03/17 22:00;DEZ2732;Eurdep;air;52.12;12.09;0;Germany;0;0;0;LOBURG;0;0
02/04/17 00:00;DEZ2734;Eurdep;air;51.72;12.62;0;Germany;0;0;0;ATERITZ;7.559;7
02/04/17 00:00;DEZ2736;Eurdep;air;51.28;11.64;0;Germany;0;0;0;KARSDORF;11.370000000000001;12
30/03/17 22:00;DEZ2737;Eurdep;air;51.09;11.93;0;Germany;0;0;0;OSTERFELD;0;0
02/04/17 00:00;DEZ2739;Eurdep;air;51.3;11.79;0;Germany;0;0;0;MÜCHELN;9.446;10
02/04/17 00:00;DEZ2740;Eurdep;air;51.28;12.1;0;Germany;0;0;0;TOLLWITZ;9.531;11
02/04/17 00:00;DEZ2741;Eurdep;air;51.44;12.04;0;Germany;0;0;0;DIESKAU;9.431999999999999;11
01/04/17 23:00;DEZ2745;Eurdep;air;51.23;11.88;0;Germany;0;0;0;PETTSTÄDT;10.205;10
02/04/17 00:00;DEZ2748;Eurdep;air;52.07;11.37;0;Germany;0;0;0;KLEIN WANZLEBEN;10.75;11
02/04/17 00:00;DEZ2750;Eurdep;air;52.17;11.07;0;Germany;0;0;0;SOMMERSDORF;9.743;11
02/04/17 00:00;DEZ2752;Eurdep;air;52.32;11.15;0;Germany;0;0;0;BEHNSDORF;7.329000000000001;9.33
02/04/17 00:00;DEZ2758;Eurdep;air;52.99;11.67;0;Germany;0;0;0;WAHRENBERG;7;9.33
02/04/17 00:00;DEZ2759;Eurdep;air;51.74;11.23;0;Germany;0;0;0;BALLENSTEDT;9.695;10
02/04/17 00:00;DEZ2760;Eurdep;air;51.65;11.14;0;Germany;0;0;0;HARZGERODE;10.254000000000001;10
02/04/17 00:00;DEZ2762;Eurdep;air;51.69;10.85;0;Germany;0;0;0;HASSELFELDE;10.248000000000001;11
30/03/17 22:00;DEZ2764;Eurdep;air;52.51;11.18;0;Germany;0;0;0;PECKFITZ;0;0
30/03/17 22:00;DEZ2765;Eurdep;air;52.71;11.05;0;Germany;0;0;0;ROHRBERG;0;0
02/04/17 00:00;DEZ2766;Eurdep;air;52.43;11.4;0;Germany;0;0;0;ROXFÖRDE;6.859999999999999;8.709999999999999
30/03/17 22:00;DEZ2767;Eurdep;air;52.74;11.24;0;Germany;0;0;0;WINTERFELD;0;0
30/03/17 22:00;DEZ2771;Eurdep;air;51.44;10.57;0;Germany;0;0;0;BLEICHERODE;0;0
02/04/17 00:00;DEZ2772;Eurdep;air;50.76;10.08;0;Germany;0;0;0;GEHAUS;10.518;11
02/04/17 00:00;DEZ2776;Eurdep;air;50.72;10.45;0;Germany;0;0;0;SCHMALKALDEN;14.259;15
02/04/17 00:00;DEZ2779;Eurdep;air;50.41;10.73;0;Germany;0;0;0;HILDBURGHAUSEN;10.295;10
02/04/17 00:00;DEZ2782;Eurdep;air;50.78;11.39;0;Germany;0;0;0;NEUSITZ;12.205;13
02/04/17 00:00;DEZ2783;Eurdep;air;50.66;11.1;0;Germany;0;0;0;KÖNIGSEE;11.477;11
02/04/17 00:00;DEZ2785;Eurdep;air;50.86;11.87;0;Germany;0;0;0;REICHENBACH;9.672;11
30/03/17 22:00;DEZ2786;Eurdep;air;50.46;11.53;0;Germany;0;0;0;WURZBACH;0;0
02/04/17 00:00;DEZ2789;Eurdep;air;54.11;8.94;0;Germany;0;0;0;NORDERMELDORF;7.281999999999999;8.940000000000001
30/03/17 22:00;DEZ2790;Eurdep;air;53.73;10.72;0;Germany;0;0;0;KLEIN DISNACK;0;0
02/04/17 00:00;DEZ2791;Eurdep;air;54.43;9.2;0;Germany;0;0;0;WINNERT;6.965999999999999;8.22
02/04/17 00:00;DEZ2792;Eurdep;air;54.81;8.71;0;Germany;0;0;0;EMMELSBÜLL;7.936;8.28
02/04/17 00:00;DEZ2793;Eurdep;air;54.21;9.92;0;Germany;0;0;0;LANGWEDEL;7.767;8.57
02/04/17 00:00;DEZ2794;Eurdep;air;54.13;9.56;0;Germany;0;0;0;TODENBÜTTEL;7.525;8.52
02/04/17 00:00;DEZ2795;Eurdep;air;54.44;9.43;0;Germany;0;0;0;GROß RHEIDE;6.677;8.15
02/04/17 00:00;DEZ2797;Eurdep;air;53.97;9.97;0;Germany;0;0;0;GROßENASPE;7.162999999999999;11
02/04/17 00:00;DEZ2798;Eurdep;air;54.04;10.22;0;Germany;0;0;0;TRAPPENKAMP;7.590000000000001;8.02
02/04/17 00:00;DEZ2799;Eurdep;air;52.15;10.33;0;Germany;0;0;0;SALZGITTER-LEBENSTEDT;10.221;11
02/04/17 00:00;DEZ2804;Eurdep;air;53.25;8.82;0;Germany;0;0;0;OSTERH.-SCHARMB. OT PENNIGBÜTTEL;6.279999999999999;6
02/04/17 00:00;DEZ2805;Eurdep;air;53.46;7.83;0;Germany;0;0;0;FRIEDEBURG;5.758;6.790000000000001
02/04/17 00:00;DEZ2806;Eurdep;air;53.05;8.8;0;Germany;0;0;0;BREMEN-NEUENLANDE;6.809;7.15
02/04/17 00:00;DEZ2807;Eurdep;air;50.8;6.4;0;Germany;0;0;0;LANGERWEHE-SCHLICH;9.543000000000001;10
02/04/17 00:00;DEZ2808;Eurdep;air;50.97;6.28;0;Germany;0;0;0;LINNICH;9.428;10
30/03/17 22:00;DEZ2809;Eurdep;air;50.87;6.47;0;Germany;0;0;0;NIEDERZIER;0;0
02/04/17 00:00;DEZ2810;Eurdep;air;50.91;6.68;0;Germany;0;0;0;KERPEN-SINDORF;9.528;10
02/04/17 00:00;DEZ2812;Eurdep;air;50.96;7.55;0;Germany;0;0;0;WIEHL;10.677;11
02/04/17 00:00;DEZ2813;Eurdep;air;52.04;7.1;0;Germany;0;0;0;LEGDEN;6.5489999999999995;6.720000000000001
