date;id_station;id_network;type;latitude;longitude;altitude;country;area_adm_1;area_adm_2;area_adm_3;name;value;value_max
11/05/17 00:00;DEZ0001;Eurdep;air;54.78;9.38;38.9;Germany;Schleswig-Holstein;;Flensburgo;FLENSBURG;7.6;8.0
11/05/17 00:00;DEZ0005;Eurdep;air;54.02;9.05;-2.7;Germany;Schleswig-Holstein;;Barlt;BARLT;8.1;8.4
11/05/17 00:00;DEZ0008;Eurdep;air;54.17;9.33;31.2;Germany;Schleswig-Holstein;;Bunsoh;BUNSOH;6.8;7.1
11/05/17 00:00;DEZ0012;Eurdep;air;54.19;9.15;3.7;Germany;Schleswig-Holstein;;Heide;HEIDE;6.7;6.9
11/05/17 00:00;DEZ0013;Eurdep;air;54.35;9.02;0.9;Germany;Schleswig-Holstein;;Lehe;LEHE;7.2;7.5
11/05/17 00:00;DEZ0017;Eurdep;air;54.21;8.92;1.3;Germany;Schleswig-Holstein;;Wesselburen;WESSELBUREN;7.4;7.0
11/05/17 00:00;DEZ0032;Eurdep;air;53.39;10.49;37.7;Germany;Schleswig-Holstein;;Schnakenbek;SCHNAKENBEK;7.1;7.6
11/05/17 00:00;DEZ0034;Eurdep;air;53.44;10.45;44.0;Germany;Schleswig-Holstein;;Wiershop;WIERSHOP;8.6;8.8
11/05/17 00:00;DEZ0038;Eurdep;air;54.77;8.29;3.0;Germany;Schleswig-Holstein;;Hörnum;HÖRNUM / SYLT;5.0;5.1
11/05/17 00:00;DEZ0044;Eurdep;air;54.65;8.35;15.4;Germany;Schleswig-Holstein;;Nebel;NEBEL / AMRUM;6.4;6.6
10/05/17 23:00;DEZ0055;Eurdep;air;54.86;9.01;10.0;Germany;Schleswig-Holstein;;Westre;WESTRE;6.2;6.4
11/05/17 00:00;DEZ0057;Eurdep;air;54.5;11.24;0.0;Germany;;;;MARIENLEUCHTE / FEHMARN;8.8;9.1
11/05/17 00:00;DEZ0059;Eurdep;air;54.2;11.09;6.2;Germany;Schleswig-Holstein;;Dahme;DAHME;7.8;8.1
11/05/17 00:00;DEZ0060;Eurdep;air;54.15;10.6;48.6;Germany;Schleswig-Holstein;;Eutin;EUTIN;7.9;8.2
11/05/17 00:00;DEZ0062;Eurdep;air;54.38;10.95;2.5;Germany;Schleswig-Holstein;;Heiligenhafen;HEILIGENHAFEN;8.5;8.7
11/05/17 00:00;DEZ0068;Eurdep;air;53.9;10.66;20.5;Germany;Schleswig-Holstein;;Stockelsdorf;STOCKELSDORF;7.0;7.3
11/05/17 00:00;DEZ0072;Eurdep;air;53.86;9.74;8.8;Germany;Schleswig-Holstein;;Bokel;BOKEL;6.3;6.6
11/05/17 00:00;DEZ0074;Eurdep;air;54.17;7.89;0.5;Germany;;;;HELGOLAND / UNTERLAND;7.8;8.1
11/05/17 00:00;DEZ0080;Eurdep;air;54.3;10.23;23.2;Germany;Schleswig-Holstein;;Schwentinental;KLAUSDORF;7.7;7.8
11/05/17 00:00;DEZ0082;Eurdep;air;54.18;10.2;35.0;Germany;Schleswig-Holstein;;Nettelsee;NETTELSEE;7.1;7.0
11/05/17 00:00;DEZ0083;Eurdep;air;54.16;10.45;44.3;Germany;Schleswig-Holstein;;Plön;PLÖN;8.0;8.2
11/05/17 00:00;DEZ0086;Eurdep;air;54.29;10.42;57.4;Germany;Schleswig-Holstein;;Selent;SELENT;8.2;8.0
11/05/17 00:00;DEZ0087;Eurdep;air;54.44;9.7;6.6;Germany;Schleswig-Holstein;;Ascheffel;ASCHEFFEL;7.9;8.2
11/05/17 00:00;DEZ0091;Eurdep;air;54.47;9.87;0.0;Germany;;;;ECKERNFÖRDE;6.9;7.2
11/05/17 00:00;DEZ0092;Eurdep;air;54.4;9.97;18.5;Germany;Schleswig-Holstein;;Gettorf;GETTORF;7.7;8.1
08/05/17 22:00;DEZ0095;Eurdep;air;54.21;9.71;16.5;Germany;Schleswig-Holstein;;Jevenstedt;JEVENSTEDT-OT NIENKATTBEK;0.0;0.0
11/05/17 00:00;DEZ0097;Eurdep;air;54.27;10.08;20.8;Germany;Schleswig-Holstein;;Molfsee;MOLFSEE;8.7;9.1
11/05/17 00:00;DEZ0102;Eurdep;air;54.08;9.9;19.0;Germany;Schleswig-Holstein;;Wasbek;WASBEK;6.3;6.6
11/05/17 00:00;DEZ0104;Eurdep;air;54.31;9.3;8.0;Germany;Schleswig-Holstein;;Erfde;ERFDE;7.0;7.6
11/05/17 00:00;DEZ0107;Eurdep;air;54.65;9.94;3.9;Germany;Schleswig-Holstein;;Kappeln;KAPPELN;7.7;8.0
11/05/17 00:00;DEZ0111;Eurdep;air;54.53;9.55;37.5;Germany;Schleswig-Holstein;;Schleswig;SCHLESWIG;8.3;8.6
11/05/17 00:00;DEZ0112;Eurdep;air;54.64;9.76;30.5;Germany;Schleswig-Holstein;;Süderbrarup;SÜDERBRARUP;8.4;8.0
11/05/17 00:00;DEZ0116;Eurdep;air;54.83;9.55;20.1;Germany;Schleswig-Holstein;;Glücksburg;GLÜCKSBURG;8.0;8.1
11/05/17 00:00;DEZ0119;Eurdep;air;54.73;9.74;35.7;Germany;Schleswig-Holstein;;Sterup;STERUP;8.5;9.0
11/05/17 00:00;DEZ0123;Eurdep;air;53.91;10.17;37.2;Germany;Schleswig-Holstein;;Bark;BARK;8.0;8.4
11/05/17 00:00;DEZ0128;Eurdep;air;53.88;9.98;15.5;Germany;Schleswig-Holstein;;Schmalfeld;SCHMALFELD;5.7;5.9
11/05/17 00:00;DEZ0131;Eurdep;air;53.79;10.08;49.4;Germany;Schleswig-Holstein;;Wakendorf II;WAKENDORF II;7.2;7.3
11/05/17 00:00;DEZ0136;Eurdep;air;53.78;9.61;3.7;Germany;Schleswig-Holstein;;Kiebitzreihe;KIEBITZREIHE;5.8;6.1
11/05/17 00:00;DEZ0137;Eurdep;air;53.84;9.49;-1.2;Germany;Schleswig-Holstein;;Krempe;KREMPE;8.2;8.4
11/05/17 00:00;DEZ0139;Eurdep;air;53.94;9.4;-3.9;Germany;Schleswig-Holstein;;Krummendiek;MOORHUSEN;7.7;7.9
11/05/17 00:00;DEZ0140;Eurdep;air;53.92;9.58;0.6;Germany;Schleswig-Holstein;;Oelixdorf;OELIXDORF;7.1;7.3
11/05/17 00:00;DEZ0141;Eurdep;air;53.88;9.26;0.0;Germany;Schleswig-Holstein;;Sankt Margarethen;ST. MARGARETHEN;8.4;8.0
11/05/17 00:00;DEZ0143;Eurdep;air;53.73;9.48;0.0;Germany;0;0.0;0;KOLLMAR;8.3;8.6
11/05/17 00:00;DEZ0145;Eurdep;air;53.61;10.24;56.9;Germany;Schleswig-Holstein;;Braak;BRAAK;8.1;8.3
11/05/17 00:00;DEZ0147;Eurdep;air;53.81;10.44;38.3;Germany;Schleswig-Holstein;;Meddewade;MEDDEWADE;8.7;9.2
11/05/17 00:00;DEZ0151;Eurdep;air;53.53;10.14;26.4;Germany;Hamburgo;;Hamburgo;HAMBURG-BILLSTEDT;7.2;7.4
11/05/17 00:00;DEZ0156;Eurdep;air;53.58;10.11;17.5;Germany;Hamburgo;;Hamburgo;HAMBURG-JENFELD;8.1;8.5
11/05/17 00:00;DEZ0157;Eurdep;air;53.65;10.11;38.1;Germany;Hamburgo;;Hamburgo;HAMBURG-SASEL;6.9;7.4
11/05/17 00:00;DEZ0158;Eurdep;air;53.47;10.19;3.4;Germany;Hamburgo;;Hamburgo;HAMBURG-NETTELNBURG;8.3;8.6
11/05/17 00:00;DEZ0167;Eurdep;air;52.13;10.29;126.7;Germany;Baja Sajonia;;Salzgitter;SALZGITTER-LICHTENBERG;8.8;9.1
11/05/17 00:00;DEZ0169;Eurdep;air;52.47;10.53;55.0;Germany;Baja Sajonia;;Gifhorn;GIFHORN;7.0;7.2
08/05/17 22:00;DEZ0170;Eurdep;air;52.65;10.46;76.1;Germany;Baja Sajonia;;Groß Oesingen;GROß OESINGEN;0.0;0.0
11/05/17 00:00;DEZ0172;Eurdep;air;52.38;10.53;80.5;Germany;Baja Sajonia;;Meine;MEINE;7.5;7.8
11/05/17 00:00;DEZ0173;Eurdep;air;52.48;10.36;50.9;Germany;Baja Sajonia;;Meinersen;MEINERSEN;7.3;7.5
11/05/17 00:00;DEZ0175;Eurdep;air;52.77;10.45;109.8;Germany;Baja Sajonia;;Sprakensehl;SPRAKENSEHL OT HAGEN;6.3;6.6
08/05/17 22:00;DEZ0176;Eurdep;air;52.62;10.59;62.7;Germany;Baja Sajonia;;Wahrenholz;WAHRENHOLZ;0.0;0.0
10/05/17 23:00;DEZ0177;Eurdep;air;52.73;10.73;80.1;Germany;Baja Sajonia;;Wittingen;WITTINGEN;7.3;7.6
08/05/17 22:00;DEZ0178;Eurdep;air;52.62;10.81;90.8;Germany;Baja Sajonia;;Wittingen;WITTINGEN-BOITZENHAGEN;0.0;0.0
11/05/17 00:00;DEZ0180;Eurdep;air;51.5;9.76;304.0;Germany;Baja Sajonia;;Dransfeld;DRANSFELD;10.9;11.0
11/05/17 00:00;DEZ0182;Eurdep;air;51.44;9.93;191.0;Germany;Baja Sajonia;;Friedland;FRIEDLAND-GROß SCHNEEN;11.2;11.0
11/05/17 00:00;DEZ0183;Eurdep;air;51.61;10.21;149.0;Germany;Baja Sajonia;;Gieboldehausen;GIEBOLDEHAUSEN;11.9;12.0
11/05/17 00:00;DEZ0185;Eurdep;air;51.48;10.11;241.5;Germany;Baja Sajonia;;Gleichen;RITTMARSHAUSEN;10.2;10.0
11/05/17 00:00;DEZ0186;Eurdep;air;51.52;9.93;151.2;Germany;Baja Sajonia;;Gotinga;GÖTTINGEN;9.6;10.0
11/05/17 00:00;DEZ0188;Eurdep;air;51.56;10.06;255.9;Germany;Baja Sajonia;;Waake;WAAKE;12.6;13.0
08/05/17 22:00;DEZ0189;Eurdep;air;51.81;10.54;741.3;Germany;Baja Sajonia;;;TORFHAUS;0.0;0.0
11/05/17 00:00;DEZ0191;Eurdep;air;51.72;10.6;594.3;Germany;Baja Sajonia;;Braunlage;BRAUNLAGE;10.2;10.0
11/05/17 00:00;DEZ0195;Eurdep;air;52.02;10.44;129.9;Germany;Baja Sajonia;;Liebenburg;LIEBENBURG;9.3;9.8
08/05/17 22:00;DEZ0197;Eurdep;air;51.95;10.54;148.3;Germany;Baja Sajonia;;Goslar;VIENENBURG;0.0;0.0
11/05/17 00:00;DEZ0201;Eurdep;air;52.25;10.81;135.8;Germany;Baja Sajonia;;Königslutter;KÖNIGSLUTTER;6.7;6.9
11/05/17 00:00;DEZ0205;Eurdep;air;51.88;10.0;0.0;Germany;0;0;0;BAD GANDERSHEIM;10.8;11.0
11/05/17 00:00;DEZ0208;Eurdep;air;51.79;10.06;129.2;Germany;Baja Sajonia;;Kalefeld;ECHTE;10.4;11.0
11/05/17 00:00;DEZ0209;Eurdep;air;51.68;10.1;140.4;Germany;Baja Sajonia;;Katlenburg-Lindau;KATLENBURG-LINDAU;10.3;10.0
08/05/17 22:00;DEZ0210;Eurdep;air;51.73;9.79;255.2;Germany;Baja Sajonia;;Moringen;FREDELSLOH;0.0;0.0
08/05/17 22:00;DEZ0212;Eurdep;air;51.62;9.66;130.9;Germany;Baja Sajonia;;Uslar;USLAR OT SCHONINGEN;0.0;0.0
11/05/17 00:00;DEZ0213;Eurdep;air;51.63;10.47;295.6;Germany;Baja Sajonia;;Bad Lauterberg;BAD LAUTERBERG IM HARZ;10.8;11.0
11/05/17 00:00;DEZ0215;Eurdep;air;51.75;10.21;181.6;Germany;Baja Sajonia;;Osterode am Harz;OSTERODE AM HARZ;9.8;10.0
11/05/17 00:00;DEZ0216;Eurdep;air;51.58;10.61;340.2;Germany;Baja Sajonia;;Walkenried;WALKENRIED;9.8;10.0
29/04/17 22:00;DEZ0218;Eurdep;air;52.27;10.23;79.0;Germany;Baja Sajonia;;Ilsede;GROSS ILSEDE;0.0;0.0
11/05/17 00:00;DEZ0220;Eurdep;air;52.32;10.24;67.5;Germany;Baja Sajonia;;Peine;PEINE;7.9;8.2
08/05/17 22:00;DEZ0222;Eurdep;air;52.32;10.39;67.1;Germany;Baja Sajonia;;Wendeburg;WENDEBURG;0.0;0.0
11/05/17 00:00;DEZ0225;Eurdep;air;52.04;10.6;85.3;Germany;Baja Sajonia;;Cuernavilla;HORNBURG;10.9;11.0
08/05/17 22:00;DEZ0227;Eurdep;air;52.04;10.26;136.3;Germany;Baja Sajonia;;Sehlde;SEHLDE;0.0;0.0
11/05/17 00:00;DEZ0235;Eurdep;air;52.72;8.53;43.9;Germany;Baja Sajonia;;Barnstorf;BARNSTORF;6.3;6.6
11/05/17 00:00;DEZ0236;Eurdep;air;52.85;8.73;46.4;Germany;Baja Sajonia;;Bassum;BASSUM;7.0;7.2
11/05/17 00:00;DEZ0238;Eurdep;air;52.74;8.7;44.2;Germany;Baja Sajonia;;Ehrenburg;EHRENBURG;7.5;7.8
10/05/17 18:00;DEZ0239;Eurdep;air;52.62;8.65;39.2;Germany;Baja Sajonia;;Freistatt;FREISTATT;6.7;7.0
11/05/17 00:00;DEZ0240;Eurdep;air;52.59;8.84;50.1;Germany;Baja Sajonia;;Kirchdorf;KIRCHDORF;6.9;7.3
11/05/17 00:00;DEZ0242;Eurdep;air;52.88;9.06;13.0;Germany;Baja Sajonia;;Martfeld;MARTFELD;6.5;6.9
11/05/17 00:00;DEZ0244;Eurdep;air;52.79;8.84;53.8;Germany;Baja Sajonia;;Sudwalde;SCHWAFÖRDEN-SUDWALDE;8.3;8.8
11/05/17 00:00;DEZ0245;Eurdep;air;52.69;8.82;56.4;Germany;Baja Sajonia;;Sulingen;SULINGEN;6.2;6.6
11/05/17 00:00;DEZ0246;Eurdep;air;52.93;8.82;18.6;Germany;Baja Sajonia;;Syke;SYKE-BARRIEN;7.4;7.6
11/05/17 00:00;DEZ0248;Eurdep;air;52.06;9.33;84.2;Germany;Baja Sajonia;;Aerzen;AERZEN/GR.BERKEL;9.9;10.0
11/05/17 00:00;DEZ0250;Eurdep;air;51.97;9.3;298.1;Germany;Baja Sajonia;;Bad Pyrmont;BAD PYRMONT;9.0;9.3
11/05/17 00:00;DEZ0251;Eurdep;air;52.11;9.55;147.3;Germany;Baja Sajonia;;Coppenbrügge;COPPENBRÜGGE;9.2;9.6
11/05/17 00:00;DEZ0253;Eurdep;air;52.15;9.39;165.7;Germany;Baja Sajonia;;Hamelín;UNSEN - HAMELN;8.8;9.0
10/05/17 18:00;DEZ0254;Eurdep;air;52.17;9.24;62.3;Germany;Baja Sajonia;;Hessisch Oldendorf;HESSISCH-OLDENDORF;9.0;9.2
11/05/17 00:00;DEZ0255;Eurdep;air;52.07;9.58;136.2;Germany;Baja Sajonia;;Salzhemmendorf;SALZHEMMENDORF;9.4;9.7
11/05/17 00:00;DEZ0256;Eurdep;air;52.45;10.0;0.0;Germany;0;0;0;BURGDORF;7.8;8.0
11/05/17 00:00;DEZ0258;Eurdep;air;52.46;9.6;51.1;Germany;Baja Sajonia;;Garbsen;OSTERWALD/STADT GARBSEN;6.8;7.0
11/05/17 00:00;DEZ0259;Eurdep;air;52.3;9.6;121.4;Germany;Baja Sajonia;;Gehrden;GEHRDEN;8.6;8.9
08/05/17 22:00;DEZ0262;Eurdep;air;52.37;9.97;61.2;Germany;Baja Sajonia;;Lehrte;LEHRTE;0.0;0.0
08/05/17 22:00;DEZ0271;Eurdep;air;52.42;9.43;45.4;Germany;Baja Sajonia;;Wunstorf;WUNSTORF;0.0;0.0
08/05/17 22:00;DEZ0272;Eurdep;air;51.95;9.84;117.0;Germany;Baja Sajonia;;Alfeld;ALFELD-WISPENSTEIN;0.0;0.0
11/05/17 00:00;DEZ0274;Eurdep;air;52.13;9.73;81.9;Germany;Baja Sajonia;;Elze;ELZE;10.0;10.0
11/05/17 00:00;DEZ0278;Eurdep;air;52.15;10.09;124.1;Germany;Baja Sajonia;;Schellerten;OTTBERGEN;8.6;8.8
08/05/17 22:00;DEZ0279;Eurdep;air;52.05;9.9;191.4;Germany;Baja Sajonia;;Sibbesse;SIBBESSE;0.0;0.0
09/05/17 22:00;DEZ0281;Eurdep;air;52.01;9.7;230.2;Germany;Baja Sajonia;;Duingen;DUINGEN;0.0;0.0
11/05/17 00:00;DEZ0284;Eurdep;air;51.84;9.44;86.9;Germany;Baja Sajonia;;Holzminden;HOLZMINDEN;9.9;10.0
11/05/17 00:00;DEZ0285;Eurdep;air;51.75;9.52;350.1;Germany;Baja Sajonia;;Holzminden;NEUHAUS - HOLZMINDEN;9.5;9.9
11/05/17 00:00;DEZ0286;Eurdep;air;51.95;9.41;284.4;Germany;Baja Sajonia;;Ottenstein;OTTENSTEIN;9.7;9.9
11/05/17 00:00;DEZ0287;Eurdep;air;51.89;9.63;224.4;Germany;Baja Sajonia;;Stadtoldendorf;STADTOLDENDORF;8.8;9.0
11/05/17 00:00;DEZ0290;Eurdep;air;52.6;9.09;39.0;Germany;Baja Sajonia;;Liebenau;LIEBENAU;6.7;7.0
11/05/17 00:00;DEZ0292;Eurdep;air;52.47;9.23;37.8;Germany;Baja Sajonia;;Rehburg-Loccum;REHBURG-LOCCUM;7.7;7.0
11/05/17 00:00;DEZ0297;Eurdep;air;52.23;9.24;175.8;Germany;Baja Sajonia;;Auetal;REHREN-AUETAL;8.6;9.0
08/05/17 22:00;DEZ0298;Eurdep;air;52.26;9.03;78.8;Germany;Baja Sajonia;;Bückeburg;BÜCKEBURG;0.0;0.0
11/05/17 00:00;DEZ0302;Eurdep;air;52.61;10.29;57.0;Germany;Baja Sajonia;;Ahnsbeck;AHNSBECK;8.0;8.4
11/05/17 00:00;DEZ0303;Eurdep;air;52.82;9.97;71.0;Germany;Baja Sajonia;;Bergen;BERGEN;7.5;7.8
11/05/17 00:00;DEZ0305;Eurdep;air;52.74;10.24;74.2;Germany;Baja Sajonia;;Eschede;ESCHEDE;6.8;7.0
11/05/17 00:00;DEZ0309;Eurdep;air;52.65;9.86;34.5;Germany;Baja Sajonia;;Wietze;WIETZE;6.3;6.7
11/05/17 00:00;DEZ0310;Eurdep;air;52.73;9.85;41.2;Germany;Baja Sajonia;;Winsen an der Aller;MEIßENDORF;6.2;6.6
11/05/17 00:00;DEZ0317;Eurdep;air;53.69;8.56;1.1;Germany;Baja Sajonia;;Wurster Nordseeküste;DORUM;8.3;8.8
11/05/17 00:00;DEZ0320;Eurdep;air;53.63;9.1;22.2;Germany;Baja Sajonia;;Lamstedt;LAMSTEDT;6.9;7.2
11/05/17 00:00;DEZ0321;Eurdep;air;53.45;8.63;-2.8;Germany;Baja Sajonia;;Loxstedt;LOXSTEDT-NESSE;6.8;7.0
11/05/17 00:00;DEZ0324;Eurdep;air;53.81;8.9;2.5;Germany;Baja Sajonia;;Otterndorf;OTTERNDORF;8.1;8.4
11/05/17 00:00;DEZ0325;Eurdep;air;53.51;8.81;11.8;Germany;Baja Sajonia;;Schiffdorf;WEHDEL;6.7;7.0
11/05/17 00:00;DEZ0326;Eurdep;air;53.74;8.8;-3.0;Germany;Baja Sajonia;;Wanna;WANNA;6.6;6.8
11/05/17 00:00;DEZ0327;Eurdep;air;53.64;8.57;-1.8;Germany;Baja Sajonia;;Wurster Nordseeküste;WREMEN;8.3;8.6
11/05/17 00:00;DEZ0328;Eurdep;air;53.3;10.05;48.1;Germany;Baja Sajonia;;Brackel;HANSTEDT/BRACKEL;7.3;7.6
11/05/17 00:00;DEZ0330;Eurdep;air;53.43;10.31;6.8;Germany;Baja Sajonia;;Drage;DRAGE;7.4;7.6
11/05/17 00:00;DEZ0331;Eurdep;air;53.25;9.83;70.4;Germany;Baja Sajonia;;Handeloh;HANDELOH;7.2;7.5
11/05/17 00:00;DEZ0332;Eurdep;air;53.2;10.05;103.2;Germany;Baja Sajonia;;Egestorf;EGESTORF-SG HANSTEDT;6.4;6.7
11/05/17 00:00;DEZ0335;Eurdep;air;53.4;10.41;5.7;Germany;Baja Sajonia;;Tespe;TESPE;7.2;7.6
11/05/17 00:00;DEZ0336;Eurdep;air;53.36;10.2;0.0;Germany;0;0.0;0;WINSEN (LUHE);7.4;7.7
11/05/17 00:00;DEZ0341;Eurdep;air;53.14;11.04;24.0;Germany;Baja Sajonia;;Hitzacker;HITZACKER;8.6;8.0
11/05/17 00:00;DEZ0342;Eurdep;air;53.07;11.44;74.9;Germany;Baja Sajonia;;Höhbeck;HÖHBECK;6.2;6.5
11/05/17 00:00;DEZ0343;Eurdep;air;52.98;11.07;25.0;Germany;Baja Sajonia;;Küsten;KÜSTEN;7.3;7.6
11/05/17 00:00;DEZ0344;Eurdep;air;52.92;11.28;21.3;Germany;Baja Sajonia;;Lemgow;SCHWESKAU;7.0;7.3
11/05/17 00:00;DEZ0346;Eurdep;air;53.24;10.87;13.1;Germany;Baja Sajonia;;Neu Darchau;KATEMIN;6.9;7.2
11/05/17 00:00;DEZ0347;Eurdep;air;52.88;10.89;43.8;Germany;Baja Sajonia;;Schnega;SCHNEGA;7.0;7.3
11/05/17 00:00;DEZ0348;Eurdep;air;53.0;11.32;0.0;Germany;0;0;0;TREBEL;6.5;6.8
11/05/17 00:00;DEZ0349;Eurdep;air;53.07;10.88;82.6;Germany;Baja Sajonia;;Zernien;ZERNIEN;6.4;6.6
08/05/17 22:00;DEZ0352;Eurdep;air;53.18;10.75;37.4;Germany;Baja Sajonia;;Dahlenburg;DAHLENBURG;0.0;0.0
11/05/17 00:00;DEZ0357;Eurdep;air;53.1;10.22;58.6;Germany;Baja Sajonia;;Rehlingen;REHLINGEN;6.5;6.7
11/05/17 00:00;DEZ0362;Eurdep;air;53.5;9.17;0.0;Germany;0;0.0;0;BREMERVÖRDE;5.0;6.2
11/05/17 00:00;DEZ0363;Eurdep;air;53.17;9.67;44.5;Germany;Baja Sajonia;;Fintel;FINTEL;7.0;7.3
11/05/17 00:00;DEZ0365;Eurdep;air;53.5;8.97;15.5;Germany;Baja Sajonia;;Hipstedt;HIPSTEDT;6.2;6.3
11/05/17 00:00;DEZ0366;Eurdep;air;53.02;9.39;59.0;Germany;Baja Sajonia;;Kirchwalsede;KIRCHWALSEDE;7.4;7.6
11/05/17 00:00;DEZ0367;Eurdep;air;53.11;9.4;19.7;Germany;Baja Sajonia;;Rotemburgo del Wumme;ROTENBURG;6.2;6.4
08/05/17 22:00;DEZ0372;Eurdep;air;52.99;9.58;64.5;Germany;Baja Sajonia;;Visselhövede;VISSELHÖVEDE;0.0;0.0
11/05/17 00:00;DEZ0374;Eurdep;air;53.11;10.08;57.1;Germany;Baja Sajonia;;Bispingen;STEINBECK;6.0;6.2
11/05/17 00:00;DEZ0381;Eurdep;air;53.12;9.8;102.1;Germany;Baja Sajonia;;Schneverdingen;SCHNEVERDINGEN;7.7;8.0
08/05/17 22:00;DEZ0383;Eurdep;air;52.9;9.46;37.8;Germany;Baja Sajonia;;Walsrode;WALSRODE OT HAMWIEDE;0.0;0.0
11/05/17 00:00;DEZ0384;Eurdep;air;52.92;9.97;66.4;Germany;Baja Sajonia;;Wietzendorf;WIETZENDORF;6.0;6.2
11/05/17 00:00;DEZ0385;Eurdep;air;53.83;9.13;1.6;Germany;Baja Sajonia;;Balje;BALJE / STADE;7.6;7.8
11/05/17 00:00;DEZ0387;Eurdep;air;53.69;9.43;0.0;Germany;Baja Sajonia;;Drochtersen;DROCHTERSEN-ASSEL;7.8;8.0
11/05/17 00:00;DEZ0388;Eurdep;air;53.52;9.4;19.9;Germany;Baja Sajonia;;Fredenbeck;FREDENBECK;7.3;7.5
11/05/17 00:00;DEZ0390;Eurdep;air;53.63;9.32;2.4;Germany;Baja Sajonia;;Himmelpforten;HIMMELPFORTEN;6.9;7.3
11/05/17 00:00;DEZ0391;Eurdep;air;53.59;9.55;0.0;Germany;Baja Sajonia;;Hollern-Twielenfleth;HOLLERN-TWIELENFLETH;7.9;8.2
11/05/17 00:00;DEZ0392;Eurdep;air;53.45;9.51;28.2;Germany;Baja Sajonia;;Harsefeld;HARSEFELD;7.5;7.7
11/05/17 00:00;DEZ0394;Eurdep;air;53.62;9.53;6.7;Germany;Baja Sajonia;;Stade;STADE KKW;7.7;8.0
11/05/17 00:00;DEZ0396;Eurdep;air;53.77;9.32;0.2;Germany;Baja Sajonia;;Wischhafen;WISCHHAFEN;7.3;7.7
11/05/17 00:00;DEZ0397;Eurdep;air;53.09;10.57;24.5;Germany;Baja Sajonia;;Bad Bevensen;BAD BEVENSEN OT MEDINGEN;7.0;7.3
11/05/17 00:00;DEZ0398;Eurdep;air;53.15;10.49;20.5;Germany;Baja Sajonia;;Bienenbüttel;BIENENBÜTTEL;7.3;7.7
11/05/17 00:00;DEZ0401;Eurdep;air;53.05;10.38;70.8;Germany;Baja Sajonia;;Hanstedt;HANSTEDT 1;6.2;6.0
11/05/17 00:00;DEZ0402;Eurdep;air;52.8;10.76;71.9;Germany;Baja Sajonia;;Lüder;LÜDER/LANGENBRÜGGE;6.8;7.2
11/05/17 00:00;DEZ0407;Eurdep;air;53.05;9.04;16.3;Germany;Baja Sajonia;;Oyten;OYTEN;7.3;7.6
11/05/17 00:00;DEZ0410;Eurdep;air;53.04;8.59;23.2;Germany;Baja Sajonia;;Delmenhorst;DELMENHORST;7.0;7.0
11/05/17 00:00;DEZ0411;Eurdep;air;53.36;7.16;1.0;Germany;Baja Sajonia;;Emden;EMDEN / LARRELT;7.9;8.2
11/05/17 00:00;DEZ0413;Eurdep;air;53.14;8.24;2.7;Germany;Baja Sajonia;;Oldemburgo;OLDENBURG;6.3;6.0
08/05/17 22:00;DEZ0414;Eurdep;air;52.26;8.11;70.0;Germany;Baja Sajonia;;Osnabrück;OSNABRÜCK-DÜSTRUP;0.0;0.0
11/05/17 00:00;DEZ0416;Eurdep;air;53.6;8.05;-1.0;Germany;Baja Sajonia;;Wilhelmshaven;WILHELMSHAVEN-SENGWARDEN;7.6;8.0
11/05/17 00:00;DEZ0418;Eurdep;air;53.25;7.94;7.8;Germany;Baja Sajonia;;Westerstede;WESTERSTEDE;6.3;6.0
11/05/17 00:00;DEZ0420;Eurdep;air;53.47;7.5;6.3;Germany;Baja Sajonia;;Aurich;AURICH;6.6;6.9
11/05/17 00:00;DEZ0421;Eurdep;air;53.54;7.62;5.7;Germany;Baja Sajonia;;Aurich;AURICH-MIDDELS;6.2;6.3
11/05/17 00:00;DEZ0422;Eurdep;air;53.73;7.37;2.4;Germany;Baja Sajonia;;Baltrum;BALTRUM;7.7;7.9
11/05/17 00:00;DEZ0424;Eurdep;air;53.35;7.61;6.6;Germany;Baja Sajonia;;Großefehn;GROßEFEHN-BAGBAND;6.5;6.8
11/05/17 00:00;DEZ0425;Eurdep;air;53.67;7.28;-1.6;Germany;Baja Sajonia;;Hagermarsch;HAGERMARSCH AS HILGENRIEDERSIEL;7.6;7.9
11/05/17 00:00;DEZ0427;Eurdep;air;53.5;7.1;-1.0;Germany;Baja Sajonia;;Krummhörn;KRUMMHÖRN-GREETSIEL;7.0;7.4
11/05/17 00:00;DEZ0428;Eurdep;air;53.41;7.02;-1.6;Germany;Baja Sajonia;;Krummhörn;KRUMMHÖRN-CAMPEN;8.2;8.6
11/05/17 00:00;DEZ0429;Eurdep;air;53.5;7.3;-2.0;Germany;Baja Sajonia;;Upgant-Schott;MARIENHAFE/SIEGELSUM;6.5;6.7
11/05/17 00:00;DEZ0433;Eurdep;air;53.71;7.15;6.0;Germany;Baja Sajonia;;Norderney;NORDERNEY;6.3;6.5
11/05/17 00:00;DEZ0434;Eurdep;air;53.17;7.74;2.0;Germany;Baja Sajonia;;Barßel;BARßEL-BARßELERMOOR;7.0;7.0
11/05/17 00:00;DEZ0435;Eurdep;air;52.84;8.01;42.0;Germany;Baja Sajonia;;Cloppenburg;CLOPPENBURG;6.7;7.0
11/05/17 00:00;DEZ0438;Eurdep;air;52.92;7.89;38.6;Germany;Baja Sajonia;;Friesoythe;Friesoythe-Augustendorf;6.1;6.4
08/05/17 22:00;DEZ0439;Eurdep;air;52.96;8.03;18.3;Germany;Baja Sajonia;;Garrel;GARREL;0.0;0.0
11/05/17 00:00;DEZ0441;Eurdep;air;52.6;7.4;21.3;Germany;Baja Sajonia;;Bawinkel;BAWINKEL;5.9;6.1
11/05/17 00:00;DEZ0442;Eurdep;air;52.43;7.51;33.0;Germany;Baja Sajonia;;Beesten;BEESTEN;6.3;6.5
11/05/17 00:00;DEZ0446;Eurdep;air;52.45;7.31;27.8;Germany;Baja Sajonia;;Emsbüren;ELBERGEN-EMSBÜREN;6.6;6.9
11/05/17 00:00;DEZ0448;Eurdep;air;52.84;7.1;13.2;Germany;Baja Sajonia;;Haren;HAREN/EMS OT RÜTENBROCK;6.1;6.5
11/05/17 00:00;DEZ0449;Eurdep;air;52.68;7.6;21.2;Germany;Baja Sajonia;;Herzlake;HERZLAKE;6.6;6.9
11/05/17 00:00;DEZ0450;Eurdep;air;52.77;7.46;33.1;Germany;Baja Sajonia;;Klein Berßen;KLEIN BERßEN;7.2;7.4
11/05/17 00:00;DEZ0451;Eurdep;air;52.87;7.33;14.6;Germany;Baja Sajonia;;Lathen;LATHEN;6.5;6.0
08/05/17 22:00;DEZ0453;Eurdep;air;52.56;7.53;29.6;Germany;Baja Sajonia;;Lengerich;LENGERICH;0.0;0.0
11/05/17 00:00;DEZ0455;Eurdep;air;52.46;7.37;28.4;Germany;Baja Sajonia;;Lingen;LINGEN-BRAMSCHE;7.6;7.9
11/05/17 00:00;DEZ0456;Eurdep;air;52.51;7.29;28.9;Germany;Baja Sajonia;;Lingen;LINGEN-SCHEPSDORF;5.6;5.9
11/05/17 00:00;DEZ0458;Eurdep;air;53.0;7.4;0.0;Germany;0;0;0;NEULEHE;6.8;7.0
11/05/17 00:00;DEZ0467;Eurdep;air;53.79;7.91;4.1;Germany;Baja Sajonia;;Wangerooge;WANGEROOGE;6.3;6.6
11/05/17 00:00;DEZ0469;Eurdep;air;53.38;7.96;10.7;Germany;Baja Sajonia;;Zetel;ZETEL-NEUENBURG;7.1;7.4
08/05/17 22:00;DEZ0470;Eurdep;air;52.32;7.17;54.0;Germany;Baja Sajonia;;Bad Bentheim;BAD BENTHEIM;0.0;0.0
11/05/17 00:00;DEZ0474;Eurdep;air;52.57;7.08;20.2;Germany;Baja Sajonia;;Georgsdorf;GEORGSDORF;6.2;6.6
11/05/17 00:00;DEZ0478;Eurdep;air;52.46;7.18;25.0;Germany;Baja Sajonia;;Wietmarschen;NORDHORN-KLAUSHEIDE;6.7;7.0
11/05/17 00:00;DEZ0479;Eurdep;air;52.47;7.02;16.0;Germany;Baja Sajonia;;Nordhorn;NORDHORN-FRENSWEGEN;6.0;6.3
08/05/17 22:00;DEZ0482;Eurdep;air;53.6;6.7;4.7;Germany;Baja Sajonia;;Borkum;BORKUM;0.0;0.0
11/05/17 00:00;DEZ0487;Eurdep;air;53.33;7.34;2.6;Germany;Baja Sajonia;;Moormerland;MOORMERLAND-OLDERSUM;7.1;7.4
11/05/17 00:00;DEZ0490;Eurdep;air;53.13;7.23;-2.9;Germany;Baja Sajonia;;Bunde;WYMEER;5.3;5.4
11/05/17 00:00;DEZ0491;Eurdep;air;52.96;8.63;35.0;Germany;Baja Sajonia;;Groß Ippener;GROß IPPENER;6.6;6.8
08/05/17 22:00;DEZ0492;Eurdep;air;52.94;8.26;39.7;Germany;Baja Sajonia;;Großenkneten;GROßENKNETEN;0.0;0.0
11/05/17 00:00;DEZ0493;Eurdep;air;53.02;8.35;31.7;Germany;Baja Sajonia;;Hatten;KIRCHHATTEN;6.3;6.4
08/05/17 22:00;DEZ0494;Eurdep;air;53.11;8.46;12.4;Germany;Baja Sajonia;;Hude;HUDE;0.0;0.0
11/05/17 00:00;DEZ0495;Eurdep;air;53.06;8.21;4.7;Germany;Baja Sajonia;;Wardenburg;WARDENBURG;6.8;7.1
11/05/17 00:00;DEZ0496;Eurdep;air;52.9;8.43;19.4;Germany;Baja Sajonia;;Wildeshausen;WILDESHAUSEN;7.1;7.4
10/05/17 23:00;DEZ0498;Eurdep;air;52.32;8.34;63.8;Germany;Baja Sajonia;;Bad Essen;BAD ESSEN;8.9;9.2
08/05/17 22:00;DEZ0501;Eurdep;air;52.45;7.96;42.0;Germany;Baja Sajonia;;Bramsche;BRAMSCHE-HESEPE;0.0;0.0
11/05/17 00:00;DEZ0503;Eurdep;air;52.62;7.74;55.8;Germany;Baja Sajonia;;Berge;BERGE;7.6;7.8
11/05/17 00:00;DEZ0505;Eurdep;air;52.38;8.2;47.2;Germany;Baja Sajonia;;Ostercappeln;OSTERCAPPELN-SCHWAGSTORF;7.5;7.8
11/05/17 00:00;DEZ0506;Eurdep;air;52.67;7.94;27.5;Germany;Baja Sajonia;;Quakenbrück;QUAKENBRÜCK;7.2;8.2
11/05/17 00:00;DEZ0510;Eurdep;air;52.71;8.29;47.0;Germany;Baja Sajonia;;Vechta;VECHTA;7.6;7.8
11/05/17 00:00;DEZ0511;Eurdep;air;53.33;8.48;3.9;Germany;Baja Sajonia;;Brake;BRAKE-UNTERWESER;8.1;8.3
11/05/17 00:00;DEZ0512;Eurdep;air;53.57;8.36;-1.0;Germany;Baja Sajonia;;Butjadingen;BUTJADINGEN-BURHAVE;8.4;8.6
11/05/17 00:00;DEZ0514;Eurdep;air;53.25;8.47;6.5;Germany;Baja Sajonia;;Elsfleth;ELSFLETH-LIENEN;8.3;8.6
11/05/17 00:00;DEZ0515;Eurdep;air;53.34;8.19;0.3;Germany;Baja Sajonia;;Jade;JADE-JADERBERG;6.5;6.7
11/05/17 00:00;DEZ0516;Eurdep;air;53.48;8.47;0.3;Germany;Baja Sajonia;;Nordenham;NORDENHAM;7.1;7.3
11/05/17 00:00;DEZ0518;Eurdep;air;53.27;8.32;-1.3;Germany;Baja Sajonia;;Ovelgönne;OVELGÖNNE-GROßENMEER;7.4;7.6
11/05/17 00:00;DEZ0519;Eurdep;air;53.46;8.36;0.9;Germany;Baja Sajonia;;Stadland;STADLAND-SEEFELD;8.1;8.4
11/05/17 00:00;DEZ0521;Eurdep;air;53.65;7.61;2.1;Germany;Baja Sajonia;;Esens;ESENS;6.0;6.4
11/05/17 00:00;DEZ0525;Eurdep;air;53.77;7.69;3.2;Germany;Baja Sajonia;;Spiekeroog;SPIEKEROOG;6.4;6.6
11/05/17 00:00;DEZ0531;Eurdep;air;53.6;8.53;5.3;Germany;Bremen;;Bremerhaven;BREMERHAVEN-WEDDEWARDEN;8.0;8.0
11/05/17 00:00;DEZ0532;Eurdep;air;53.5;8.57;-2.9;Germany;Baja Sajonia;;Bremerhaven;BREMERHAVEN-LUNEPLATE;6.3;6.5
11/05/17 00:00;DEZ0533;Eurdep;air;53.55;8.6;0.8;Germany;Bremen;;Bremerhaven;BREMERHAVEN-GEESTEMÜNDE;6.6;6.7
11/05/17 00:00;DEZ0540;Eurdep;air;51.3;6.54;44.1;Germany;Renania del Norte-Westfalia;Región de Düsseldorf;Krefeld;KREFELD-FISCHELN;8.3;8.6
11/05/17 00:00;DEZ0541;Eurdep;air;51.18;6.4;80.3;Germany;Renania del Norte-Westfalia;Región de Düsseldorf;Mönchengladbach;MÖNCHENGLADBACH;8.2;8.6
11/05/17 00:00;DEZ0543;Eurdep;air;51.19;7.27;303.9;Germany;Renania del Norte-Westfalia;Región de Düsseldorf;Remscheid;REMSCHEID-LENNEP;10.2;10.0
11/05/17 00:00;DEZ0545;Eurdep;air;51.3;7.2;269.6;Germany;Renania del Norte-Westfalia;Arnsberg;Sprockhövel;WUPPERTAL-BARMEN;9.7;9.9
11/05/17 00:00;DEZ0553;Eurdep;air;51.59;6.21;22.4;Germany;Renania del Norte-Westfalia;Región de Düsseldorf;Kevelaer;KEVELAER;7.3;7.5
08/05/17 22:00;DEZ0560;Eurdep;air;51.28;7.03;180.5;Germany;Renania del Norte-Westfalia;Región de Düsseldorf;Wülfrath;WÜLFRATH;0.0;0.0
11/05/17 00:00;DEZ0562;Eurdep;air;51.1;6.56;0.0;Germany;0;0;0;GREVENBROICH-FÜRTH;10.2;10.0
11/05/17 00:00;DEZ0566;Eurdep;air;51.24;6.18;39.4;Germany;Renania del Norte-Westfalia;Región de Düsseldorf;Brüggen;BRÜGGEN;7.2;7.6
08/05/17 22:00;DEZ0567;Eurdep;air;51.34;6.33;38.0;Germany;Renania del Norte-Westfalia;Región de Düsseldorf;Grefrath;GREFRATH;0.0;0.0
11/05/17 00:00;DEZ0572;Eurdep;air;51.73;6.73;31.7;Germany;Renania del Norte-Westfalia;Región de Düsseldorf;Hamminkeln;HAMMINKELN-MARIENTHAL;7.0;7.3
11/05/17 00:00;DEZ0582;Eurdep;air;50.99;6.95;44.7;Germany;Renania del Norte-Westfalia;Región de Colonia;Colonia;KÖLN-WEIDENPESCH;9.1;9.6
11/05/17 00:00;DEZ0585;Eurdep;air;50.6;6.29;544.9;Germany;Renania del Norte-Westfalia;Región de Colonia;Simmerath;SIMMERATH;9.5;9.9
11/05/17 00:00;DEZ0588;Eurdep;air;50.92;6.33;78.3;Germany;Renania del Norte-Westfalia;Región de Colonia;Jülich;JÜLICH-KOSLAR;10.1;10.0
11/05/17 00:00;DEZ0589;Eurdep;air;50.96;6.43;96.4;Germany;Renania del Norte-Westfalia;Región de Colonia;Jülich;JÜLICH-GÜSTEN;9.8;10.0
11/05/17 00:00;DEZ0594;Eurdep;air;51.01;6.43;107.4;Germany;Renania del Norte-Westfalia;Región de Colonia;Titz;TITZ;10.4;10.0
11/05/17 00:00;DEZ0599;Eurdep;air;51.01;6.82;45.7;Germany;Renania del Norte-Westfalia;Región de Colonia;Pulheim;PULHEIM-SINNERSDORF;8.3;8.8
11/05/17 00:00;DEZ0606;Eurdep;air;51.01;6.04;69.3;Germany;Renania del Norte-Westfalia;Región de Colonia;Gangelt;GANGELT-BIRGDEN;8.7;9.2
11/05/17 00:00;DEZ0607;Eurdep;air;51.04;6.13;58.2;Germany;Renania del Norte-Westfalia;Región de Colonia;Heinsberg;HEINSBERG-HÜLHOVEN;9.6;10.0
11/05/17 00:00;DEZ0613;Eurdep;air;51.05;7.26;222.4;Germany;Renania del Norte-Westfalia;Región de Colonia;Kürten;KÜRTEN;9.8;10.0
11/05/17 00:00;DEZ0615;Eurdep;air;50.63;7.22;64.5;Germany;Renania del Norte-Westfalia;Región de Colonia;Bad Honnef;BAD HONNEF;8.3;8.6
11/05/17 00:00;DEZ0616;Eurdep;air;50.78;7.01;59.6;Germany;Renania del Norte-Westfalia;Región de Colonia;Bornheim;BORNHEIM;8.4;8.7
11/05/17 00:00;DEZ0618;Eurdep;air;50.79;7.28;65.4;Germany;Renania del Norte-Westfalia;Región de Colonia;Hennef;HENNEF/SIEG;8.5;8.8
08/05/17 22:00;DEZ0623;Eurdep;air;51.56;7.07;57.4;Germany;Renania del Norte-Westfalia;Münster;Gelsenkirchen;GELSENKIRCHEN;0.0;0.0
11/05/17 00:00;DEZ0624;Eurdep;air;52.0;7.59;0.0;Germany;0;0;0;MÜNSTER-KINDERHAUS;8.3;8.6
11/05/17 00:00;DEZ0627;Eurdep;air;52.13;6.91;40.2;Germany;Renania del Norte-Westfalia;Münster;Ahaus;AHAUS-ALSTÄTTE;6.5;6.6
11/05/17 00:00;DEZ0628;Eurdep;air;52.04;6.93;74.6;Germany;Renania del Norte-Westfalia;Münster;Stadtlohn;AHAUS-OTTENSTEIN;6.9;7.3
11/05/17 00:00;DEZ0632;Eurdep;air;51.83;6.79;37.7;Germany;Renania del Norte-Westfalia;Münster;Borken;BORKEN-RHEDEBRÜGGE;6.5;6.8
11/05/17 00:00;DEZ0633;Eurdep;air;51.95;6.99;62.7;Germany;Renania del Norte-Westfalia;Münster;Gescher;GESCHER;7.2;7.4
11/05/17 00:00;DEZ0634;Eurdep;air;52.2;7.03;37.6;Germany;Renania del Norte-Westfalia;Münster;Gronau;GRONAU;7.0;7.3
10/05/17 23:00;DEZ0635;Eurdep;air;52.22;7.01;38.4;Germany;Renania del Norte-Westfalia;Münster;Gronau;GRONAU-SPECHTHOLTSHOOK;7.3;7.4
11/05/17 00:00;DEZ0636;Eurdep;air;52.17;7.06;42.9;Germany;Renania del Norte-Westfalia;Münster;Gronau;GRONAU-EPE;6.0;6.0
11/05/17 00:00;DEZ0637;Eurdep;air;52.13;7.1;49.1;Germany;Renania del Norte-Westfalia;Münster;Heek;HEEK;6.8;7.1
11/05/17 00:00;DEZ0638;Eurdep;air;52.12;7.05;50.7;Germany;Renania del Norte-Westfalia;Münster;Heek;HEEK-AHLE;5.8;6.0
11/05/17 00:00;DEZ0640;Eurdep;air;52.05;7.15;74.0;Germany;Renania del Norte-Westfalia;Münster;Legden;LEGDEN-ASBECK;7.5;7.7
11/05/17 00:00;DEZ0644;Eurdep;air;51.94;6.81;0.0;Germany;0;0;0;SÜDLOHN-OEDING;8.5;8.6
11/05/17 00:00;DEZ0646;Eurdep;air;52.1;6.85;46.2;Germany;Renania del Norte-Westfalia;Münster;Vreden;VREDEN-LÜNTEN;8.2;8.4
11/05/17 00:00;DEZ0647;Eurdep;air;51.79;7.62;66.4;Germany;Renania del Norte-Westfalia;Münster;Ascheberg;ASCHEBERG;6.7;7.2
11/05/17 00:00;DEZ0651;Eurdep;air;52.03;7.27;91.6;Germany;Renania del Norte-Westfalia;Münster;Rosendahl;ROSENDAHL-DARFELD;6.7;7.0
11/05/17 00:00;DEZ0652;Eurdep;air;51.85;7.48;58.6;Germany;Renania del Norte-Westfalia;Münster;Senden;SENDEN;7.4;7.7
11/05/17 00:00;DEZ0653;Eurdep;air;51.54;7.33;121.1;Germany;Renania del Norte-Westfalia;Münster;Castrop-Rauxel;CASTROP-RAUXEL;9.3;9.6
11/05/17 00:00;DEZ0654;Eurdep;air;51.67;7.36;51.2;Germany;Renania del Norte-Westfalia;Münster;Datteln;DATTELN;6.8;6.9
11/05/17 00:00;DEZ0655;Eurdep;air;51.66;7.0;0.0;Germany;0;0;0;DORSTEN;7.0;7.3
08/05/17 22:00;DEZ0656;Eurdep;air;51.73;7.2;37.3;Germany;Renania del Norte-Westfalia;Münster;Haltern am See;HALTERN;0.0;0.0
11/05/17 00:00;DEZ0657;Eurdep;air;51.65;7.16;67.5;Germany;Renania del Norte-Westfalia;Münster;Marl;MARL;7.1;7.3
11/05/17 00:00;DEZ0660;Eurdep;air;52.13;7.7;47.4;Germany;Renania del Norte-Westfalia;Münster;Greven;GREVEN FLUGHAFEN MS OS;8.6;8.8
11/05/17 00:00;DEZ0661;Eurdep;air;52.33;7.5;37.6;Germany;Renania del Norte-Westfalia;Münster;Hörstel;HÖRSTEL-DREIERWALDE;7.2;7.4
11/05/17 00:00;DEZ0664;Eurdep;air;52.11;7.88;56.6;Germany;Renania del Norte-Westfalia;Münster;Lienen;LIENEN-KATTENVENNE;8.5;8.7
11/05/17 00:00;DEZ0666;Eurdep;air;52.21;7.19;63.0;Germany;Renania del Norte-Westfalia;Münster;Ochtrup;OCHTRUP;7.2;7.4
11/05/17 00:00;DEZ0668;Eurdep;air;52.16;7.33;60.5;Germany;Renania del Norte-Westfalia;Münster;Steinfurt;STEINFURT-BURGSTEINFURT;7.8;8.1
11/05/17 00:00;DEZ0672;Eurdep;air;51.89;8.04;0.0;Germany;0;0.0;0;ENNIGERLOH-WESTKIRCHEN;7.8;8.1
11/05/17 00:00;DEZ0673;Eurdep;air;51.91;7.81;0.0;Germany;0;0;0;EVERSWINKEL-ALVERSKIRCHEN;6.7;6.9
11/05/17 00:00;DEZ0674;Eurdep;air;51.8;8.2;133.3;Germany;Renania del Norte-Westfalia;Münster;Oelde;OELDE-STROMBERG;7.7;8.0
11/05/17 00:00;DEZ0675;Eurdep;air;52.05;8.03;64.7;Germany;Renania del Norte-Westfalia;Münster;Sassenberg;SASSENBERG-FÜCHTORF;6.6;6.0
11/05/17 00:00;DEZ0679;Eurdep;air;52.05;8.3;90.0;Germany;Renania del Norte-Westfalia;Región de Detmold;Halle;HALLE-HÖRSTE;7.0;7.6
08/05/17 22:00;DEZ0680;Eurdep;air;51.97;8.22;64.5;Germany;Renania del Norte-Westfalia;Región de Detmold;Harsewinkel;HARSEWINKEL;0.0;0.0
11/05/17 00:00;DEZ0682;Eurdep;air;51.92;8.66;158.6;Germany;Renania del Norte-Westfalia;Región de Detmold;Oerlinghausen;SCHLOß HOLTE-STUKENBROCK;6.6;6.7
11/05/17 00:00;DEZ0685;Eurdep;air;52.23;8.47;95.7;Germany;Renania del Norte-Westfalia;Región de Detmold;Rödinghausen;RÖDINGHAUSEN;8.6;8.9
11/05/17 00:00;DEZ0686;Eurdep;air;52.12;8.49;124.9;Germany;Renania del Norte-Westfalia;Región de Detmold;Spenge;SPENGE-LENZINGHAUSEN;8.6;8.9
11/05/17 00:00;DEZ0687;Eurdep;air;52.17;8.86;102.3;Germany;Renania del Norte-Westfalia;Región de Detmold;Vlotho;VLOTHO;9.9;10.0
11/05/17 00:00;DEZ0688;Eurdep;air;51.74;9.01;246.8;Germany;Renania del Norte-Westfalia;Región de Detmold;Bad Driburg;BAD DRIBURG;10.1;10.0
11/05/17 00:00;DEZ0692;Eurdep;air;51.79;9.4;89.8;Germany;Renania del Norte-Westfalia;Región de Detmold;Höxter;HÖXTER;10.6;10.0
11/05/17 00:00;DEZ0693;Eurdep;air;51.82;9.24;239.8;Germany;Renania del Norte-Westfalia;Región de Detmold;Marienmünster;MARIENMÜNSTER-VÖRDEN;11.2;11.0
11/05/17 00:00;DEZ0694;Eurdep;air;51.88;9.08;151.1;Germany;Renania del Norte-Westfalia;Región de Detmold;Steinheim;STEINHEIM;9.7;10.0
11/05/17 00:00;DEZ0698;Eurdep;air;51.93;8.89;140.1;Germany;Renania del Norte-Westfalia;Región de Detmold;Detmold;DETMOLD;10.0;10.0
11/05/17 00:00;DEZ0702;Eurdep;air;52.02;8.91;103.8;Germany;Renania del Norte-Westfalia;Región de Detmold;Lemgo;LEMGO;7.3;7.6
08/05/17 22:00;DEZ0705;Eurdep;air;52.26;8.75;113.5;Germany;Renania del Norte-Westfalia;Región de Detmold;Bad Oeynhausen;BAD OEYNHAUSEN-WULFERD.;0.0;0.0
11/05/17 00:00;DEZ0707;Eurdep;air;52.31;8.61;65.7;Germany;Renania del Norte-Westfalia;Región de Detmold;Lübbecke;LÜBBECKE;8.8;9.1
11/05/17 00:00;DEZ0708;Eurdep;air;52.38;8.99;38.2;Germany;Renania del Norte-Westfalia;Región de Detmold;Petershagen;PETERSHAGEN-LAHDE;8.7;9.0
11/05/17 00:00;DEZ0709;Eurdep;air;52.43;8.6;47.4;Germany;Renania del Norte-Westfalia;Región de Detmold;Rahden;RAHDEN;6.6;7.0
11/05/17 00:00;DEZ0710;Eurdep;air;52.37;8.46;49.8;Germany;Renania del Norte-Westfalia;Región de Detmold;Stemwede;STEMWEDE-LEVERN;6.7;7.0
11/05/17 00:00;DEZ0711;Eurdep;air;51.55;8.55;213.9;Germany;Renania del Norte-Westfalia;Región de Detmold;Büren;BÜREN;7.9;8.2
08/05/17 22:00;DEZ0712;Eurdep;air;51.76;8.56;91.2;Germany;Renania del Norte-Westfalia;Región de Detmold;Delbrück;DELBRÜCK;0.0;0.0
11/05/17 00:00;DEZ0714;Eurdep;air;51.62;8.89;288.6;Germany;Renania del Norte-Westfalia;Región de Detmold;Lichtenau;LICHTENAU;8.7;8.9
11/05/17 00:00;DEZ0719;Eurdep;air;51.43;7.19;157.7;Germany;Renania del Norte-Westfalia;Arnsberg;Bochum;BOCHUM;9.7;10.0
11/05/17 00:00;DEZ0721;Eurdep;air;51.47;7.6;158.8;Germany;Renania del Norte-Westfalia;Arnsberg;Schwerte;DORTMUND-LICHTENDORF;9.8;10.0
11/05/17 00:00;DEZ0726;Eurdep;air;51.36;7.3;226.1;Germany;Renania del Norte-Westfalia;Arnsberg;Sprockhövel;SPROCKHÖVEL-HIDDINGHAUSEN;8.7;9.0
11/05/17 00:00;DEZ0730;Eurdep;air;51.39;8.58;484.0;Germany;Renania del Norte-Westfalia;Arnsberg;Brilon;BRILON;9.0;9.4
11/05/17 00:00;DEZ0733;Eurdep;air;51.47;8.85;348.8;Germany;Renania del Norte-Westfalia;Arnsberg;Marsberg;MARSBERG;10.3;10.0
11/05/17 00:00;DEZ0737;Eurdep;air;51.16;8.29;404.4;Germany;Renania del Norte-Westfalia;Arnsberg;Schmallenberg;SCHMALLENBERG;11.7;12.0
11/05/17 00:00;DEZ0739;Eurdep;air;51.32;8.0;0.0;Germany;0;0;0;SUNDERN;8.6;9.2
11/05/17 00:00;DEZ0748;Eurdep;air;51.12;7.88;267.0;Germany;Renania del Norte-Westfalia;Arnsberg;Attendorn;ATTENDORN-NEULISTERNOHL;9.9;10.0
11/05/17 00:00;DEZ0750;Eurdep;air;51.08;8.1;380.4;Germany;Renania del Norte-Westfalia;Arnsberg;Kirchhundem;KIRCHHUNDEM;11.6;12.0
08/05/17 22:00;DEZ0752;Eurdep;air;50.98;7.85;418.6;Germany;Renania del Norte-Westfalia;Arnsberg;Wenden;WENDEN-GERLINGEN;0.0;0.0
11/05/17 00:00;DEZ0753;Eurdep;air;51.08;8.42;457.5;Germany;Renania del Norte-Westfalia;Arnsberg;Bad Berleburg;BAD BERLEBURG-WEMLIGHAUSEN;10.6;11.0
08/05/17 22:00;DEZ0761;Eurdep;air;51.66;8.05;70.3;Germany;Renania del Norte-Westfalia;Arnsberg;Lippetal;LIPPETAL-LIPPBORG;0.0;0.0
11/05/17 00:00;DEZ0763;Eurdep;air;51.69;8.44;80.9;Germany;Renania del Norte-Westfalia;Arnsberg;Lippstadt;LIPPSTADT-HÖRSTE;6.1;6.5
11/05/17 00:00;DEZ0766;Eurdep;air;51.5;8.44;364.4;Germany;Renania del Norte-Westfalia;Arnsberg;Rüthen;RÜTHEN;8.2;8.4
11/05/17 00:00;DEZ0767;Eurdep;air;51.43;8.34;381.6;Germany;Renania del Norte-Westfalia;Arnsberg;Warstein;WARSTEIN;9.4;9.0
11/05/17 00:00;DEZ0771;Eurdep;air;51.62;7.52;54.9;Germany;Renania del Norte-Westfalia;Arnsberg;Lünen;LÜNEN;7.5;7.7
11/05/17 00:00;DEZ0772;Eurdep;air;51.54;7.73;84.6;Germany;Renania del Norte-Westfalia;Arnsberg;Unna;UNNA-MÜHLHAUSEN;8.8;9.1
10/05/17 23:00;DEZ0775;Eurdep;air;50.16;8.65;105.5;Germany;Hesse;Región de Darmstadt;Fráncfort;FRANKFURT A.M. ST ESCHERSHEIM;9.4;9.9
11/05/17 00:00;DEZ0778;Eurdep;air;50.02;8.53;99.9;Germany;Hesse;Región de Darmstadt;Rüsselsheim;FRANKFURT A.M.;7.5;8.0
11/05/17 00:00;DEZ0781;Eurdep;air;50.09;8.22;151.8;Germany;Hesse;Región de Darmstadt;Wiesbaden;WIESBADEN;9.8;10.0
11/05/17 00:00;DEZ0786;Eurdep;air;49.67;8.53;91.8;Germany;Hesse;Región de Darmstadt;Einhausen;EINHAUSEN;8.4;8.8
11/05/17 00:00;DEZ0790;Eurdep;air;49.59;8.81;478.5;Germany;Hesse;Región de Darmstadt;Wald-Michelbach;WALDMICHELBACH ST GADERN;11.5;11.0
11/05/17 00:00;DEZ0791;Eurdep;air;49.74;8.62;111.1;Germany;Hesse;Región de Darmstadt;Alsbach-Hähnlein;ALSBACH-HÄHNLEIN;9.3;10.0
11/05/17 00:00;DEZ0794;Eurdep;air;49.8;8.64;137.5;Germany;Hesse;Región de Darmstadt;Pfungstadt;PFUNGSTADT;9.0;9.3
11/05/17 00:00;DEZ0796;Eurdep;air;49.77;8.48;90.0;Germany;Hesse;Región de Darmstadt;Gernsheim;BIEBESHEIM;9.2;9.5
11/05/17 00:00;DEZ0797;Eurdep;air;49.91;8.48;90.8;Germany;Hesse;Región de Darmstadt;Groß-Gerau;GROß-GERAU;9.6;9.8
11/05/17 00:00;DEZ0798;Eurdep;air;49.97;8.58;100.7;Germany;Hesse;Región de Darmstadt;Mörfelden-Walldorf;MÖRFELDEN-WALLDORF;7.7;8.0
11/05/17 00:00;DEZ0799;Eurdep;air;49.84;8.45;86.6;Germany;Hesse;Región de Darmstadt;Riedstadt;RIEDSTADT;8.7;9.1
11/05/17 00:00;DEZ0803;Eurdep;air;50.31;8.56;339.7;Germany;Hesse;Región de Darmstadt;Wehrheim;WEHRHEIM;9.7;10.0
11/05/17 00:00;DEZ0805;Eurdep;air;50.12;9.47;316.7;Germany;Hesse;Región de Darmstadt;Flörsbachtal;FLÖRSBACHTAL OT LOHRHAUPTEN;9.6;9.9
11/05/17 00:00;DEZ0807;Eurdep;air;50.2;9.18;129.4;Germany;Hesse;Región de Darmstadt;Gelnhausen;GELNHAUSEN;9.8;10.0
11/05/17 00:00;DEZ0811;Eurdep;air;50.35;9.53;209.0;Germany;Hesse;Región de Darmstadt;Schlüchtern;SCHLÜCHTERN;11.0;11.0
11/05/17 00:00;DEZ0812;Eurdep;air;50.26;9.52;252.6;Germany;Hesse;Región de Darmstadt;Steinau an der Straße;STEINAU A.D.STR. OT MARJOß;9.1;9.6
11/05/17 00:00;DEZ0813;Eurdep;air;50.27;9.32;174.2;Germany;Hesse;Región de Darmstadt;Wächtersbach;WÄCHTERSBACH;10.0;10.0
11/05/17 00:00;DEZ0814;Eurdep;air;50.06;8.37;148.7;Germany;Hesse;Región de Darmstadt;Hofheim am Taunus;HOFHEIM A.T. /WALLAU;9.7;10.0
11/05/17 00:00;DEZ0816;Eurdep;air;49.81;9.05;156.3;Germany;Hesse;Región de Darmstadt;Breuberg;BREUBERG OT RAI-BREITENBACH;9.9;10.0
11/05/17 00:00;DEZ0818;Eurdep;air;49.72;8.84;234.0;Germany;Hesse;Región de Darmstadt;Reichelsheim;REICHELSHEIM (ODW);11.5;12.0
11/05/17 00:00;DEZ0819;Eurdep;air;49.5;8.92;428.5;Germany;Hesse;Región de Darmstadt;Rothenberg;ROTHENBERG;8.3;8.6
11/05/17 00:00;DEZ0820;Eurdep;air;50.02;8.8;137.8;Germany;Hesse;Región de Darmstadt;Dietzenbach;DIETZENBACH;8.0;8.4
11/05/17 00:00;DEZ0821;Eurdep;air;49.96;8.66;123.4;Germany;Hesse;Región de Darmstadt;Egelsbach;EGELSBACH;9.2;9.4
11/05/17 00:00;DEZ0823;Eurdep;air;50.05;8.97;110.8;Germany;Hesse;Región de Darmstadt;Seligenstadt;SELIGENSTADT;9.2;9.5
11/05/17 00:00;DEZ0824;Eurdep;air;50.16;8.06;416.8;Germany;Hesse;Región de Darmstadt;Bad Schwalbach;BAD SCHWALBACH;10.4;10.0
11/05/17 00:00;DEZ0828;Eurdep;air;50.05;7.8;229.8;Germany;Hesse;Región de Darmstadt;Lorch;LORCH;11.2;11.0
11/05/17 00:00;DEZ0830;Eurdep;air;50.29;8.95;129.8;Germany;Hesse;Región de Darmstadt;Altenstadt;ALTENSTADT;10.3;10.0
11/05/17 00:00;DEZ0832;Eurdep;air;50.29;9.11;132.8;Germany;Hesse;Región de Darmstadt;Büdingen;BÜDINGEN;10.0;10.0
11/05/17 00:00;DEZ0835;Eurdep;air;50.32;8.75;147.7;Germany;Hesse;Región de Darmstadt;Friedberg;FRIEDBERG (HESSEN);9.3;9.8
11/05/17 00:00;DEZ0836;Eurdep;air;50.39;9.14;305.4;Germany;Hesse;Región de Darmstadt;Hirzenhain;HIRZENHAIN;9.6;9.9
11/05/17 00:00;DEZ0840;Eurdep;air;50.47;8.89;171.4;Germany;Hesse;Distrito de Gießen;Hungen;HUNGEN;9.3;9.5
11/05/17 00:00;DEZ0847;Eurdep;air;50.58;8.29;247.3;Germany;Hesse;Distrito de Gießen;Greifenstein;GREIFENSTEIN;10.0;10.0
08/05/17 22:00;DEZ0850;Eurdep;air;50.3;8.27;214.6;Germany;Hesse;Distrito de Gießen;Bad Camberg;BAD CAMBERG;0.0;0.0
08/05/17 22:00;DEZ0851;Eurdep;air;50.44;8.03;164.8;Germany;Hesse;Distrito de Gießen;Hadamar;HADAMAR;0.0;0.0
11/05/17 00:00;DEZ0853;Eurdep;air;50.48;8.24;180.2;Germany;Hesse;Distrito de Gießen;Weilburg;WEILBURG;10.6;11.0
11/05/17 00:00;DEZ0854;Eurdep;air;50.43;8.38;175.7;Germany;Hesse;Distrito de Gießen;Weilmünster;WEILMÜNSTER;10.0;10.0
11/05/17 00:00;DEZ0858;Eurdep;air;50.69;8.61;219.6;Germany;Hesse;Distrito de Gießen;Lohra;LOHRA OT KIRCHVERS;9.6;9.9
08/05/17 22:00;DEZ0859;Eurdep;air;50.79;8.77;199.8;Germany;Hesse;Distrito de Gießen;Marburgo;MARBURG;0.0;0.0
11/05/17 00:00;DEZ0860;Eurdep;air;50.82;8.99;221.3;Germany;Hesse;Distrito de Gießen;Stadtallendorf;STADTALLENDORF;8.8;9.2
11/05/17 00:00;DEZ0862;Eurdep;air;50.72;9.25;328.2;Germany;Hesse;Distrito de Gießen;Alsfeld;ALSFELD;11.7;12.0
11/05/17 00:00;DEZ0864;Eurdep;air;50.69;9.05;248.4;Germany;Hesse;Distrito de Gießen;Gemünden;GEMÜNDEN (FELDA);8.1;8.5
11/05/17 00:00;DEZ0865;Eurdep;air;50.63;9.39;353.3;Germany;Hesse;Distrito de Gießen;Lauterbach;LAUTERBACH;8.5;9.0
11/05/17 00:00;DEZ0866;Eurdep;air;50.67;9.57;226.5;Germany;Hesse;Distrito de Gießen;Schlitz;SCHLITZ;10.4;10.0
11/05/17 00:00;DEZ0874;Eurdep;air;50.5;9.94;932.8;Germany;Hesse;Región de Kassel;Gersfeld;GERSFELD/RHÖN;9.0;9.3
08/05/17 22:00;DEZ0882;Eurdep;air;50.65;10.02;358.8;Germany;Hesse;Región de Kassel;Tann;TANN (RHÖN);0.0;0.0
11/05/17 00:00;DEZ0893;Eurdep;air;51.25;9.37;297.1;Germany;Hesse;Región de Kassel;Baunatal;BAUNATAL OT GROßENRITTE;10.0;10.0
11/05/17 00:00;DEZ0899;Eurdep;air;51.49;9.59;207.5;Germany;Hesse;Región de Kassel;Gutsbezirk Reinhardswald;REINHARDSHAGEN OT VECKERHAGEN;9.6;10.0
11/05/17 00:00;DEZ0903;Eurdep;air;51.37;9.3;259.5;Germany;Hesse;Región de Kassel;Zierenberg;ZIERENBERG;10.3;10.0
11/05/17 00:00;DEZ0905;Eurdep;air;51.02;9.41;270.3;Germany;Hesse;Región de Kassel;Homberg;HOMBERG (EFZE);10.9;11.0
11/05/17 00:00;DEZ0911;Eurdep;air;51.38;9.0;0.0;Germany;0;0;0;BAD AROLSEN;10.1;10.0
11/05/17 00:00;DEZ0913;Eurdep;air;51.01;8.63;406.8;Germany;Hesse;Región de Kassel;Battenberg;BATTENBERG (EDER);10.5;10.0
11/05/17 00:00;DEZ0914;Eurdep;air;51.36;8.81;384.0;Germany;Hesse;Región de Kassel;Diemelsee;DIEMELSEE OT ADORF;10.1;10.0
11/05/17 00:00;DEZ0918;Eurdep;air;50.97;8.98;292.2;Germany;Hesse;Región de Kassel;Gemünden;GEMÜNDEN (WOHRA);10.7;11.0
11/05/17 00:00;DEZ0920;Eurdep;air;51.2;8.8;404.0;Germany;Hesse;Región de Kassel;Lichtenfels;LICHTENFELS ST GODDELSHEIM;9.9;10.0
11/05/17 00:00;DEZ0921;Eurdep;air;51.23;9.09;326.4;Germany;Hesse;Región de Kassel;Waldeck;WALDECK OT NETZE;10.4;10.0
11/05/17 00:00;DEZ0922;Eurdep;air;51.28;8.66;603.3;Germany;Hesse;Región de Kassel;Willingen;WILLINGEN OT USSELN;11.0;11.0
11/05/17 00:00;DEZ0926;Eurdep;air;51.04;10.15;374.0;Germany;Hesse;Región de Kassel;Herleshausen;HERLESHAUSEN;10.4;10.0
11/05/17 00:00;DEZ0927;Eurdep;air;51.2;9.65;342.8;Germany;Hesse;Región de Kassel;Hessisch Lichtenau;HESSISCH LICHTENAU OT QUENTEL;10.9;11.0
11/05/17 00:00;DEZ0928;Eurdep;air;51.24;10.06;427.7;Germany;Hesse;Región de Kassel;Meinhard;MEINHARD OT HITZELRODE;10.6;11.0
08/05/17 22:00;DEZ0931;Eurdep;air;51.19;10.18;238.6;Germany;Hesse;Región de Kassel;Wanfried;WANFRIED;0.0;0.0
11/05/17 00:00;DEZ0932;Eurdep;air;51.35;9.86;172.2;Germany;Hesse;Región de Kassel;Witzenhausen;WITZENHAUSEN;11.5;12.0
11/05/17 00:00;DEZ0933;Eurdep;air;50.51;6.99;178.0;Germany;Renania-Palatinado;;Altenahr;ALTENAHR-ALTENBURG;11.0;11.0
11/05/17 00:00;DEZ0935;Eurdep;air;50.46;7.21;265.9;Germany;Renania-Palatinado;;Niederzissen;NIEDERZISSEN;11.0;11.0
11/05/17 00:00;DEZ0942;Eurdep;air;49.79;7.49;221.7;Germany;Renania-Palatinado;;Hochstetten-Dhaun;KIRN/NAHE;10.2;10.0
11/05/17 00:00;DEZ0943;Eurdep;air;49.95;7.79;317.4;Germany;Renania-Palatinado;;Warmsroth;STROMBERG;10.1;10.0
11/05/17 00:00;DEZ0945;Eurdep;air;49.88;7.63;388.3;Germany;Renania-Palatinado;;Winterbach;WINTERBACH;11.3;11.0
11/05/17 00:00;DEZ0949;Eurdep;air;49.7;7.35;256.3;Germany;Renania-Palatinado;;Idar-Oberstein;IDAR-OBERSTEIN;10.9;11.0
11/05/17 00:00;DEZ0950;Eurdep;air;49.86;7.34;377.8;Germany;Renania-Palatinado;;Rhaunen;RHAUNEN/HUNSRÜCK;11.5;11.0
11/05/17 00:00;DEZ0954;Eurdep;air;50.22;6.98;429.0;Germany;Renania-Palatinado;;Ulmen;ULMEN;10.5;10.0
11/05/17 00:00;DEZ0957;Eurdep;air;50.32;7.22;252.0;Germany;Renania-Palatinado;;Mayen;MAYEN;11.5;11.0
11/05/17 00:00;DEZ0959;Eurdep;air;50.41;7.55;67.5;Germany;Renania-Palatinado;;Kaltenengers;KALTENENGERS;10.5;11.0
11/05/17 00:00;DEZ0960;Eurdep;air;50.39;7.5;79.3;Germany;Renania-Palatinado;;Mülheim-Kärlich;MÜLHEIM-KÄRLICH;12.4;12.0
11/05/17 00:00;DEZ0961;Eurdep;air;50.34;7.46;264.0;Germany;Renania-Palatinado;;Wolken;WOLKEN;11.7;12.0
11/05/17 00:00;DEZ0962;Eurdep;air;50.24;7.36;273.8;Germany;Renania-Palatinado;;Münstermaifeld;MÜNSTERMAIFELD;11.6;12.0
11/05/17 00:00;DEZ0965;Eurdep;air;50.56;7.29;161.5;Germany;Renania-Palatinado;;Dattenberg;LINZ AM RHEIN;9.3;9.7
11/05/17 00:00;DEZ0966;Eurdep;air;50.43;7.48;67.0;Germany;Renania-Palatinado;;Neuwied;NEUWIED;11.1;11.0
11/05/17 00:00;DEZ0967;Eurdep;air;50.17;7.56;0.0;Germany;0;0;0;HALSENBACH;11.4;11.0
11/05/17 00:00;DEZ0968;Eurdep;air;50.07;7.45;433.4;Germany;Renania-Palatinado;;Kastellaun;KASTELLAUN;11.4;11.0
11/05/17 00:00;DEZ0969;Eurdep;air;49.91;7.51;356.5;Germany;Renania-Palatinado;;Mengerschied;MENGERSCHIED;11.5;11.0
08/05/17 22:00;DEZ0970;Eurdep;air;49.98;7.52;328.3;Germany;Renania-Palatinado;;Simmern;SIMMERN;0.0;0.0
11/05/17 00:00;DEZ0973;Eurdep;air;50.35;7.89;273.1;Germany;Renania-Palatinado;;Holzappel;HOLZAPPEL;11.2;11.0
11/05/17 00:00;DEZ0974;Eurdep;air;50.27;7.98;315.0;Germany;Renania-Palatinado;;Katzenelnbogen;KATZENELNBOGEN;12.2;12.0
11/05/17 00:00;DEZ0975;Eurdep;air;50.32;7.59;63.0;Germany;Renania-Palatinado;;Lahnstein;LAHNSTEIN;10.4;10.0
11/05/17 00:00;DEZ0976;Eurdep;air;50.2;7.86;263.5;Germany;Renania-Palatinado;;Nastätten;NASTÄTTEN;10.1;10.0
11/05/17 00:00;DEZ0977;Eurdep;air;50.15;7.73;228.3;Germany;Renania-Palatinado;;Sankt Goarshausen;ST. GOARSHAUSEN;11.6;12.0
11/05/17 00:00;DEZ0978;Eurdep;air;50.27;7.83;288.0;Germany;Renania-Palatinado;;Singhofen;SINGHOFEN;10.2;10.0
11/05/17 00:00;DEZ0983;Eurdep;air;50.6;8.07;433.0;Germany;Renania-Palatinado;;Rennerod;RENNEROD;10.7;11.0
08/05/17 22:00;DEZ0984;Eurdep;air;50.65;7.72;271.8;Germany;Renania-Palatinado;;Wahlrod;WAHLROD;0.0;0.0
11/05/17 00:00;DEZ0985;Eurdep;air;49.75;6.66;266.8;Germany;Renania-Palatinado;;Tréveris;TRIER;10.9;11.0
11/05/17 00:00;DEZ0988;Eurdep;air;50.09;6.81;0.0;Germany;0;0;0;MANDERSCHEID;10.3;10.0
11/05/17 00:00;DEZ0989;Eurdep;air;49.86;6.9;144.3;Germany;Renania-Palatinado;;Neumagen-Dhron;NEUMAGEN-DHRON;11.1;11.0
11/05/17 00:00;DEZ0994;Eurdep;air;50.02;6.23;490.9;Germany;Renania-Palatinado;;Karlshausen;KARLSHAUSEN;11.0;11.0
11/05/17 00:00;DEZ0997;Eurdep;air;49.94;6.64;329.2;Germany;Renania-Palatinado;;Speicher;SPEICHER;11.4;11.0
11/05/17 00:00;DEZ0998;Eurdep;air;49.97;6.19;262.5;Germany;Renania-Palatinado;;Waldhof-Falkenstein;WALDHOF-FALKENSTEIN;10.8;11.0
11/05/17 00:00;DEZ1000;Eurdep;air;50.3;6.34;553.5;Germany;Renania-Palatinado;;Auw bei Prüm;AUW BEI PRÜM;9.7;10.0
11/05/17 00:00;DEZ1003;Eurdep;air;50.1;6.45;461.5;Germany;Renania-Palatinado;;Feuerscheid;FEUERSCHEID;9.6;9.9
11/05/17 00:00;DEZ1004;Eurdep;air;50.16;6.22;523.7;Germany;Renania-Palatinado;;Großkampenberg;GROßKAMPENBERG;10.4;10.0
11/05/17 00:00;DEZ1006;Eurdep;air;50.21;6.42;482.2;Germany;Renania-Palatinado;;Prüm;PRÜM;10.0;11.0
11/05/17 00:00;DEZ1008;Eurdep;air;50.29;6.67;447.7;Germany;Renania-Palatinado;;Hillesheim;HILLESHEIM;10.0;10.0
11/05/17 00:00;DEZ1009;Eurdep;air;50.35;6.57;437.3;Germany;Renania-Palatinado;;Jünkerath;JÜNKERATH;10.8;11.0
11/05/17 00:00;DEZ1011;Eurdep;air;50.33;6.45;580.8;Germany;Renania-Palatinado;;Ormont;ORMONT;9.5;9.8
11/05/17 00:00;DEZ1013;Eurdep;air;49.72;6.79;411.0;Germany;Renania-Palatinado;;Osburg;OSBURG;10.8;11.0
11/05/17 00:00;DEZ1016;Eurdep;air;49.6;6.56;0.0;Germany;0;0;0;SAARBURG;10.6;11.0
11/05/17 00:00;DEZ1019;Eurdep;air;49.67;6.52;212.4;Germany;Renania-Palatinado;;Tawern;TAWERN;10.4;10.0
11/05/17 00:00;DEZ1021;Eurdep;air;49.6;6.42;307.7;Germany;Renania-Palatinado;;Wincheringen;WINCHERINGEN;11.6;11.0
11/05/17 00:00;DEZ1022;Eurdep;air;49.6;6.69;379.3;Germany;Renania-Palatinado;;Zerf;ZERF;10.0;10.0
11/05/17 00:00;DEZ1028;Eurdep;air;49.2;7.62;403.8;Germany;Renania-Palatinado;;Pirmasens;PIRMASENS;11.4;11.0
11/05/17 00:00;DEZ1030;Eurdep;air;49.67;8.35;91.2;Germany;Renania-Palatinado;;Worms;WORMS;9.0;9.4
11/05/17 00:00;DEZ1032;Eurdep;air;49.74;8.12;187.2;Germany;Renania-Palatinado;;Alzey;ALZEY;12.6;13.0
11/05/17 00:00;DEZ1034;Eurdep;air;49.77;7.95;208.3;Germany;Renania-Palatinado;;Stein-Bockenheim;STEIN-BOCKENHEIM;10.6;10.0
11/05/17 00:00;DEZ1036;Eurdep;air;49.47;8.19;109.3;Germany;Renania-Palatinado;;Bad Dürkheim;BAD DÜRKHEIM;9.3;9.7
11/05/17 00:00;DEZ1037;Eurdep;air;49.35;7.94;230.5;Germany;Renania-Palatinado;;Elmstein;ELMSTEIN;9.9;10.0
11/05/17 00:00;DEZ1038;Eurdep;air;49.57;8.18;155.7;Germany;Renania-Palatinado;;Grünstadt;GRÜNSTADT;9.6;10.0
11/05/17 00:00;DEZ1039;Eurdep;air;49.41;8.01;213.4;Germany;Renania-Palatinado;;Bad Dürkheim;WEIDENTHAL;9.4;9.7
11/05/17 00:00;DEZ1041;Eurdep;air;49.66;8.01;279.4;Germany;Renania-Palatinado;;Kirchheimbolanden;KIRCHHEIMBOLANDEN;12.1;12.0
08/05/17 22:00;DEZ1042;Eurdep;air;49.73;7.78;190.8;Germany;Renania-Palatinado;;Obermoschel;OBERMOSCHEL;0.0;0.0
11/05/17 00:00;DEZ1043;Eurdep;air;49.6;7.78;243.7;Germany;Renania-Palatinado;;Gundersweiler;GUNDERSWEILER;12.1;12.0
11/05/17 00:00;DEZ1045;Eurdep;air;49.21;8.36;109.4;Germany;Renania-Palatinado;;Germersheim;GERMERSHEIM;8.8;9.1
11/05/17 00:00;DEZ1046;Eurdep;air;48.99;8.24;108.4;Germany;Renania-Palatinado;;Neuburg am Rhein;NEUBURG AM RHEIN;8.0;8.5
11/05/17 00:00;DEZ1049;Eurdep;air;49.05;8.25;117.0;Germany;Renania-Palatinado;;Wörth am Rhein;WÖRTH AM RHEIN;8.0;8.0
11/05/17 00:00;DEZ1051;Eurdep;air;49.49;7.89;300.3;Germany;Renania-Palatinado;;Enkenbach-Alsenborn;ENKENBACH-ALSENBORN;9.5;9.8
11/05/17 00:00;DEZ1058;Eurdep;air;49.28;8.23;118.8;Germany;Renania-Palatinado;;Böbingen;BÖBINGEN;9.4;9.9
11/05/17 00:00;DEZ1059;Eurdep;air;49.05;8.03;156.0;Germany;Renania-Palatinado;;Steinfeld;STEINFELD;8.6;8.9
11/05/17 00:00;DEZ1060;Eurdep;air;49.26;8.4;94.9;Germany;Renania-Palatinado;;Römerberg;RÖMERBERG-MECHTERSHEIM;8.8;9.3
11/05/17 00:00;DEZ1061;Eurdep;air;49.4;8.39;97.7;Germany;Renania-Palatinado;;Schifferstadt;SCHIFFERSTADT;9.2;9.4
11/05/17 00:00;DEZ1065;Eurdep;air;49.97;8.26;132.8;Germany;Renania-Palatinado;;Maguncia;MAINZ-HECHTSHEIM;11.3;11.0
11/05/17 00:00;DEZ1071;Eurdep;air;49.32;7.7;383.5;Germany;Renania-Palatinado;;Heltersberg;HELTERSBERG;8.9;9.3
11/05/17 00:00;DEZ1072;Eurdep;air;49.26;7.56;0.0;Germany;0;0;0;THALEISCHWEILER-FRÖSCHEN;10.2;10.0
11/05/17 00:00;DEZ1073;Eurdep;air;49.22;7.9;220.6;Germany;Renania-Palatinado;;Wilgartswiesen;WILGARTSWIESEN;8.8;9.1
11/05/17 00:00;DEZ1075;Eurdep;air;49.19;7.44;247.2;Germany;Renania-Palatinado;;Großsteinhausen;DIETRICHINGEN;12.0;12.0
11/05/17 00:00;DEZ1078;Eurdep;air;48.78;9.18;245.2;Germany;Baden-Wurtemberg;Región Administrativa de Stuttgart;Stuttgart;STUTTGART;11.0;11.0
11/05/17 00:00;DEZ1079;Eurdep;air;48.69;9.04;506.2;Germany;Baden-Wurtemberg;Región Administrativa de Stuttgart;Böblingen;BÖBLINGEN;10.4;10.0
11/05/17 00:00;DEZ1080;Eurdep;air;48.6;8.86;441.3;Germany;Baden-Wurtemberg;Región Administrativa de Stuttgart;Herrenberg;HERRENBERG;10.5;10.0
10/05/17 23:00;DEZ1081;Eurdep;air;48.8;9.0;0.0;Germany;0;0;0;LEONBERG;11.6;11.0
11/05/17 00:00;DEZ1082;Eurdep;air;48.72;8.98;444.7;Germany;Baden-Wurtemberg;Región Administrativa de Stuttgart;Sindelfingen;SINDELFINGEN;10.8;11.0
08/05/17 22:00;DEZ1084;Eurdep;air;48.75;9.32;307.9;Germany;Baden-Wurtemberg;Región Administrativa de Stuttgart;Esslingen am Neckar;ESSLINGEN;0.0;0.0
11/05/17 00:00;DEZ1086;Eurdep;air;48.74;9.48;450.8;Germany;Baden-Wurtemberg;Región Administrativa de Stuttgart;Lichtenwald;LICHTENWALD;8.5;8.9
08/05/17 22:00;DEZ1087;Eurdep;air;48.55;9.37;447.5;Germany;Baden-Wurtemberg;Región Administrativa de Stuttgart;Neuffen;NEUFFEN;0.0;0.0
11/05/17 00:00;DEZ1090;Eurdep;air;48.72;9.26;377.8;Germany;Baden-Wurtemberg;Región Administrativa de Stuttgart;Ostfildern;OSTFILDERN ST RUIT;8.9;9.3
10/05/17 12:00;DEZ1091;Eurdep;air;48.68;9.93;684.2;Germany;Baden-Wurtemberg;Región Administrativa de Stuttgart;Böhmenkirch;BÖHMENKIRCH;9.3;9.5
11/05/17 00:00;DEZ1092;Eurdep;air;48.74;9.72;566.5;Germany;Baden-Wurtemberg;Región Administrativa de Stuttgart;Göppingen;GÖPPINGEN ST HOHENSTAUF.;10.2;10.0
11/05/17 00:00;DEZ1104;Eurdep;air;48.99;9.55;283.2;Germany;Baden-Wurtemberg;Región Administrativa de Stuttgart;Sulzbach an der Murr;MURRHARDT;10.5;10.0
11/05/17 00:00;DEZ1109;Eurdep;air;49.18;8.83;248.9;Germany;Baden-Wurtemberg;Región Administrativa de Stuttgart;Eppingen;EPPINGEN ST ELSENZ;10.7;11.0
11/05/17 00:00;DEZ1117;Eurdep;air;49.28;9.8;441.7;Germany;Baden-Wurtemberg;Región Administrativa de Stuttgart;Künzelsau;KÜNZELSAU ST NITZENHAUSEN;11.1;11.0
11/05/17 00:00;DEZ1118;Eurdep;air;49.3;9.62;203.3;Germany;Baden-Wurtemberg;Región Administrativa de Stuttgart;Niedernhall;NIEDERNHALL;12.2;12.0
08/05/17 22:00;DEZ1121;Eurdep;air;49.29;10.04;481.2;Germany;Baden-Wurtemberg;Región Administrativa de Stuttgart;Blaufelden;BLAUFELDEN OT WIESENBACH;0.0;0.0
11/05/17 00:00;DEZ1126;Eurdep;air;49.08;9.55;447.1;Germany;Baden-Wurtemberg;Región Administrativa de Stuttgart;Mainhardt;MAINHARDT;9.2;9.7
11/05/17 00:00;DEZ1127;Eurdep;air;49.1;9.73;380.0;Germany;Baden-Wurtemberg;Región Administrativa de Stuttgart;Schwäbisch Hall;SCHWÄBISCH HALL;11.5;11.0
11/05/17 00:00;DEZ1129;Eurdep;air;49.08;9.98;444.3;Germany;Baden-Wurtemberg;Región Administrativa de Stuttgart;Frankenhardt;FRANKENHARDT OT GRÜNDELH.;9.1;9.4
11/05/17 00:00;DEZ1130;Eurdep;air;49.41;9.83;414.8;Germany;Baden-Wurtemberg;Región Administrativa de Stuttgart;Bad Mergentheim;BAD MERGENTHEIM ST HERBSTHAUSEN;10.1;10.0
11/05/17 00:00;DEZ1132;Eurdep;air;49.67;9.74;325.3;Germany;Baden-Wurtemberg;Región Administrativa de Stuttgart;Großrinderfeld;GROßRINDERFELD;9.8;10.0
08/05/17 22:00;DEZ1133;Eurdep;air;49.53;9.85;350.0;Germany;Baden-Wurtemberg;Región Administrativa de Stuttgart;Igersheim;IGERSHEIM OT HARTHAUSEN;0.0;0.0
11/05/17 00:00;DEZ1140;Eurdep;air;48.86;9.79;501.8;Germany;Baden-Wurtemberg;Región Administrativa de Stuttgart;Durlangen;DURLANGEN;10.3;10.0
11/05/17 00:00;DEZ1144;Eurdep;air;48.76;10.33;567.8;Germany;Baden-Wurtemberg;Región Administrativa de Stuttgart;Neresheim;NERESHEIM;7.0;7.9
11/05/17 00:00;DEZ1145;Eurdep;air;48.94;10.37;485.0;Germany;Baden-Wurtemberg;Región Administrativa de Stuttgart;Unterschneidheim;UNTERSCHNEIDHEIM;9.1;9.0
11/05/17 00:00;DEZ1146;Eurdep;air;48.83;10.12;482.7;Germany;Baden-Wurtemberg;Región Administrativa de Stuttgart;Aalen;AALEN ST UNTERKOCHEN;7.7;7.9
11/05/17 00:00;DEZ1154;Eurdep;air;49.12;8.73;138.8;Germany;Baden-Wurtemberg;Distrito de Karlsruhe;Kraichtal;KRAICHTAL ST MÜNZESHEIM;10.8;11.0
11/05/17 00:00;DEZ1156;Eurdep;air;49.13;8.53;110.5;Germany;Baden-Wurtemberg;Distrito de Karlsruhe;Karlsdorf-Neuthard;KARLSDORF-NEUTHARD OT K.;8.6;9.0
11/05/17 00:00;DEZ1160;Eurdep;air;49.09;8.48;110.4;Germany;Baden-Wurtemberg;Distrito de Karlsruhe;Stutensee;STUTENSEE OT FRIEDRICHST.;8.0;8.8
11/05/17 00:00;DEZ1163;Eurdep;air;48.69;8.13;133.9;Germany;Baden-Wurtemberg;Distrito de Karlsruhe;Bühl;BÜHL;10.8;11.0
11/05/17 00:00;DEZ1164;Eurdep;air;48.69;8.36;288.6;Germany;Baden-Wurtemberg;Distrito de Karlsruhe;Forbach;FORBACH OT GAUSBACH;12.9;13.0
08/05/17 22:00;DEZ1165;Eurdep;air;48.61;8.28;681.0;Germany;Baden-Wurtemberg;Distrito de Karlsruhe;Forbach;FORBACH OT HUNDSBACH;0.0;0.0
17/04/17 22:00;DEZ1166;Eurdep;air;48.79;8.33;148.2;Germany;Baden-Wurtemberg;Distrito de Karlsruhe;Gaggenau;GAGGENAU ST OTTENAU;0.0;0.0
08/05/17 22:00;DEZ1170;Eurdep;air;48.75;8.0;0.0;Germany;0;0;0;RHEINMÜNSTER OT GREFFERN;0.0;0.0
11/05/17 00:00;DEZ1174;Eurdep;air;49.37;9.42;276.1;Germany;Baden-Wurtemberg;Distrito de Karlsruhe;Adelsheim;ADELSHEIM ST LEIBENSTADT;11.3;11.0
11/05/17 00:00;DEZ1176;Eurdep;air;49.52;9.33;331.9;Germany;Baden-Wurtemberg;Distrito de Karlsruhe;Buchen;BUCHEN;10.1;10.0
11/05/17 00:00;DEZ1177;Eurdep;air;49.61;9.47;262.6;Germany;Baden-Wurtemberg;Distrito de Karlsruhe;Hardheim;HARDHEIM;11.4;11.0
11/05/17 00:00;DEZ1196;Eurdep;air;48.66;8.6;645.1;Germany;Baden-Wurtemberg;Distrito de Karlsruhe;Neuweiler;NEUWEILER;10.2;10.0
11/05/17 00:00;DEZ1197;Eurdep;air;48.57;8.69;416.4;Germany;Baden-Wurtemberg;Distrito de Karlsruhe;Rohrdorf;ROHRDORF;10.8;11.0
11/05/17 00:00;DEZ1199;Eurdep;air;48.7;8.53;526.7;Germany;Baden-Wurtemberg;Distrito de Karlsruhe;Bad Wildbad;BAD WILDBAD;8.4;8.8
11/05/17 00:00;DEZ1200;Eurdep;air;48.71;8.76;438.4;Germany;Baden-Wurtemberg;Distrito de Karlsruhe;Calw;CALW ST HEUMADEN;10.7;11.0
11/05/17 00:00;DEZ1203;Eurdep;air;48.85;8.58;456.3;Germany;Baden-Wurtemberg;Distrito de Karlsruhe;Neuenbürg;NEUENBÜRG;11.7;12.0
11/05/17 00:00;DEZ1206;Eurdep;air;48.35;8.39;593.7;Germany;Baden-Wurtemberg;Distrito de Karlsruhe;Alpirsbach;ALPIRSBACH;14.3;14.0
11/05/17 00:00;DEZ1210;Eurdep;air;48.52;8.56;609.9;Germany;Baden-Wurtemberg;Distrito de Karlsruhe;Pfalzgrafenweiler;PFALZGRAFENWEILER;11.4;11.0
11/05/17 00:00;DEZ1211;Eurdep;air;48.59;8.42;807.6;Germany;Baden-Wurtemberg;Distrito de Karlsruhe;Seewald;SEEWALD OT BESENFELD;10.8;11.0
11/05/17 00:00;DEZ1213;Eurdep;air;47.92;7.91;1224.2;Germany;Baden-Wurtemberg;Región de Friburgo;Oberried;SCHAUINSLAND FREIBURG;11.5;11.0
11/05/17 00:00;DEZ1218;Eurdep;air;47.98;7.91;322.2;Germany;Baden-Wurtemberg;Región de Friburgo;Friburgo;FREIBURG ST EBNET;10.5;10.0
11/05/17 00:00;DEZ1223;Eurdep;air;47.86;8.11;966.5;Germany;Baden-Wurtemberg;Región de Friburgo;Feldberg en la Selva Negra;FELDBERG OT ALTGLASHÜTTEN;12.1;12.0
11/05/17 00:00;DEZ1229;Eurdep;air;48.17;8.06;363.9;Germany;Baden-Wurtemberg;Región de Friburgo;Elzach;ELZACH;11.2;11.0
11/05/17 00:00;DEZ1232;Eurdep;air;48.16;7.64;174.0;Germany;Baden-Wurtemberg;Región de Friburgo;Wyhl am Kaiserstuhl;WYHL;10.7;11.0
11/05/17 00:00;DEZ1235;Eurdep;air;48.66;8.02;130.8;Germany;Baden-Wurtemberg;Región de Friburgo;Achern;ACHERN OT GAMSHURST;10.2;10.0
11/05/17 00:00;DEZ1236;Eurdep;air;48.43;8.21;406.4;Germany;Baden-Wurtemberg;Región de Friburgo;Bad Peterstal-Griesbach;BAD PETERSTAL-GRIEßBACH;12.0;12.0
11/05/17 00:00;DEZ1241;Eurdep;air;48.53;8.07;185.9;Germany;Baden-Wurtemberg;Región de Friburgo;Oberkirch;OBERKIRCH;11.0;11.0
11/05/17 00:00;DEZ1244;Eurdep;air;48.27;7.95;282.4;Germany;Baden-Wurtemberg;Región de Friburgo;Schuttertal;SCHUTTERTAL;10.7;11.0
11/05/17 00:00;DEZ1245;Eurdep;air;48.45;7.89;148.0;Germany;Baden-Wurtemberg;Región de Friburgo;Schutterwald;SCHUTTERWALD;11.0;12.0
11/05/17 00:00;DEZ1248;Eurdep;air;48.35;7.76;156.4;Germany;Baden-Wurtemberg;Región de Friburgo;Schwanau;SCHWANAU OT NONNENWEIER;8.9;9.3
11/05/17 00:00;DEZ1249;Eurdep;air;48.47;7.8;143.1;Germany;Baden-Wurtemberg;Región de Friburgo;Neuried;NEURIED OT ALTENHEIM;8.4;8.7
11/05/17 00:00;DEZ1252;Eurdep;air;48.29;8.56;581.3;Germany;Baden-Wurtemberg;Región de Friburgo;Oberndorf am Neckar;OBERNDORF/N. ST LINDENHOF;12.9;13.0
11/05/17 00:00;DEZ1253;Eurdep;air;48.25;8.44;675.1;Germany;Baden-Wurtemberg;Región de Friburgo;Schramberg;SCHRAMBERG ST BRAMBACH;11.5;11.0
08/05/17 22:00;DEZ1258;Eurdep;air;48.12;8.39;796.5;Germany;Baden-Wurtemberg;Región de Friburgo;St. Georgen;ST. GEORGEN;0.0;0.0
11/05/17 00:00;DEZ1260;Eurdep;air;48.0;8.32;0.0;Germany;0;0;0;VÖHRENBACH ST HAMMEREIS.;14.5;14.0
11/05/17 00:00;DEZ1263;Eurdep;air;48.01;8.66;754.3;Germany;Baden-Wurtemberg;Región de Friburgo;Talheim;TALHEIM;10.8;11.0
11/05/17 00:00;DEZ1264;Eurdep;air;47.99;8.81;703.6;Germany;Baden-Wurtemberg;Región de Friburgo;Tuttlingen;TUTTLINGEN;10.3;10.0
11/05/17 00:00;DEZ1265;Eurdep;air;47.86;8.78;535.8;Germany;Baden-Wurtemberg;Región de Friburgo;Engen;ENGEN;8.8;9.0
11/05/17 00:00;DEZ1268;Eurdep;air;47.68;9.19;441.3;Germany;Baden-Wurtemberg;Región de Friburgo;Constanza;KONSTANZ;9.4;9.0
11/05/17 00:00;DEZ1269;Eurdep;air;47.66;8.89;429.7;Germany;Baden-Wurtemberg;Región de Friburgo;Öhningen;ÖHNINGEN;8.5;8.8
11/05/17 00:00;DEZ1270;Eurdep;air;47.74;8.98;397.8;Germany;Baden-Wurtemberg;Región de Friburgo;Radolfzell am Bodensee;RADOLFZELL;8.4;8.7
11/05/17 00:00;DEZ1273;Eurdep;air;47.86;9.01;516.8;Germany;Baden-Wurtemberg;Región de Friburgo;Stockach;STOCKACH;9.8;10.0
11/05/17 00:00;DEZ1274;Eurdep;air;47.82;8.66;645.7;Germany;Baden-Wurtemberg;Región de Friburgo;Tengen;TENGEN;9.5;9.8
11/05/17 00:00;DEZ1275;Eurdep;air;47.74;7.55;224.4;Germany;Baden-Wurtemberg;Región de Friburgo;Bad Bellingen;BAD BELLINGEN;8.5;8.7
11/05/17 00:00;DEZ1276;Eurdep;air;47.66;7.54;236.0;Germany;Baden-Wurtemberg;Región de Friburgo;Efringen-Kirchen;EFRINGEN-KIRCHEN OT ISTEIN;8.7;9.1
11/05/17 00:00;DEZ1277;Eurdep;air;47.74;7.81;0.0;Germany;0;0;0;ELBENSCHWAND OT LANGENSEE;13.7;14.0
11/05/17 00:00;DEZ1278;Eurdep;air;47.71;7.61;337.5;Germany;Baden-Wurtemberg;Región de Friburgo;Kandern;KANDERN ST TANNENKIRCH;11.4;11.0
11/05/17 00:00;DEZ1279;Eurdep;air;47.56;7.78;280.0;Germany;Baden-Wurtemberg;Región de Friburgo;Rheinfelden;RHEINFELDEN;9.2;9.8
11/05/17 00:00;DEZ1280;Eurdep;air;47.65;7.83;379.3;Germany;Baden-Wurtemberg;Región de Friburgo;Schopfheim;SCHOPFHEIM;12.2;12.0
11/05/17 00:00;DEZ1283;Eurdep;air;47.84;7.88;842.6;Germany;Baden-Wurtemberg;Región de Friburgo;Wieden;WIEDEN;12.5;12.0
11/05/17 00:00;DEZ1284;Eurdep;air;47.54;7.67;263.7;Germany;Baden-Wurtemberg;Región de Friburgo;Grenzach-Wyhlen;GRENZACH-WYHLEN OT GRENZ.;8.2;8.7
11/05/17 00:00;DEZ1286;Eurdep;air;47.82;8.34;848.7;Germany;Baden-Wurtemberg;Región de Friburgo;Bonndorf;BONNDORF;10.4;10.0
11/05/17 00:00;DEZ1293;Eurdep;air;47.74;8.44;469.9;Germany;Baden-Wurtemberg;Región de Friburgo;Stühlingen;STÜHLINGEN;9.1;9.6
11/05/17 00:00;DEZ1298;Eurdep;air;48.28;9.48;664.0;Germany;Baden-Wurtemberg;Región de Tubinga;Hayingen;HAYINGEN;9.4;9.7
11/05/17 00:00;DEZ1300;Eurdep;air;48.41;9.53;810.2;Germany;Baden-Wurtemberg;Región de Tubinga;Münsingen;MÜNSINGEN ST AUINGEN;9.1;9.5
11/05/17 00:00;DEZ1301;Eurdep;air;48.48;9.23;406.1;Germany;Baden-Wurtemberg;Región de Tubinga;Pfullingen;PFULLINGEN;7.6;8.0
11/05/17 00:00;DEZ1302;Eurdep;air;48.48;9.4;604.9;Germany;Baden-Wurtemberg;Región de Tubinga;Bad Urach;BAD URACH;6.4;6.6
11/05/17 00:00;DEZ1303;Eurdep;air;48.35;9.33;750.7;Germany;Baden-Wurtemberg;Región de Tubinga;Hohenstein;HOHENSTEIN;10.5;10.0
11/05/17 00:00;DEZ1305;Eurdep;air;48.4;9.05;470.9;Germany;Baden-Wurtemberg;Región de Tubinga;Mössingen;MÖSSINGEN;9.8;10.0
11/05/17 00:00;DEZ1309;Eurdep;air;48.27;8.85;519.0;Germany;Baden-Wurtemberg;Región de Tubinga;Balingen;BALINGEN;11.4;11.0
08/05/17 22:00;DEZ1310;Eurdep;air;48.29;9.14;719.9;Germany;Baden-Wurtemberg;Región de Tubinga;Burladingen;BURLADINGEN;0.0;0.0
08/05/17 22:00;DEZ1311;Eurdep;air;48.35;8.78;498.0;Germany;Baden-Wurtemberg;Región de Tubinga;Haigerloch;HAIGERLOCH ST GRUOL;0.0;0.0
11/05/17 00:00;DEZ1313;Eurdep;air;48.21;8.77;648.4;Germany;Baden-Wurtemberg;Región de Tubinga;Schömberg;SCHÖMBERG;10.7;11.0
11/05/17 00:00;DEZ1314;Eurdep;air;48.21;9.0;0.0;Germany;0;0;0;ALBSTADT ST EBINGEN;8.7;9.1
11/05/17 00:00;DEZ1317;Eurdep;air;48.47;9.94;600.2;Germany;Baden-Wurtemberg;Región de Tubinga;Dornstadt;DORNSTADT;10.2;10.0
11/05/17 00:00;DEZ1318;Eurdep;air;48.27;9.73;494.2;Germany;Baden-Wurtemberg;Región de Tubinga;Ehingen;EHINGEN;8.9;9.4
11/05/17 00:00;DEZ1323;Eurdep;air;48.37;9.74;533.4;Germany;Baden-Wurtemberg;Región de Tubinga;Schelklingen;SCHELKLINGEN;7.2;7.4
11/05/17 00:00;DEZ1327;Eurdep;air;48.11;9.42;544.6;Germany;Baden-Wurtemberg;Región de Tubinga;Ertingen;ERTINGEN OT BINZWANGEN;8.9;9.0
11/05/17 00:00;DEZ1328;Eurdep;air;48.18;9.97;522.2;Germany;Baden-Wurtemberg;Región de Tubinga;Schwendi;SCHWENDI;8.8;9.0
11/05/17 00:00;DEZ1331;Eurdep;air;48.2;9.78;514.2;Germany;Baden-Wurtemberg;Región de Tubinga;Schemmerhofen;SCHEMMERHOFEN OT INGERK.;10.9;11.0
11/05/17 00:00;DEZ1335;Eurdep;air;47.59;9.6;407.3;Germany;Baden-Wurtemberg;Región de Tubinga;Kressbronn;KRESSBRONN;8.4;8.7
11/05/17 00:00;DEZ1337;Eurdep;air;47.78;9.15;491.1;Germany;Baden-Wurtemberg;Región de Tubinga;Überlingen;ÜBERLINGEN;9.2;9.0
11/05/17 00:00;DEZ1338;Eurdep;air;47.8;9.43;665.7;Germany;Baden-Wurtemberg;Región de Tubinga;Deggenhausertal;DEGGENHAUSERTAL OT LIMP.;9.0;9.3
11/05/17 00:00;DEZ1339;Eurdep;air;47.94;10.09;595.7;Germany;Baden-Wurtemberg;Región de Tubinga;Aitrach;AITRACH;8.5;8.8
11/05/17 00:00;DEZ1345;Eurdep;air;47.82;10.02;658.6;Germany;Baden-Wurtemberg;Región de Tubinga;Leutkirch im Allgäu;LEUTKIRCH;8.9;9.2
08/05/17 22:00;DEZ1346;Eurdep;air;47.8;9.63;450.5;Germany;Baden-Wurtemberg;Región de Tubinga;Weingarten;RAVENSBURG;0.0;0.0
11/05/17 00:00;DEZ1348;Eurdep;air;47.82;9.79;637.8;Germany;Baden-Wurtemberg;Región de Tubinga;Wolfegg;WOLFEGG;9.4;9.7
11/05/17 00:00;DEZ1349;Eurdep;air;48.05;8.97;630.4;Germany;Baden-Wurtemberg;Región de Tubinga;Beuron;BEURON;9.3;9.7
11/05/17 00:00;DEZ1351;Eurdep;air;48.02;9.23;581.4;Germany;Baden-Wurtemberg;Región de Tubinga;Krauchenwies;KRAUCHENWIES OT ABLACH;8.7;8.9
11/05/17 00:00;DEZ1352;Eurdep;air;47.95;9.37;634.2;Germany;Baden-Wurtemberg;Región de Tubinga;Ostrach;OSTRACH;8.9;9.3
08/05/17 22:00;DEZ1354;Eurdep;air;48.09;9.22;575.9;Germany;Baden-Wurtemberg;Región de Tubinga;Sigmaringa;SIGMARINGEN;0.0;0.0
11/05/17 00:00;DEZ1355;Eurdep;air;48.12;9.08;805.7;Germany;Baden-Wurtemberg;Región de Tubinga;Stetten am kalten Markt;STETTEN A.K.M.;9.0;9.4
11/05/17 00:00;DEZ1356;Eurdep;air;47.95;9.03;640.1;Germany;Baden-Wurtemberg;Región de Tubinga;Sauldorf;SAULDORF OT BOLL;9.4;9.8
08/05/17 22:00;DEZ1357;Eurdep;air;47.86;9.24;614.4;Germany;Baden-Wurtemberg;Región de Tubinga;Herdwangen-Schönach;HERDWANGEN-SCHÖNACH;0.0;0.0
11/05/17 00:00;DEZ1360;Eurdep;air;48.15;11.45;527.2;Germany;Baviera;Alta Baviera;Múnich;MÜNCHEN-PASING;8.6;8.0
11/05/17 00:00;DEZ1361;Eurdep;air;48.09;11.66;544.3;Germany;Baviera;Alta Baviera;Múnich;München-Neuperlach;8.1;8.8
08/05/17 22:00;DEZ1365;Eurdep;air;48.21;12.88;362.5;Germany;Baviera;Alta Baviera;Haiming;HAIMING;0.0;0.0
11/05/17 00:00;DEZ1374;Eurdep;air;47.61;12.91;805.8;Germany;Baviera;Alta Baviera;Ramsau bei Berchtesgaden;RAMSAU;10.3;10.0
11/05/17 00:00;DEZ1381;Eurdep;air;47.56;11.44;785.2;Germany;Baviera;Alta Baviera;Lenggries;VORDERRIß II;9.1;9.8
11/05/17 00:00;DEZ1384;Eurdep;air;48.36;11.39;469.4;Germany;Baviera;Alta Baviera;Markt Indersdorf;MARKT INDERSDORF;9.3;9.7
11/05/17 00:00;DEZ1386;Eurdep;air;48.08;11.96;579.8;Germany;Baviera;Alta Baviera;Ebersberg;EBERSBERG;9.6;10.0
11/05/17 00:00;DEZ1394;Eurdep;air;48.82;11.09;423.9;Germany;Baviera;Alta Baviera;Wellheim;WELLHEIM;8.9;9.5
11/05/17 00:00;DEZ1399;Eurdep;air;48.3;11.84;464.2;Germany;Baviera;Alta Baviera;Oberding;NOTZING;8.1;8.0
11/05/17 00:00;DEZ1405;Eurdep;air;48.3;11.66;467.9;Germany;Baviera;Alta Baviera;Neufahrn bei Freising;NEUFAHRN BEI FREISING;8.0;8.5
11/05/17 00:00;DEZ1409;Eurdep;air;47.48;11.06;721.8;Germany;Baviera;Alta Baviera;Garmisch-Partenkirchen;GARMISCH-PARTENKIRCHEN;8.5;8.8
11/05/17 00:00;DEZ1419;Eurdep;air;48.07;11.03;584.6;Germany;Baviera;Alta Baviera;Windach;WINDACH;9.7;10.0
11/05/17 00:00;DEZ1422;Eurdep;air;47.72;11.96;862.1;Germany;Baviera;Alta Baviera;Fischbachau;FISCHBACHAU;9.8;10.0
11/05/17 00:00;DEZ1426;Eurdep;air;48.28;12.35;436.8;Germany;Baviera;Alta Baviera;Ampfing;STEFANSKIRCHEN;9.3;9.6
24/04/17 22:00;DEZ1429;Eurdep;air;48.24;12.53;379.1;Germany;Baviera;Alta Baviera;Mühldorf;MÜHLDORF AM INN;0.0;0.0
11/05/17 00:00;DEZ1430;Eurdep;air;48.36;12.51;441.0;Germany;Baviera;Alta Baviera;Neumarkt-Sankt Veit;NEUMARKT-ST.VEIT;9.5;9.9
11/05/17 00:00;DEZ1432;Eurdep;air;47.97;11.63;628.8;Germany;Baviera;Alta Baviera;Sauerlach;SAUERLACH;8.5;8.9
11/05/17 00:00;DEZ1438;Eurdep;air;48.5;11.36;0.0;Germany;0;0.0;0;GEROLSBACH;9.9;10.0
08/05/17 22:00;DEZ1445;Eurdep;air;47.74;12.12;461.6;Germany;Baviera;Alta Baviera;Brannenburg;BRANNENBURG;0.0;0.0
11/05/17 00:00;DEZ1447;Eurdep;air;47.8;12.29;608.0;Germany;Baviera;Alta Baviera;Frasdorf;FRASDORF;9.9;10.0
11/05/17 00:00;DEZ1450;Eurdep;air;47.98;12.05;507.8;Germany;Baviera;Alta Baviera;Emmering;KRONAU;8.9;9.0
11/05/17 00:00;DEZ1451;Eurdep;air;48.06;12.22;452.6;Germany;Baviera;Alta Baviera;Wasserburg am Inn;WASSERBURG AM INN;8.9;9.3
08/05/17 22:00;DEZ1453;Eurdep;air;48.07;11.25;598.3;Germany;Baviera;Alta Baviera;Weßling;WEßLING;0.0;0.0
08/05/17 22:00;DEZ1455;Eurdep;air;47.78;12.45;;Germany;Baviera;Alta Baviera;Grassau;GRASSAU;0.0;0.0
11/05/17 00:00;DEZ1460;Eurdep;air;47.67;12.47;674.6;Germany;Baviera;Alta Baviera;Reit;REIT IM WINKL;9.5;10.0
11/05/17 00:00;DEZ1461;Eurdep;air;47.73;12.66;715.9;Germany;Baviera;Alta Baviera;Ruhpolding;RUHPOLDING OT LAUBAU;8.7;9.0
11/05/17 00:00;DEZ1462;Eurdep;air;47.7;12.4;759.3;Germany;Baviera;Alta Baviera;Schleching;SCHLECHING;10.0;10.0
11/05/17 00:00;DEZ1469;Eurdep;air;47.82;11.3;600.0;Germany;Baviera;Alta Baviera;Seeshaupt;SEESHAUPT;9.2;9.5
08/05/17 22:00;DEZ1470;Eurdep;air;47.83;11.17;588.0;Germany;Baviera;Alta Baviera;Weilheim in Oberbayern;WEILHEIM OT DEUTENHAUSEN;0.0;0.0
11/05/17 00:00;DEZ1488;Eurdep;air;48.95;11.68;384.9;Germany;Baviera;Niederbayern;Riedenburg;RIEDENBURG;8.9;9.2
11/05/17 00:00;DEZ1490;Eurdep;air;48.55;12.26;493.0;Germany;Baviera;Niederbayern;Adlkofen;ADLKOFEN;11.1;11.0
11/05/17 00:00;DEZ1492;Eurdep;air;48.57;12.17;389.1;Germany;Baviera;Niederbayern;Ergolding;ERGOLDING;9.3;9.7
11/05/17 00:00;DEZ1495;Eurdep;air;48.59;12.23;379.1;Germany;Baviera;Niederbayern;Essenbach;OHU;10.4;10.0
11/05/17 00:00;DEZ1496;Eurdep;air;48.64;12.27;400.9;Germany;Baviera;Niederbayern;Essenbach;METTENBACH;9.3;9.5
11/05/17 00:00;DEZ1497;Eurdep;air;48.47;12.27;476.7;Germany;Baviera;Niederbayern;Geisenhausen;GEISENHAUSEN;10.2;10.0
11/05/17 00:00;DEZ1498;Eurdep;air;48.51;12.42;457.8;Germany;Baviera;Niederbayern;Gerzen;GERZEN;11.4;11.0
11/05/17 00:00;DEZ1502;Eurdep;air;48.65;12.33;390.5;Germany;Baviera;Niederbayern;Postau;POSTAU;9.4;9.8
11/05/17 00:00;DEZ1507;Eurdep;air;48.52;12.0;0.0;Germany;0;0;0;BRUCKBERG;9.1;9.4
11/05/17 00:00;DEZ1511;Eurdep;air;48.72;13.33;555.4;Germany;Baviera;Niederbayern;Fürstenstein;FÜRSTENSTEIN;15.4;15.0
11/05/17 00:00;DEZ1523;Eurdep;air;49.04;12.99;454.9;Germany;Baviera;Niederbayern;Teisnach;TEISNACH;14.8;15.0
11/05/17 00:00;DEZ1530;Eurdep;air;48.44;12.57;451.3;Germany;Baviera;Niederbayern;Gangkofen;GANGKOFEN;10.0;10.0
11/05/17 00:00;DEZ1531;Eurdep;air;48.24;12.98;340.4;Germany;Baviera;Niederbayern;Kirchdorf am Inn;KIRCHDORF AM INN;9.6;10.0
11/05/17 00:00;DEZ1532;Eurdep;air;48.48;12.84;441.6;Germany;Baviera;Niederbayern;Schönau;SCHÖNAU 1;11.8;12.0
10/05/17 21:00;DEZ1534;Eurdep;air;48.38;12.96;464.3;Germany;Baviera;Niederbayern;Triftern;NEUKIRCHEN BEI PFARRKIRCHEN;10.9;11.0
08/05/17 22:00;DEZ1537;Eurdep;air;48.94;12.72;358.0;Germany;Baviera;Niederbayern;Hunderdorf;HUNDERDORF;0.0;0.0
11/05/17 00:00;DEZ1544;Eurdep;air;48.63;12.86;360.2;Germany;Baviera;Niederbayern;Eichendorf;EICHENDORF;8.9;9.4
11/05/17 00:00;DEZ1550;Eurdep;air;48.74;12.75;335.9;Germany;Baviera;Niederbayern;Wallersdorf;WALLERSDORF;10.6;11.0
11/05/17 00:00;DEZ1553;Eurdep;air;49.04;12.1;331.3;Germany;Baviera;Alto Palatinado;Ratisbona;REGENSBURG;9.2;9.8
11/05/17 00:00;DEZ1559;Eurdep;air;49.26;11.93;355.5;Germany;Baviera;Alto Palatinado;Schmidmühlen;SCHMIDMÜHLEN;10.0;10.0
11/05/17 00:00;DEZ1560;Eurdep;air;49.5;11.74;398.0;Germany;Baviera;Alto Palatinado;Sulzbach-Rosenberg;SULZBACH-ROSENBERG;9.6;9.9
11/05/17 00:00;DEZ1568;Eurdep;air;49.2;13.05;589.7;Germany;Baviera;Alto Palatinado;Lam;LAM;13.8;14.0
11/05/17 00:00;DEZ1572;Eurdep;air;49.36;12.61;464.9;Germany;Baviera;Alto Palatinado;Schönthal;SCHÖNTHAL;13.2;13.0
11/05/17 00:00;DEZ1583;Eurdep;air;49.16;11.73;498.2;Germany;Baviera;Alto Palatinado;Parsberg;PARSBERG;9.3;9.7
11/05/17 00:00;DEZ1586;Eurdep;air;49.29;11.62;501.4;Germany;Baviera;Alto Palatinado;Velburg;VELBURG OT UNTERWIESENACKER;8.5;8.8
11/05/17 00:00;DEZ1604;Eurdep;air;48.84;12.19;366.4;Germany;Baviera;Alto Palatinado;Schierling;SCHIERLING-EGGMÜHL;8.8;9.2
11/05/17 00:00;DEZ1607;Eurdep;air;49.25;12.3;381.3;Germany;Baviera;Alto Palatinado;Bruck in der Oberpfalz;BRUCK IN DER OBERPFALZ;10.7;11.0
11/05/17 00:00;DEZ1608;Eurdep;air;49.2;12.06;389.6;Germany;Baviera;Alto Palatinado;Burglengenfeld;BURGLENGENFELD;10.8;11.0
11/05/17 00:00;DEZ1615;Eurdep;air;49.51;12.54;641.0;Germany;Baviera;Alto Palatinado;Schönsee;SCHÖNSEE;10.3;10.0
11/05/17 00:00;DEZ1617;Eurdep;air;49.4;12.14;361.3;Germany;Baviera;Alto Palatinado;Schwarzenfeld;SCHWARZENFELD;11.3;11.0
11/05/17 00:00;DEZ1620;Eurdep;air;49.81;12.44;618.0;Germany;Baviera;Alto Palatinado;Bärnau;BÄRNAU;12.4;12.0
11/05/17 00:00;DEZ1626;Eurdep;air;49.88;12.34;490.0;Germany;Baviera;Alto Palatinado;Tirschenreuth;TIRSCHENREUTH;12.3;13.0
11/05/17 00:00;DEZ1627;Eurdep;air;50.0;12.3;0.0;Germany;0;0;0;WALDSASSEN;11.8;12.0
11/05/17 00:00;DEZ1632;Eurdep;air;49.99;10.85;240.5;Germany;Baviera;Alta Franconia;Baunach;BAUNACH;9.7;10.0
11/05/17 00:00;DEZ1635;Eurdep;air;49.89;11.11;458.4;Germany;Baviera;Alta Franconia;Heiligenstadt in Oberfranken;HEILIGENSTADT I. OFR.;8.4;8.7
11/05/17 00:00;DEZ1637;Eurdep;air;49.97;11.03;302.5;Germany;Baviera;Alta Franconia;Scheßlitz;SCHEßLITZ;10.3;10.0
11/05/17 00:00;DEZ1638;Eurdep;air;50.0;11.2;0.0;Germany;0;0;0;STADELHOFEN;9.1;9.5
11/05/17 00:00;DEZ1640;Eurdep;air;49.85;11.62;444.0;Germany;Baviera;Alta Franconia;Creußen;CREUßEN;8.4;8.9
11/05/17 00:00;DEZ1646;Eurdep;air;49.77;11.41;419.7;Germany;Baviera;Alta Franconia;Pottenstein;POTTENSTEIN;9.0;9.5
11/05/17 00:00;DEZ1648;Eurdep;air;49.87;11.33;453.7;Germany;Baviera;Alta Franconia;Waischenfeld;WAISCHENFELD OT NANKENDORF;9.0;9.4
11/05/17 00:00;DEZ1650;Eurdep;air;50.32;10.9;320.7;Germany;Baviera;Alta Franconia;Meeder;MEEDER;12.1;12.0
08/05/17 22:00;DEZ1651;Eurdep;air;50.33;11.1;342.7;Germany;Baviera;Alta Franconia;Neustadt;NEUSTADT BEI COBURG;0.0;0.0
11/05/17 00:00;DEZ1656;Eurdep;air;49.78;11.19;296.3;Germany;Baviera;Alta Franconia;Ebermannstadt;EBERMANNSTADT;8.6;8.8
11/05/17 00:00;DEZ1657;Eurdep;air;49.65;11.24;491.2;Germany;Baviera;Alta Franconia;Gräfenberg;GRÄFENBERG;10.5;10.0
11/05/17 00:00;DEZ1661;Eurdep;air;50.34;11.6;623.8;Germany;Baviera;Alta Franconia;Geroldsgrün;GEROLDSGRÜN;8.0;8.0
11/05/17 00:00;DEZ1675;Eurdep;air;50.4;11.38;605.3;Germany;Baviera;Alta Franconia;Teuschnitz;TEUSCHNITZ;11.0;11.0
08/05/17 22:00;DEZ1683;Eurdep;air;50.07;11.09;503.3;Germany;Baviera;Alta Franconia;Bad Staffelstein;BAD STAFFELSTEIN;0.0;0.0
10/05/17 23:00;DEZ1685;Eurdep;air;50.0;12.07;0.0;Germany;0;0;0;MARKTREDWITZ;11.8;12.0
11/05/17 00:00;DEZ1689;Eurdep;air;49.32;10.57;489.9;Germany;Baviera;Franconia Media;Ansbach;ANSBACH;10.9;11.0
11/05/17 00:00;DEZ1694;Eurdep;air;49.44;10.17;422.3;Germany;Baviera;Franconia Media;Adelshofen;ADELSHOFEN;10.2;10.0
11/05/17 00:00;DEZ1698;Eurdep;air;49.07;10.32;442.7;Germany;Baviera;Franconia Media;Dinkelsbühl;DINKELSBÜHL;10.6;11.0
11/05/17 00:00;DEZ1699;Eurdep;air;49.2;10.31;461.7;Germany;Baviera;Franconia Media;Feuchtwangen;FEUCHTWANGEN OT BANZENWEILER;12.6;12.0
11/05/17 00:00;DEZ1700;Eurdep;air;49.06;10.5;450.1;Germany;Baviera;Franconia Media;Gerolfingen;GEROLFINGEN;9.8;10.0
11/05/17 00:00;DEZ1701;Eurdep;air;49.34;10.79;404.9;Germany;Baviera;Franconia Media;Heilsbronn;HEILSBRONN;10.6;10.0
11/05/17 00:00;DEZ1709;Eurdep;air;49.62;10.83;318.4;Germany;Baviera;Franconia Media;Weisendorf;WEISENDORF;11.1;11.0
08/05/17 22:00;DEZ1719;Eurdep;air;49.44;10.33;360.0;Germany;Baviera;Franconia Media;Burgbernheim;BURGBERNHEIM;0.0;0.0
11/05/17 00:00;DEZ1720;Eurdep;air;49.73;10.6;311.9;Germany;Baviera;Franconia Media;Burghaslach;BURGHASLACH;11.3;11.0
11/05/17 00:00;DEZ1721;Eurdep;air;49.58;10.62;323.6;Germany;Baviera;Franconia Media;Neustadt an der Aisch;NEUSTADT AN DER AISCH;10.8;11.0
11/05/17 00:00;DEZ1723;Eurdep;air;49.67;10.46;305.5;Germany;Baviera;Franconia Media;Scheinfeld;SCHEINFELD;11.1;11.0
08/05/17 22:00;DEZ1724;Eurdep;air;49.6;10.44;317.1;Germany;Baviera;Franconia Media;Sugenheim;SUGENHEIM;0.0;0.0
11/05/17 00:00;DEZ1728;Eurdep;air;49.13;11.11;416.3;Germany;Baviera;Franconia Media;Heideck;HEIDECK;9.6;9.8
11/05/17 00:00;DEZ1734;Eurdep;air;49.02;10.74;541.5;Germany;Baviera;Franconia Media;Heidenheim;HEIDENHEIM AM HAHNE;9.2;9.6
11/05/17 00:00;DEZ1736;Eurdep;air;49.01;11.13;553.0;Germany;Baviera;Franconia Media;Raitenbuch;RAITENBUCH;11.1;11.0
11/05/17 00:00;DEZ1740;Eurdep;air;50.04;10.21;222.3;Germany;Baviera;Baja Franconia;Schweinfurt;SCHWEINFURT;11.4;11.0
11/05/17 00:00;DEZ1741;Eurdep;air;49.77;9.96;221.1;Germany;Baviera;Baja Franconia;Wurzburgo;WÜRZBURG;9.0;9.4
08/05/17 22:00;DEZ1743;Eurdep;air;50.0;9.17;0.0;Germany;0;0;0;GOLDBACH;0.0;0.0
11/05/17 00:00;DEZ1755;Eurdep;air;50.2;9.96;275.2;Germany;Baviera;Baja Franconia;Oberthulba;OBERTHULBA;12.0;12.0
11/05/17 00:00;DEZ1760;Eurdep;air;50.36;10.46;297.3;Germany;Baviera;Baja Franconia;Höchheim;HÖCHHEIM OT IRMELSHAUSEN;11.4;12.0
11/05/17 00:00;DEZ1766;Eurdep;air;50.36;10.23;311.9;Germany;Baviera;Baja Franconia;Wollbach;WOLLBACH;9.5;9.9
11/05/17 00:00;DEZ1772;Eurdep;air;50.2;10.66;347.8;Germany;Baviera;Baja Franconia;Maroldsweisach;MAROLDSWEISACH;11.2;11.0
11/05/17 00:00;DEZ1773;Eurdep;air;49.89;10.55;320.3;Germany;Baviera;Baja Franconia;Rauhenebrach;RAUHENEBRACH OT UNTERSTEINBACH;11.4;11.0
11/05/17 00:00;DEZ1775;Eurdep;air;49.64;10.22;250.7;Germany;Baviera;Baja Franconia;Seinsheim;SEINSHEIM;10.4;10.0
11/05/17 00:00;DEZ1778;Eurdep;air;49.78;9.38;141.1;Germany;Baviera;Baja Franconia;Dorfprozelten;DORFPROZELTEN;9.4;10.0
08/05/17 22:00;DEZ1780;Eurdep;air;49.72;9.21;129.8;Germany;Baviera;Baja Franconia;Kleinheubach;KLEINHEUBACH;0.0;0.0
11/05/17 00:00;DEZ1783;Eurdep;air;49.98;9.96;236.4;Germany;Baviera;Baja Franconia;Arnstein;ARNSTEIN;9.9;10.0
11/05/17 00:00;DEZ1785;Eurdep;air;50.06;9.69;155.8;Germany;Baviera;Baja Franconia;Gemünden am Main;GEMÜNDEN AM MAIN;10.4;10.0
11/05/17 00:00;DEZ1788;Eurdep;air;49.85;9.63;231.4;Germany;Baviera;Baja Franconia;Karbach;MARKTHEIDENFELD;9.2;9.7
11/05/17 00:00;DEZ1789;Eurdep;air;49.95;9.67;277.0;Germany;Baviera;Baja Franconia;Steinfeld;STEINFELD;10.2;10.0
11/05/17 00:00;DEZ1793;Eurdep;air;49.99;10.31;241.7;Germany;Baviera;Baja Franconia;Grettstadt;GRETTSTADT;8.8;9.1
11/05/17 00:00;DEZ1794;Eurdep;air;49.92;10.23;233.5;Germany;Baviera;Baja Franconia;Kolitzheim;KOLITZHEIM;10.6;11.0
11/05/17 00:00;DEZ1797;Eurdep;air;50.04;10.0;0.0;Germany;0;0;0;WASSERLOSEN / BURGHAUSEN;10.6;11.0
08/05/17 22:00;DEZ1799;Eurdep;air;49.61;9.91;268.6;Germany;Baviera;Baja Franconia;Bütthard;BÜTTHARD OT HÖTTINGEN;0.0;0.0
11/05/17 00:00;DEZ1801;Eurdep;air;49.76;9.71;289.3;Germany;Baviera;Baja Franconia;Helmstadt;HELMSTADT;9.5;9.8
11/05/17 00:00;DEZ1804;Eurdep;air;49.85;10.04;271.5;Germany;Baviera;Baja Franconia;Kürnach;KÜRNACH;10.6;11.0
11/05/17 00:00;DEZ1807;Eurdep;air;49.51;9.97;241.9;Germany;Baviera;Baja Franconia;Röttingen;RÖTTINGEN;10.1;10.0
11/05/17 00:00;DEZ1808;Eurdep;air;49.88;9.84;169.0;Germany;Baviera;Baja Franconia;Thüngersheim;THÜNGERSHEIM;9.3;9.7
11/05/17 00:00;DEZ1812;Eurdep;air;47.72;10.34;718.5;Germany;Baviera;Suabia;Kempten;KEMPTEN;11.0;11.0
11/05/17 00:00;DEZ1824;Eurdep;air;48.17;10.6;556.3;Germany;Baviera;Suabia;Mittelneufnach;MITTELNEUFNACH;10.1;10.0
11/05/17 00:00;DEZ1825;Eurdep;air;48.4;10.61;452.5;Germany;Baviera;Suabia;Zusmarshausen;ZUSMARSHAUSEN;8.7;9.0
11/05/17 00:00;DEZ1827;Eurdep;air;48.49;10.44;475.4;Germany;Baviera;Suabia;Aislingen;BAUMGARTEN;9.3;9.7
11/05/17 00:00;DEZ1828;Eurdep;air;48.57;10.5;422.1;Germany;Baviera;Suabia;Dilinga;DILLINGEN A. D. DONAU;9.0;9.4
11/05/17 00:00;DEZ1833;Eurdep;air;48.46;10.26;442.8;Germany;Baviera;Suabia;Gunzburgo;GÜNZBURG;8.8;9.0
11/05/17 00:00;DEZ1834;Eurdep;air;48.37;10.3;469.5;Germany;Baviera;Suabia;Ichenhausen;ICHENHAUSEN;8.1;8.5
11/05/17 00:00;DEZ1835;Eurdep;air;48.38;10.44;488.7;Germany;Baviera;Suabia;Jettingen-Scheppach;JETTINGEN-SCHEPPACH;8.8;9.3
11/05/17 00:00;DEZ1838;Eurdep;air;48.27;10.47;498.7;Germany;Baviera;Suabia;Thannhausen;THANNHAUSEN;7.6;8.0
11/05/17 00:00;DEZ1840;Eurdep;air;48.43;10.15;473.7;Germany;Baviera;Suabia;Nersingen;OBERFAHLHEIM;10.1;10.0
11/05/17 00:00;DEZ1841;Eurdep;air;48.34;10.04;483.1;Germany;Baviera;Suabia;Nuevo Ulm;GERLENHOFEN;9.4;9.0
11/05/17 00:00;DEZ1842;Eurdep;air;48.3;10.17;532.9;Germany;Baviera;Suabia;Weißenhorn;WEIßENHORN;9.3;9.6
08/05/17 22:00;DEZ1844;Eurdep;air;47.6;9.88;771.5;Germany;Baviera;Suabia;Lindenberg im Allgäu;LINDENBERG IM ALLGÄU;0.0;0.0
11/05/17 00:00;DEZ1846;Eurdep;air;48.03;10.72;622.0;Germany;Baviera;Suabia;Buchloe;BUCHLOE;9.0;10.0
11/05/17 00:00;DEZ1847;Eurdep;air;47.7;10.52;840.6;Germany;Baviera;Suabia;Görisried;GÖRISRIED;9.8;10.0
11/05/17 00:00;DEZ1851;Eurdep;air;47.85;10.41;759.1;Germany;Baviera;Suabia;Obergünzburg;OBERGÜNZBURG;10.2;10.0
11/05/17 00:00;DEZ1854;Eurdep;air;48.03;10.34;602.6;Germany;Baviera;Suabia;Erkheim;ERKHEIM;9.1;9.5
11/05/17 00:00;DEZ1858;Eurdep;air;47.99;10.21;619.0;Germany;Baviera;Suabia;Memmingerberg;MEMMINGERBERG;10.1;10.0
11/05/17 00:00;DEZ1859;Eurdep;air;48.04;10.49;604.7;Germany;Baviera;Suabia;Mindelheim;MINDELHEIM;9.6;10.0
11/05/17 00:00;DEZ1864;Eurdep;air;48.96;10.61;418.2;Germany;Baviera;Suabia;Oettingen in Bayern;HAINSFARTH;10.1;10.0
11/05/17 00:00;DEZ1865;Eurdep;air;48.78;10.7;408.0;Germany;Baviera;Suabia;Harburg;HARBURG;7.3;7.0
11/05/17 00:00;DEZ1866;Eurdep;air;48.84;10.85;511.8;Germany;Baviera;Suabia;Monheim;MONHEIM;9.8;10.0
11/05/17 00:00;DEZ1867;Eurdep;air;48.85;10.51;431.7;Germany;Baviera;Suabia;Nördlingen;NÖRDLINGEN;11.1;11.0
11/05/17 00:00;DEZ1869;Eurdep;air;48.87;10.73;471.7;Germany;Baviera;Suabia;Wemding;WEMDING;9.2;9.4
11/05/17 00:00;DEZ1870;Eurdep;air;47.49;10.39;880.2;Germany;Baviera;Suabia;Bad Hindelang;BAD HINDELANG OT BAD OBERDORF;9.0;9.6
11/05/17 00:00;DEZ1873;Eurdep;air;47.4;10.28;813.3;Germany;Baviera;Suabia;Oberstdorf;OBERSTDORF;9.3;10.0
11/05/17 00:00;DEZ1874;Eurdep;air;47.64;10.13;800.7;Germany;Baviera;Suabia;Weitnau;WEITNAU;9.6;10.0
11/05/17 00:00;DEZ1877;Eurdep;air;49.23;6.92;254.7;Germany;Sarre;;Sarrebruck;SAARBRÜCKEN-GERSWEILER;10.9;11.0
11/05/17 00:00;DEZ1883;Eurdep;air;49.42;6.76;254.8;Germany;Sarre;;Beckingen;BECKINGEN-DÜPPENWEILER;11.1;11.0
11/05/17 00:00;DEZ1884;Eurdep;air;49.55;6.73;514.9;Germany;Sarre;;Losheim am See;LOSHEIM-SCHEIDEN;9.7;10.0
11/05/17 00:00;DEZ1885;Eurdep;air;49.43;6.58;365.1;Germany;Sarre;;Merzig;MERZIG-SILWINGEN;11.2;11.0
11/05/17 00:00;DEZ1886;Eurdep;air;49.49;6.62;279.1;Germany;Sarre;;Mettlach;METTLACH;9.4;10.0
11/05/17 00:00;DEZ1887;Eurdep;air;49.5;6.5;361.9;Germany;Sarre;;Mettlach;METTLACH-ORSCHOLZ;9.9;10.0
11/05/17 00:00;DEZ1888;Eurdep;air;49.5;6.44;358.8;Germany;Sarre;;Perl;PERL-BORG;8.7;9.1
11/05/17 00:00;DEZ1892;Eurdep;air;49.4;7.17;286.7;Germany;Sarre;;Ottweiler;OTTWEILER;10.7;11.0
11/05/17 00:00;DEZ1894;Eurdep;air;49.39;6.9;315.9;Germany;Sarre;;Lebach;LEBACH-EIDENBORN;10.7;11.0
11/05/17 00:00;DEZ1895;Eurdep;air;49.36;6.62;208.4;Germany;Sarre;;Rehlingen-Siersburg;REHLINGEN-SIERSBURG-HEMMERSDORF;10.6;11.0
11/05/17 00:00;DEZ1897;Eurdep;air;49.26;6.69;317.5;Germany;Sarre;;Überherrn;ÜBERHERRN-BERUS;9.6;10.0
11/05/17 00:00;DEZ1898;Eurdep;air;49.32;6.66;373.2;Germany;Sarre;;Wallerfangen;WALLERFANGEN-KERLINGEN;10.1;10.0
11/05/17 00:00;DEZ1899;Eurdep;air;49.28;6.79;200.6;Germany;Sarre;;Bous;BOUS;10.3;10.0
11/05/17 00:00;DEZ1900;Eurdep;air;49.24;7.27;218.7;Germany;Sarre;;Blieskastel;BLIESKASTEL-WEBENHEIM;11.0;11.0
11/05/17 00:00;DEZ1901;Eurdep;air;49.15;7.22;247.9;Germany;Sarre;;Gersheim;GERSHEIM;11.6;12.0
11/05/17 00:00;DEZ1903;Eurdep;air;49.31;7.34;247.2;Germany;Sarre;;Homburg;HOMBURG/SAAR;9.7;10.0
11/05/17 00:00;DEZ1906;Eurdep;air;49.55;7.25;461.0;Germany;Sarre;;Freisen;FREISEN;12.6;13.0
11/05/17 00:00;DEZ1913;Eurdep;air;47.57;10.96;945.8;Germany;Baviera;Alta Baviera;Ettal;LINDERHOF;8.1;8.4
11/05/17 00:00;DEZ1914;Eurdep;air;47.46;11.18;1001.6;Germany;Baviera;Alta Baviera;Krün;KLAIS OT ELMAU;12.4;12.0
11/05/17 00:00;DEZ1915;Eurdep;air;47.64;11.75;803.3;Germany;Baviera;Alta Baviera;Kreuth;KREUTH;9.5;9.9
11/05/17 00:00;DEZ1917;Eurdep;air;48.24;11.55;487.1;Germany;Baviera;Alta Baviera;Oberschleißheim;OBERSCHLEIßHEIM;8.0;8.6
11/05/17 00:00;DEZ1918;Eurdep;air;48.08;11.37;583.8;Germany;Baviera;Alta Baviera;Gauting;GAUTING;8.6;9.0
11/05/17 00:00;DEZ1919;Eurdep;air;48.83;13.78;815.4;Germany;Baviera;Niederbayern;Haidmühle;HAIDMÜHLE;17.5;18.0
11/05/17 00:00;DEZ1921;Eurdep;air;48.93;13.46;895.8;Germany;Baviera;Niederbayern;Neuschönau;WALDHÄUSER;12.0;12.0
11/05/17 00:00;DEZ1930;Eurdep;air;48.47;10.49;466.3;Germany;Baviera;Suabia;Winterbach;WINTERBACH;9.0;9.3
11/05/17 00:00;DEZ1934;Eurdep;air;47.56;10.74;797.5;Germany;Baviera;Suabia;Schwangau;HOHENSCHWANGAU;8.7;9.0
11/05/17 00:00;DEZ1939;Eurdep;air;52.45;10.94;56.8;Germany;Baja Sajonia;;Grafhorst;GRAFHORST;8.3;8.6
11/05/17 00:00;DEZ1940;Eurdep;air;52.1;10.87;115.2;Germany;Baja Sajonia;;Ingeleben;INGELEBEN;9.4;10.0
11/05/17 00:00;DEZ1945;Eurdep;air;53.44;9.91;85.6;Germany;Baja Sajonia;;Rosengarten;VAHRENDORF;7.5;7.8
11/05/17 00:00;DEZ1946;Eurdep;air;53.38;10.11;20.9;Germany;Baja Sajonia;;Stelle;STELLE/HARBURG;6.9;7.2
11/05/17 00:00;DEZ1947;Eurdep;air;53.03;11.3;19.6;Germany;Baja Sajonia;;Trebel;GEDELITZ;6.4;6.8
11/05/17 00:00;DEZ1949;Eurdep;air;51.83;6.54;18.0;Germany;Renania del Norte-Westfalia;Münster;Bocholt;BOCHOLT-LIEDERN;7.0;7.4
11/05/17 00:00;DEZ1950;Eurdep;air;51.82;6.93;66.3;Germany;Renania del Norte-Westfalia;Münster;Heiden;HEIDEN;6.7;7.1
11/05/17 00:00;DEZ1953;Eurdep;air;52.02;8.59;95.0;Germany;Renania del Norte-Westfalia;Región de Detmold;Bielefeld;BIELEFELD;7.2;7.4
11/05/17 00:00;DEZ1954;Eurdep;air;51.96;8.37;78.0;Germany;Renania del Norte-Westfalia;Región de Detmold;Gütersloh;GÜTERSLOH-HOLLEN;6.2;6.0
11/05/17 00:00;DEZ1955;Eurdep;air;51.63;9.29;211.0;Germany;Renania del Norte-Westfalia;Región de Detmold;Beverungen;BEVERUNGEN-DAHLHAUSEN;9.8;10.0
11/05/17 00:00;DEZ1956;Eurdep;air;51.7;9.28;129.8;Germany;Renania del Norte-Westfalia;Región de Detmold;Höxter;HÖXTER-BRUCHHAUSEN;9.5;9.9
11/05/17 00:00;DEZ1961;Eurdep;air;51.49;6.96;39.4;Germany;Renania del Norte-Westfalia;Región de Düsseldorf;Essen;ESSEN-BERGEBORBECK;8.5;8.8
11/05/17 00:00;DEZ1964;Eurdep;air;51.27;6.37;59.8;Germany;Renania del Norte-Westfalia;Región de Düsseldorf;Viersen;VIERSEN;8.2;8.5
11/05/17 00:00;DEZ1967;Eurdep;air;50.91;6.41;96.3;Germany;Renania del Norte-Westfalia;Región de Colonia;Jülich;JÜLICH;8.3;8.6
11/05/17 00:00;DEZ1968;Eurdep;air;50.98;6.68;84.6;Germany;Renania del Norte-Westfalia;Región de Colonia;Bergheim;BERGHEIM-NIEDERAUßEM;9.3;9.6
11/05/17 00:00;DEZ1971;Eurdep;air;50.59;6.66;288.9;Germany;Renania del Norte-Westfalia;Región de Colonia;Mechernich;MECHERNICH;9.6;10.0
11/05/17 00:00;DEZ1975;Eurdep;air;49.21;7.11;316.9;Germany;Sarre;;Sarrebruck;SAARBRÜCKEN-ENSHEIM;10.4;10.0
08/05/17 22:00;DEZ1977;Eurdep;air;49.2;12.79;471.0;Germany;Baviera;Alto Palatinado;Chamerau;CHAMERAU OT LEDERDORN;0.0;0.0
11/05/17 00:00;DEZ1987;Eurdep;air;48.02;11.48;633.5;Germany;Baviera;Alta Baviera;Baierbrunn;BAIERBRUNN;10.0;10.0
11/05/17 00:00;DEZ1990;Eurdep;air;47.89;12.41;537.7;Germany;Baviera;Alta Baviera;Gstadt am Chiemsee;GSTADT AM CHIEMSEE;9.5;10.0
11/05/17 00:00;DEZ1994;Eurdep;air;48.91;13.09;657.9;Germany;Baviera;Niederbayern;Bischofsmais;BISCHOFSMAIS;13.7;14.0
11/05/17 00:00;DEZ1997;Eurdep;air;54.1;13.41;0.7;Germany;Mecklemburgo-Pomerania Occidental;;Greifswald;GREIFSWALD;7.6;7.8
11/05/17 00:00;DEZ1999;Eurdep;air;53.64;11.39;62.2;Germany;Mecklemburgo-Pomerania Occidental;;Schwerin;SCHWERIN;8.1;8.4
08/05/17 22:00;DEZ2000;Eurdep;air;53.9;11.42;33.4;Germany;Mecklemburgo-Pomerania Occidental;;Wismar;WISMAR;0.0;0.0
11/05/17 00:00;DEZ2002;Eurdep;air;53.9;13.05;6.3;Germany;Mecklemburgo-Pomerania Occidental;;Demmin;DEMMIN;8.0;8.3
11/05/17 00:00;DEZ2010;Eurdep;air;54.44;12.73;2.0;Germany;Mecklemburgo-Pomerania Occidental;;Zingst;ZINGST;6.7;6.8
11/05/17 00:00;DEZ2013;Eurdep;air;54.68;13.43;36.5;Germany;Mecklemburgo-Pomerania Occidental;;Putgarten;PUTGARTEN OT ARKONA;7.7;8.0
11/05/17 00:00;DEZ2019;Eurdep;air;53.77;8.64;12.9;Germany;Baja Sajonia;;Wurster Nordseeküste;NORDHOLZ;6.8;7.1
08/05/17 22:00;DEZ2022;Eurdep;air;53.55;7.94;-0.6;Germany;Baja Sajonia;;Schortens;SCHORTENS-HEIDMÜHLE;0.0;0.0
11/05/17 00:00;DEZ2023;Eurdep;air;53.54;8.47;0.4;Germany;Baja Sajonia;;Nordenham;NORDENHAM-SCHWEEWARDEN;8.9;9.2
11/05/17 00:00;DEZ2028;Eurdep;air;53.19;8.58;2.5;Germany;Bremen;;Bremen;BREMEN-BLUMENTHAL;6.4;6.7
11/05/17 00:00;DEZ2030;Eurdep;air;52.29;10.45;84.5;Germany;Baja Sajonia;;Brunswick;BRAUNSCHWEIG / WATENBÜTTEL;7.9;8.0
11/05/17 00:00;DEZ2032;Eurdep;air;51.83;9.87;152.8;Germany;Baja Sajonia;;Einbeck;EINBECK;10.6;11.0
11/05/17 00:00;DEZ2033;Eurdep;air;52.23;9.67;86.8;Germany;Baja Sajonia;;Springe;BENNIGSEN;9.0;10.0
11/05/17 00:00;DEZ2036;Eurdep;air;52.24;9.86;70.1;Germany;Baja Sajonia;;Sarstedt;SARSTEDT;9.4;9.8
11/05/17 00:00;DEZ2039;Eurdep;air;52.6;10.04;39.0;Germany;Baja Sajonia;;Celle;CELLE-WIETZENBRUCH;6.6;6.9
11/05/17 00:00;DEZ2043;Eurdep;air;51.69;13.23;80.2;Germany;Brandeburgo;;Herzberg;HERZBERG/ELSTER;7.8;8.0
11/05/17 00:00;DEZ2071;Eurdep;air;51.37;6.44;37.9;Germany;Renania del Norte-Westfalia;Región de Düsseldorf;Kempen;KEMPEN;8.2;8.6
11/05/17 00:00;DEZ2076;Eurdep;air;50.94;7.05;52.9;Germany;Renania del Norte-Westfalia;Región de Colonia;Colonia;KÖLN-MERHEIM;9.0;9.3
11/05/17 00:00;DEZ2079;Eurdep;air;50.72;6.4;398.9;Germany;Renania del Norte-Westfalia;Región de Colonia;Hürtgenwald;HÜRTGENWALD-KLEINHAU;9.5;9.8
11/05/17 00:00;DEZ2081;Eurdep;air;50.97;6.58;64.2;Germany;Renania del Norte-Westfalia;Región de Colonia;Bergheim;BERGHEIM-GLESCH;10.4;11.0
11/05/17 00:00;DEZ2082;Eurdep;air;50.89;6.87;60.0;Germany;Renania del Norte-Westfalia;Región de Colonia;Hürth-Hermülheim;HÜRTH;9.7;10.0
11/05/17 00:00;DEZ2084;Eurdep;air;50.67;6.76;171.6;Germany;;;;EUSKIRCHEN;9.0;9.0
11/05/17 00:00;DEZ2086;Eurdep;air;49.55;8.59;98.1;Germany;Hesse;Región de Darmstadt;Viernheim;VIERNHEIM;8.7;8.9
11/05/17 00:00;DEZ2088;Eurdep;air;50.6;8.84;223.4;Germany;Hesse;Distrito de Gießen;Reiskirchen;REISKIRCHEN;10.1;10.0
11/05/17 00:00;DEZ2089;Eurdep;air;50.82;8.53;320.7;Germany;Hesse;Distrito de Gießen;Dautphetal;DAUTPHETAL;8.7;9.0
11/05/17 00:00;DEZ2096;Eurdep;air;50.86;9.48;349.9;Germany;Hesse;Región de Kassel;Oberaula;OBERAULA;10.8;11.0
11/05/17 00:00;DEZ2098;Eurdep;air;51.11;9.12;270.7;Germany;Hesse;Región de Kassel;Bad Wildungen;BAD WILDUNGEN;11.3;11.0
08/05/17 22:00;DEZ2102;Eurdep;air;51.32;13.29;96.1;Germany;Sajonia;Dresde;Riesa;RIESA;0.0;0.0
11/05/17 00:00;DEZ2103;Eurdep;air;50.88;12.13;308.5;Germany;Turingia;;Gera;GERA OT LEUMNITZ;9.9;10.0
11/05/17 00:00;DEZ2108;Eurdep;air;49.6;7.06;412.3;Germany;Sarre;;Nohfelden;NOHFELDEN-SÖTERN;12.0;12.0
11/05/17 00:00;DEZ2117;Eurdep;air;53.03;13.99;45.5;Germany;Brandeburgo;;Angermünde;KERKOW;8.3;8.6
11/05/17 00:00;DEZ2118;Eurdep;air;52.87;14.15;0.8;Germany;Brandeburgo;;Bad Freienwalde;HOHENSAATEN;7.2;7.6
11/05/17 00:00;DEZ2120;Eurdep;air;52.21;14.12;106.8;Germany;Brandeburgo;;Tauche;LINDENBERG;7.5;7.9
11/05/17 00:00;DEZ2123;Eurdep;air;52.28;12.61;47.1;Germany;Brandeburgo;;Golzow;GOLZOW;7.0;7.2
11/05/17 00:00;DEZ2124;Eurdep;air;52.92;13.73;60.0;Germany;Brandeburgo;;Joachimsthal;ALTENHOF;6.8;6.9
11/05/17 00:00;DEZ2126;Eurdep;air;53.14;13.03;85.2;Germany;Brandeburgo;;Stechlin;NEUGLOBSOW;6.7;7.0
11/05/17 00:00;DEZ2134;Eurdep;air;53.16;12.2;66.1;Germany;Brandeburgo;;Pritzwalk;PRITZWALK;7.8;8.2
11/05/17 00:00;DEZ2135;Eurdep;air;52.53;14.37;45.5;Germany;Brandeburgo;;Seelow;SEELOW;7.8;8.0
11/05/17 00:00;DEZ2137;Eurdep;air;51.51;13.98;103.0;Germany;Brandeburgo;;Senftenberg;SENFTENBERG;7.6;7.9
11/05/17 00:00;DEZ2148;Eurdep;air;51.27;12.67;176.8;Germany;Sajonia;Leipzig;Trebsen;BEIERSDORF;10.5;10.0
11/05/17 00:00;DEZ2150;Eurdep;air;51.27;13.89;189.4;Germany;Sajonia;Dresde;Königsbrück;KÖNIGSBRÜCK;8.2;8.0
11/05/17 00:00;DEZ2153;Eurdep;air;51.29;14.85;171.5;Germany;Sajonia;Dresde;Niesky;NIESKY;8.4;8.0
11/05/17 00:00;DEZ2157;Eurdep;air;51.49;14.63;148.5;Germany;Sajonia;Dresde;Weißwasser;WEIßWASSER;6.5;6.0
11/05/17 00:00;DEZ2161;Eurdep;air;50.98;12.52;189.6;Germany;Turingia;;Nobitz;NOBITZ;11.4;11.0
11/05/17 00:00;DEZ2163;Eurdep;air;50.8;10.25;261.3;Germany;Turingia;;Bad Salzungen;BAD SALZUNGEN;11.9;12.0
11/05/17 00:00;DEZ2165;Eurdep;air;50.96;10.71;295.0;Germany;Turingia;;Gotha;GOTHA;12.2;12.0
11/05/17 00:00;DEZ2166;Eurdep;air;51.2;10.44;228.8;Germany;Turingia;;Mühlhausen;MÜHLHAUSEN;11.4;11.0
11/05/17 00:00;DEZ2167;Eurdep;air;51.5;10.81;222.3;Germany;Turingia;;Nordhausen;NORDHAUSEN;12.5;12.0
11/05/17 00:00;DEZ2175;Eurdep;air;52.96;7.27;4.7;Germany;Baja Sajonia;;Dersum;DERSUM;8.2;8.5
11/05/17 00:00;DEZ2176;Eurdep;air;52.52;7.31;24.0;Germany;Baja Sajonia;;Lingen;LINGEN / DWD;5.7;6.1
11/05/17 00:00;DEZ2178;Eurdep;air;53.28;10.73;21.9;Germany;Baja Sajonia;;Bleckede;BLECKEDE;6.6;6.9
11/05/17 00:00;DEZ2182;Eurdep;air;52.17;9.0;0.0;Germany;0;0;0;KALLETAL-STEMMEN;10.2;10.0
11/05/17 00:00;DEZ2183;Eurdep;air;51.47;8.71;444.9;Germany;Renania del Norte-Westfalia;Región de Detmold;Bad Wünnenberg;WÜNNENBERG-BLEIWÄSCHE;9.0;9.2
11/05/17 00:00;DEZ2184;Eurdep;air;51.18;8.49;837.7;Germany;;;;WINTERBERG-KAHLER ASTEN;10.1;10.0
11/05/17 00:00;DEZ2186;Eurdep;air;50.71;8.08;599.3;Germany;Renania del Norte-Westfalia;Arnsberg;Burbach;BURBACH;8.4;8.7
11/05/17 00:00;DEZ2188;Eurdep;air;50.84;8.02;383.1;Germany;Renania del Norte-Westfalia;Arnsberg;Siegen;SIEGEN;10.9;11.0
11/05/17 00:00;DEZ2190;Eurdep;air;50.55;6.25;505.6;Germany;Renania del Norte-Westfalia;Región de Colonia;Monschau;MONSCHAU-HÖFEN;10.3;10.0
11/05/17 00:00;DEZ2192;Eurdep;air;51.08;7.53;346.7;Germany;Renania del Norte-Westfalia;Región de Colonia;Marienheide;MARIENHEIDE;9.8;10.0
11/05/17 00:00;DEZ2196;Eurdep;air;49.21;8.18;130.1;Germany;Renania-Palatinado;;Bornheim;LANDAU/PF.-MÖRLHEIM;9.7;10.0
11/05/17 00:00;DEZ2197;Eurdep;air;49.46;8.44;89.5;Germany;Renania-Palatinado;;Ludwigshafen am Rhein;LUDWIGSHAFEN/RHEIN;9.2;9.6
11/05/17 00:00;DEZ2198;Eurdep;air;49.36;8.14;179.8;Germany;Renania-Palatinado;;Neustadt an der Weinstraße;NEUSTADT/WEINSTR. OT HAARDT.;8.7;9.1
11/05/17 00:00;DEZ2199;Eurdep;air;49.31;8.45;95.3;Germany;Renania-Palatinado;;Espira;SPEYER;8.6;8.0
11/05/17 00:00;DEZ2200;Eurdep;air;48.98;8.14;121.5;Germany;Renania-Palatinado;;Scheibenhardt;SCHEIBENHARDT;8.9;9.2
11/05/17 00:00;DEZ2201;Eurdep;air;49.13;8.15;126.8;Germany;Renania-Palatinado;;Rohrbach;STEINWEILER;8.7;8.9
11/05/17 00:00;DEZ2203;Eurdep;air;48.9;9.13;286.0;Germany;Baden-Wurtemberg;Región Administrativa de Stuttgart;Asperg;ASPERG;10.9;11.0
11/05/17 00:00;DEZ2204;Eurdep;air;49.04;9.12;187.5;Germany;Baden-Wurtemberg;Región Administrativa de Stuttgart;Bönnigheim;BÖNNIGHEIM ST HOHENSTEIN;10.7;11.0
08/05/17 22:00;DEZ2205;Eurdep;air;48.94;9.29;295.9;Germany;Baden-Wurtemberg;Región Administrativa de Stuttgart;Erdmannhausen;ERDMANNHAUSEN;0.0;0.0
11/05/17 00:00;DEZ2207;Eurdep;air;49.0;9.11;0.0;Germany;0;0;0;LÖCHGAU;10.7;11.0
11/05/17 00:00;DEZ2210;Eurdep;air;48.83;9.14;308.3;Germany;Baden-Wurtemberg;Región Administrativa de Stuttgart;Stuttgart;KORNTAL-MÜNCHINGEN;11.3;11.0
11/05/17 00:00;DEZ2211;Eurdep;air;48.95;9.45;248.5;Germany;Baden-Wurtemberg;Región Administrativa de Stuttgart;Backnang;BACKNANG;9.7;10.0
11/05/17 00:00;DEZ2213;Eurdep;air;49.24;9.11;226.3;Germany;Baden-Wurtemberg;Región Administrativa de Stuttgart;Bad Rappenau;BAD RAPPENAU;10.5;10.0
11/05/17 00:00;DEZ2214;Eurdep;air;49.16;8.99;230.7;Germany;Baden-Wurtemberg;Región Administrativa de Stuttgart;Gemmingen;GEMMINGEN;10.2;10.0
11/05/17 00:00;DEZ2215;Eurdep;air;49.06;9.29;268.5;Germany;Baden-Wurtemberg;Región Administrativa de Stuttgart;Ilsfeld;ILSFELD OT AUENSTEIN;10.9;11.0
11/05/17 00:00;DEZ2216;Eurdep;air;49.1;9.39;359.7;Germany;Baden-Wurtemberg;Región Administrativa de Stuttgart;Löwenstein;LÖWENSTEIN;10.9;11.0
11/05/17 00:00;DEZ2220;Eurdep;air;48.6;10.25;465.3;Germany;Baden-Wurtemberg;Región Administrativa de Stuttgart;Hermaringen;HERMARINGEN;10.1;10.0
11/05/17 00:00;DEZ2223;Eurdep;air;48.95;8.39;123.3;Germany;Baden-Wurtemberg;Distrito de Karlsruhe;Ettlingen;ETTLINGEN;10.3;11.0
11/05/17 00:00;DEZ2224;Eurdep;air;49.24;8.46;98.5;Germany;Baden-Wurtemberg;Distrito de Karlsruhe;Philippsburg;PHILIPPSBURG;8.6;9.0
11/05/17 00:00;DEZ2229;Eurdep;air;49.23;8.51;105.5;Germany;Baden-Wurtemberg;Distrito de Karlsruhe;Waghäusel;WAGHÄUSEL OT WIESENTAL;8.9;9.2
11/05/17 00:00;DEZ2230;Eurdep;air;49.26;8.5;97.0;Germany;Baden-Wurtemberg;Distrito de Karlsruhe;Oberhausen-Rheinhausen;OBERHAUSEN-RHEINHAUSEN;9.3;9.7
11/05/17 00:00;DEZ2232;Eurdep;air;49.16;8.42;101.6;Germany;Baden-Wurtemberg;Distrito de Karlsruhe;Dettenheim;DETTENHEIM OT LIEDOLSHEIM;8.6;9.0
11/05/17 00:00;DEZ2233;Eurdep;air;48.95;8.23;106.4;Germany;Baden-Wurtemberg;Distrito de Karlsruhe;Au am Rhein;AU AM RHEIN;8.8;9.0
11/05/17 00:00;DEZ2234;Eurdep;air;48.86;8.2;118.0;Germany;Baden-Wurtemberg;Distrito de Karlsruhe;Rastatt;RASTATT;9.3;9.7
11/05/17 00:00;DEZ2235;Eurdep;air;48.9;8.2;111.7;Germany;Baden-Wurtemberg;Distrito de Karlsruhe;Steinmauern;STEINMAUERN;8.7;9.1
11/05/17 00:00;DEZ2238;Eurdep;air;49.43;8.54;106.3;Germany;Baden-Wurtemberg;Distrito de Karlsruhe;Mannheim;MANNHEIM ST RHEINAU;9.7;9.9
11/05/17 00:00;DEZ2239;Eurdep;air;49.37;9.02;238.6;Germany;Baden-Wurtemberg;Distrito de Karlsruhe;Aglasterhausen;AGLASTERHAUSEN OT BREIT.;11.0;11.0
11/05/17 00:00;DEZ2240;Eurdep;air;49.45;9.18;395.0;Germany;Baden-Wurtemberg;Distrito de Karlsruhe;Limbach;LIMBACH OT KRUMBACH;11.7;12.0
11/05/17 00:00;DEZ2241;Eurdep;air;49.35;9.13;151.4;Germany;Baden-Wurtemberg;Distrito de Karlsruhe;Mosbach;MOSBACH;11.0;11.0
11/05/17 00:00;DEZ2242;Eurdep;air;49.36;9.11;266.7;Germany;Baden-Wurtemberg;Distrito de Karlsruhe;Mosbach;MOSBACH ST DIEDESHEIM;9.1;9.5
11/05/17 00:00;DEZ2243;Eurdep;air;49.39;9.09;274.6;Germany;Baden-Wurtemberg;Distrito de Karlsruhe;Neckargerach;MOSBACH ST REICHENBUCH;11.1;11.0
11/05/17 00:00;DEZ2244;Eurdep;air;49.54;9.16;526.4;Germany;Baden-Wurtemberg;Distrito de Karlsruhe;Mudau;MUDAU OT SCHLOSSAU;10.9;11.0
11/05/17 00:00;DEZ2246;Eurdep;air;49.4;9.27;268.2;Germany;Baden-Wurtemberg;Distrito de Karlsruhe;Schefflenz;UNTER-SCHEFFLENZ;10.5;10.0
11/05/17 00:00;DEZ2248;Eurdep;air;49.24;8.68;139.8;Germany;Baden-Wurtemberg;Distrito de Karlsruhe;Malsch;MALSCH;11.0;11.0
11/05/17 00:00;DEZ2249;Eurdep;air;49.34;8.8;136.5;Germany;Baden-Wurtemberg;Distrito de Karlsruhe;Mauer;MAUER;10.2;10.0
11/05/17 00:00;DEZ2250;Eurdep;air;49.46;8.81;294.8;Germany;Baden-Wurtemberg;Distrito de Karlsruhe;Schönau;SCHÖNAU ST ALTNEUDORF;10.5;10.0
08/05/17 22:00;DEZ2252;Eurdep;air;49.53;8.64;98.2;Germany;Baden-Wurtemberg;Distrito de Karlsruhe;Weinheim;WEINHEIM;0.0;0.0
11/05/17 00:00;DEZ2253;Eurdep;air;49.33;8.98;183.7;Germany;Baden-Wurtemberg;Distrito de Karlsruhe;Helmstadt-Bargen;HELMSTADT-BARGEN OT HELM.;10.7;11.0
11/05/17 00:00;DEZ2254;Eurdep;air;49.31;9.02;219.7;Germany;Baden-Wurtemberg;Distrito de Karlsruhe;Helmstadt-Bargen;HELMSTADT-BARGEN OT BARG.;11.4;11.0
11/05/17 00:00;DEZ2255;Eurdep;air;49.05;8.85;313.3;Germany;Baden-Wurtemberg;Distrito de Karlsruhe;Sternenfels;STERNENFELS;11.4;11.0
11/05/17 00:00;DEZ2257;Eurdep;air;48.02;7.73;199.1;Germany;Baden-Wurtemberg;Región de Friburgo;Friburgo;FREIBURG ST WALTERSHOFEN;11.3;11.0
11/05/17 00:00;DEZ2259;Eurdep;air;47.98;7.79;233.0;Germany;Baden-Wurtemberg;Región de Friburgo;Friburgo;FREIBURG ST ST. GEORGEN;10.1;10.0
11/05/17 00:00;DEZ2261;Eurdep;air;48.03;7.6;186.2;Germany;Baden-Wurtemberg;Región de Friburgo;Breisach;BREISACH;9.3;9.0
11/05/17 00:00;DEZ2264;Eurdep;air;47.86;7.58;210.9;Germany;Baden-Wurtemberg;Región de Friburgo;Neuenburg del Rin;NEUENBURG ST GRIßHEIM;9.0;9.4
11/05/17 00:00;DEZ2267;Eurdep;air;47.59;7.86;290.8;Germany;Baden-Wurtemberg;Región de Friburgo;Schwörstadt;SCHWÖRSTADT;8.8;9.5
11/05/17 00:00;DEZ2268;Eurdep;air;47.65;8.13;625.1;Germany;Baden-Wurtemberg;Región de Friburgo;Albbruck;ALBBRUCK OT UNTERALPFEN;12.3;12.0
11/05/17 00:00;DEZ2269;Eurdep;air;47.64;8.08;661.9;Germany;Baden-Wurtemberg;Región de Friburgo;Görwihl;GÖRWIHL OT GÖRWIHL;13.1;13.0
11/05/17 00:00;DEZ2270;Eurdep;air;47.68;8.01;880.0;Germany;Baden-Wurtemberg;Región de Friburgo;Herrischried;HERRISCHRIED OT GROßHERRISCHWAND;19.0;19.0
11/05/17 00:00;DEZ2272;Eurdep;air;47.63;8.31;357.6;Germany;Baden-Wurtemberg;Región de Friburgo;Lauchringen;LAUCHRINGEN OT UNTERLAU.;11.4;11.0
11/05/17 00:00;DEZ2273;Eurdep;air;47.56;7.97;295.3;Germany;Baden-Wurtemberg;Región de Friburgo;Bad Säckingen;BAD SÄCKINGEN;8.3;9.0
11/05/17 00:00;DEZ2274;Eurdep;air;47.77;8.11;888.7;Germany;Baden-Wurtemberg;Región de Friburgo;St. Blasien;ST. BLASIEN;15.7;16.0
11/05/17 00:00;DEZ2277;Eurdep;air;47.72;8.32;648.9;Germany;Baden-Wurtemberg;Región de Friburgo;Ühlingen-Birkendorf;ÜHLINGEN-BIRKENDORF;11.5;12.0
11/05/17 00:00;DEZ2288;Eurdep;air;54.18;12.08;5.9;Germany;Mecklemburgo-Pomerania Occidental;;Rostock;ROSTOCK-WARNEMÜNDE;8.1;8.0
11/05/17 00:00;DEZ2291;Eurdep;air;53.95;13.42;16.4;Germany;Mecklemburgo-Pomerania Occidental;;Gützkow;GÜTZKOW;7.7;8.0
11/05/17 00:00;DEZ2293;Eurdep;air;53.32;11.11;30.5;Germany;Mecklemburgo-Pomerania Occidental;;Lübtheen;LÜBTHEEN;7.5;7.7
11/05/17 00:00;DEZ2298;Eurdep;air;54.37;13.67;4.7;Germany;Mecklemburgo-Pomerania Occidental;;Sellin;SELLIN;7.4;7.7
11/05/17 00:00;DEZ2308;Eurdep;air;53.43;10.75;33.7;Germany;Mecklemburgo-Pomerania Occidental;;Gresse;GRESSE;7.1;7.3
11/05/17 00:00;DEZ2309;Eurdep;air;53.38;11.24;17.6;Germany;Mecklemburgo-Pomerania Occidental;;Kuhstorf;KUHSTORF;6.3;6.0
11/05/17 00:00;DEZ2312;Eurdep;air;53.13;11.36;16.8;Germany;Mecklemburgo-Pomerania Occidental;;Dömitz;POLZ;6.2;6.6
11/05/17 00:00;DEZ2313;Eurdep;air;53.23;11.2;18.9;Germany;Mecklemburgo-Pomerania Occidental;;Vielank;TEWSWOOS;6.9;7.2
